{"count": 2083, "has_more": true, "map_location": {"lat": 43.875761, "panoramio_zoom": 8, "lon": 16.93725636071103}, "photos": [{"upload_date": "31 January 2009", "owner_name": "RADOMIR KR\u010cMAR", "photo_id": 18380697, "longitude": 17.013702, "height": 60, "width": 60, "photo_title": "LJILJAN SA KRUGA,CINCAR,GLAMO\u010c;Lily  from Krug, Cincar, Glamo\u010d", "latitude": 43.860772, "owner_url": "http://www.panoramio.com/user/1951764", "photo_url": "http://www.panoramio.com/photo/18380697", "photo_file_url": "http://mw2.google.com/mw-panoramio/photos/square/18380697.jpg", "owner_id": 1951764}, {"upload_date": "27 September 2011", "owner_name": "MehmedPora\u010daninMe\u0161a", "photo_id": 59659996, "longitude": 17.132149, "height": 60, "width": 60, "photo_title": "ISPRED I IZA SVEGA POSTOJI UVIJEK NE\u0160TO DRUGO", "latitude": 43.686619, "owner_url": "http://www.panoramio.com/user/5526748", "photo_url": "http://www.panoramio.com/photo/59659996", "photo_file_url": "http://mw2.google.com/mw-panoramio/photos/square/59659996.jpg", "owner_id": 5526748}, {"upload_date": "07 January 2011", "owner_name": "RADOMIR KR\u010cMAR", "photo_id": 46201019, "longitude": 17.015076, "height": 60, "width": 60, "photo_title": "\u0160IROKO POLJE GLAMO\u010cKO - BROAD FIELD OF GLAMOCH", "latitude": 43.895319, "owner_url": "http://www.panoramio.com/user/1951764", "photo_url": "http://www.panoramio.com/photo/46201019", "photo_file_url": "http://mw2.google.com/mw-panoramio/photos/square/46201019.jpg", "owner_id": 1951764}, {"upload_date": "25 August 2007", "owner_name": "Busa P\u00e9ter", "photo_id": 4166294, "longitude": 17.082882, "height": 60, "width": 60, "photo_title": "V\u00e1gyakoz\u00e1s", "latitude": 43.683267, "owner_url": "http://www.panoramio.com/user/109117", "photo_url": "http://www.panoramio.com/photo/4166294", "photo_file_url": "http://mw2.google.com/mw-panoramio/photos/square/4166294.jpg", "owner_id": 109117}, {"upload_date": "30 October 2009", "owner_name": "Ivo Dolic", "photo_id": 28352919, "longitude": 16.861932, "height": 60, "width": 60, "photo_title": "Zimsko drvo - Winter tree", "latitude": 43.878021, "owner_url": "http://www.panoramio.com/user/2573851", "photo_url": "http://www.panoramio.com/photo/28352919", "photo_file_url": "http://mw2.google.com/mw-panoramio/photos/square/28352919.jpg", "owner_id": 2573851}, {"upload_date": "15 August 2011", "owner_name": "Zlatan Oli\u0107", "photo_id": 57399615, "place_id": "c2423f1a761fcd248108675aceaf6fa497918eca", "longitude": 16.637254, "height": 60, "width": 60, "photo_title": "Crkva \u010cudotvorne Gospe Sinjske, zvonik", "latitude": 43.701462, "owner_url": "http://www.panoramio.com/user/2743850", "photo_url": "http://www.panoramio.com/photo/57399615", "photo_file_url": "http://mw2.google.com/mw-panoramio/photos/square/57399615.jpg", "owner_id": 2743850}, {"upload_date": "22 May 2011", "owner_name": "MehmedPora\u010daninMe\u0161a", "photo_id": 53048764, "longitude": 17.043743000000006, "height": 60, "width": 60, "photo_title": "SUN\u010cEV POLJUBAC ZA LAKU NO\u0106", "latitude": 43.691211, "owner_url": "http://www.panoramio.com/user/5526748", "photo_url": "http://www.panoramio.com/photo/53048764", "photo_file_url": "http://mw2.google.com/mw-panoramio/photos/square/53048764.jpg", "owner_id": 5526748}, {"upload_date": "15 July 2010", "owner_name": "Ivo Dolic", "photo_id": 37971139, "longitude": 16.803932000000003, "height": 60, "width": 60, "photo_title": "Svjetlo razgoni mrak...", "latitude": 43.906396, "owner_url": "http://www.panoramio.com/user/2573851", "photo_url": "http://www.panoramio.com/photo/37971139", "photo_file_url": "http://mw2.google.com/mw-panoramio/photos/square/37971139.jpg", "owner_id": 2573851}, {"upload_date": "28 June 2008", "owner_name": "DC", "photo_id": 11598197, "longitude": 16.674103, "height": 60, "width": 60, "photo_title": "\u0160etnja uz Cetinu /A walk by the river Cetina", "latitude": 43.737883, "owner_url": "http://www.panoramio.com/user/1936600", "photo_url": "http://www.panoramio.com/photo/11598197", "photo_file_url": "http://mw2.google.com/mw-panoramio/photos/square/11598197.jpg", "owner_id": 1936600}, {"upload_date": "24 December 2010", "owner_name": "RADOMIR KR\u010cMAR", "photo_id": 45518719, "longitude": 16.954651, "height": 60, "width": 60, "photo_title": "TOPLO POLJE GLAMO\u010cKO-WARM FIELD OF GLAMO\u010c", "latitude": 43.935286, "owner_url": "http://www.panoramio.com/user/1951764", "photo_url": "http://www.panoramio.com/photo/45518719", "photo_file_url": "http://mw2.google.com/mw-panoramio/photos/square/45518719.jpg", "owner_id": 1951764}, {"upload_date": "06 January 2009", "owner_name": "Mario Glava\u0161", "photo_id": 17559413, "longitude": 16.974564, "height": 60, "width": 60, "photo_title": "Bu\u0161ko Blato", "latitude": 43.662905, "owner_url": "http://www.panoramio.com/user/2033666", "photo_url": "http://www.panoramio.com/photo/17559413", "photo_file_url": "http://mw2.google.com/mw-panoramio/photos/square/17559413.jpg", "owner_id": 2033666}, {"upload_date": "19 October 2009", "owner_name": "Ivo Dolic", "photo_id": 28002115, "longitude": 17.008622000000003, "height": 60, "width": 60, "photo_title": "Rutavi magar\u010di\u0107", "latitude": 43.832174, "owner_url": "http://www.panoramio.com/user/2573851", "photo_url": "http://www.panoramio.com/photo/28002115", "photo_file_url": "http://mw2.google.com/mw-panoramio/photos/square/28002115.jpg", "owner_id": 2573851}, {"upload_date": "06 December 2009", "owner_name": "Ivo Dolic", "photo_id": 29617859, "longitude": 17.098374000000007, "height": 60, "width": 60, "photo_title": "Zalazak Sunca na Kame\u0161nici", "latitude": 43.856007, "owner_url": "http://www.panoramio.com/user/2573851", "photo_url": "http://www.panoramio.com/photo/29617859", "photo_file_url": "http://mw2.google.com/mw-panoramio/photos/square/29617859.jpg", "owner_id": 2573851}, {"upload_date": "10 August 2009", "owner_name": "Ivo Dolic", "photo_id": 25469125, "longitude": 17.09919, "height": 60, "width": 60, "photo_title": "Diskretni govor", "latitude": 43.818923, "owner_url": "http://www.panoramio.com/user/2573851", "photo_url": "http://www.panoramio.com/photo/25469125", "photo_file_url": "http://mw2.google.com/mw-panoramio/photos/square/25469125.jpg", "owner_id": 2573851}, {"upload_date": "30 October 2009", "owner_name": "Ivo Dolic", "photo_id": 28352922, "longitude": 16.593889, "height": 60, "width": 60, "photo_title": "Runolist, Edelweiss", "latitude": 43.946944, "owner_url": "http://www.panoramio.com/user/2573851", "photo_url": "http://www.panoramio.com/photo/28352922", "photo_file_url": "http://mw2.google.com/mw-panoramio/photos/square/28352922.jpg", "owner_id": 2573851}, {"upload_date": "15 March 2009", "owner_name": "RADOMIR KR\u010cMAR", "photo_id": 20075965, "longitude": 16.915812, "height": 60, "width": 60, "photo_title": "PANORAMA GLAMO\u010cKOG POLJA,POGLED SA CAREVICE", "latitude": 43.972527, "owner_url": "http://www.panoramio.com/user/1951764", "photo_url": "http://www.panoramio.com/photo/20075965", "photo_file_url": "http://mw2.google.com/mw-panoramio/photos/square/20075965.jpg", "owner_id": 1951764}, {"upload_date": "03 March 2009", "owner_name": "RADOMIR KR\u010cMAR", "photo_id": 19635255, "longitude": 16.850981, "height": 60, "width": 60, "photo_title": "PRAVOSLAVNA CRKVA-GLAMO\u010c", "latitude": 44.04726, "owner_url": "http://www.panoramio.com/user/1951764", "photo_url": "http://www.panoramio.com/photo/19635255", "photo_file_url": "http://mw2.google.com/mw-panoramio/photos/square/19635255.jpg", "owner_id": 1951764}, {"upload_date": "28 July 2011", "owner_name": "@na travizi", "photo_id": 56455975, "longitude": 16.826505999999995, "height": 60, "width": 60, "photo_title": "Silent witness-S.O.S. for mountain forests", "latitude": 43.748901, "owner_url": "http://www.panoramio.com/user/2772860", "photo_url": "http://www.panoramio.com/photo/56455975", "photo_file_url": "http://mw2.google.com/mw-panoramio/photos/square/56455975.jpg", "owner_id": 2772860}, {"upload_date": "29 January 2010", "owner_name": "Ivo Dolic", "photo_id": 31595277, "longitude": 16.95375, "height": 60, "width": 60, "photo_title": "Zimsko jutro kod Ajdukovi\u0107a", "latitude": 43.839696, "owner_url": "http://www.panoramio.com/user/2573851", "photo_url": "http://www.panoramio.com/photo/31595277", "photo_file_url": "http://mw2.google.com/mw-panoramio/photos/square/31595277.jpg", "owner_id": 2573851}, {"upload_date": "19 January 2010", "owner_name": "Ivo Dolic", "photo_id": 31252027, "longitude": 16.901135, "height": 60, "width": 60, "photo_title": "Sjene nad Prispom", "latitude": 43.86266, "owner_url": "http://www.panoramio.com/user/2573851", "photo_url": "http://www.panoramio.com/photo/31252027", "photo_file_url": "http://mw2.google.com/mw-panoramio/photos/square/31252027.jpg", "owner_id": 2573851}, {"upload_date": "22 October 2009", "owner_name": "Ivo Dolic", "photo_id": 28089601, "longitude": 16.973877, "height": 60, "width": 60, "photo_title": "Sturba", "latitude": 43.782605, "owner_url": "http://www.panoramio.com/user/2573851", "photo_url": "http://www.panoramio.com/photo/28089601", "photo_file_url": "http://mw2.google.com/mw-panoramio/photos/square/28089601.jpg", "owner_id": 2573851}, {"upload_date": "21 February 2007", "owner_name": "Metodi Davidovi\u0107", "photo_id": 927104, "longitude": 17.051983, "height": 60, "width": 60, "photo_title": "Vitorog", "latitude": 44.115198, "owner_url": "http://www.panoramio.com/user/194685", "photo_url": "http://www.panoramio.com/photo/927104", "photo_file_url": "http://mw2.google.com/mw-panoramio/photos/square/927104.jpg", "owner_id": 194685}, {"upload_date": "06 April 2009", "owner_name": "Ivo Dolic", "photo_id": 20861312, "longitude": 16.863928, "height": 60, "width": 60, "photo_title": "Posljedice munje", "latitude": 43.949729, "owner_url": "http://www.panoramio.com/user/2573851", "photo_url": "http://www.panoramio.com/photo/20861312", "photo_file_url": "http://mw2.google.com/mw-panoramio/photos/square/20861312.jpg", "owner_id": 2573851}, {"upload_date": "14 January 2009", "owner_name": "Ivo Dolic", "photo_id": 17820330, "longitude": 16.809082, "height": 60, "width": 60, "photo_title": "Livanjsko polje ", "latitude": 43.857925, "owner_url": "http://www.panoramio.com/user/2573851", "photo_url": "http://www.panoramio.com/photo/17820330", "photo_file_url": "http://mw2.google.com/mw-panoramio/photos/square/17820330.jpg", "owner_id": 2573851}, {"upload_date": "19 October 2009", "owner_name": "Ivo Dolic", "photo_id": 27998842, "longitude": 16.846869, "height": 60, "width": 60, "photo_title": "Plovu\u0107a", "latitude": 43.840965, "owner_url": "http://www.panoramio.com/user/2573851", "photo_url": "http://www.panoramio.com/photo/27998842", "photo_file_url": "http://mw2.google.com/mw-panoramio/photos/square/27998842.jpg", "owner_id": 2573851}, {"upload_date": "18 August 2009", "owner_name": "Takeadventure", "photo_id": 25787388, "longitude": 16.869572000001, "height": 60, "width": 60, "photo_title": "The section from Glamo\u010d to Pribelja", "latitude": 44.090367000004, "owner_url": "http://www.panoramio.com/user/3535119", "photo_url": "http://www.panoramio.com/photo/25787388", "photo_file_url": "http://mw2.google.com/mw-panoramio/photos/square/25787388.jpg", "owner_id": 3535119}, {"upload_date": "05 February 2009", "owner_name": "Ivo Dolic", "photo_id": 18578825, "longitude": 16.969328, "height": 60, "width": 60, "photo_title": "Busko jezero", "latitude": 43.694935, "owner_url": "http://www.panoramio.com/user/2573851", "photo_url": "http://www.panoramio.com/photo/18578825", "photo_file_url": "http://mw2.google.com/mw-panoramio/photos/square/18578825.jpg", "owner_id": 2573851}, {"upload_date": "15 January 2009", "owner_name": "Ivo Dolic", "photo_id": 17854840, "longitude": 16.732521, "height": 60, "width": 60, "photo_title": "Pogled na Troglav s \u017drvnja", "latitude": 43.865665, "owner_url": "http://www.panoramio.com/user/2573851", "photo_url": "http://www.panoramio.com/photo/17854840", "photo_file_url": "http://mw2.google.com/mw-panoramio/photos/square/17854840.jpg", "owner_id": 2573851}, {"upload_date": "19 October 2009", "owner_name": "Ivo Dolic", "photo_id": 27999546, "longitude": 16.890213, "height": 60, "width": 60, "photo_title": "Ru\u017eina ku\u0107a", "latitude": 43.753474, "owner_url": "http://www.panoramio.com/user/2573851", "photo_url": "http://www.panoramio.com/photo/27999546", "photo_file_url": "http://mw2.google.com/mw-panoramio/photos/square/27999546.jpg", "owner_id": 2573851}, {"upload_date": "07 December 2009", "owner_name": "Mario Glava\u0161", "photo_id": 29632817, "longitude": 17.039967, "height": 60, "width": 60, "photo_title": "Bu\u0161ko Blato (Livno & T.Grad)", "latitude": 43.636324, "owner_url": "http://www.panoramio.com/user/2033666", "photo_url": "http://www.panoramio.com/photo/29632817", "photo_file_url": "http://mw2.google.com/mw-panoramio/photos/square/29632817.jpg", "owner_id": 2033666}, {"upload_date": "07 October 2010", "owner_name": "Ivo Dolic", "photo_id": 41839509, "longitude": 16.775973, "height": 60, "width": 60, "photo_title": "Kapelica od kamena", "latitude": 43.968712, "owner_url": "http://www.panoramio.com/user/2573851", "photo_url": "http://www.panoramio.com/photo/41839509", "photo_file_url": "http://mw2.google.com/mw-panoramio/photos/square/41839509.jpg", "owner_id": 2573851}, {"upload_date": "19 October 2009", "owner_name": "Ivo Dolic", "photo_id": 28012518, "longitude": 17.057840999999996, "height": 60, "width": 60, "photo_title": "Ostaci staja po Cincarom", "latitude": 43.883542, "owner_url": "http://www.panoramio.com/user/2573851", "photo_url": "http://www.panoramio.com/photo/28012518", "photo_file_url": "http://mw2.google.com/mw-panoramio/photos/square/28012518.jpg", "owner_id": 2573851}, {"upload_date": "02 December 2009", "owner_name": "Ivo Dolic", "photo_id": 29477256, "longitude": 16.932163, "height": 60, "width": 60, "photo_title": "Kame\u0161nica", "latitude": 43.747491, "owner_url": "http://www.panoramio.com/user/2573851", "photo_url": "http://www.panoramio.com/photo/29477256", "photo_file_url": "http://mw2.google.com/mw-panoramio/photos/square/29477256.jpg", "owner_id": 2573851}, {"upload_date": "23 July 2009", "owner_name": "RADOMIR KR\u010cMAR", "photo_id": 24792430, "longitude": 16.716583, "height": 60, "width": 60, "photo_title": "MALI I VELIKI SOKOLAC,POGLED IZ \u010cAPRAZLIJA,OD HRGOVI\u0106A,LIVNO", "latitude": 43.895069, "owner_url": "http://www.panoramio.com/user/1951764", "photo_url": "http://www.panoramio.com/photo/24792430", "photo_file_url": "http://mw2.google.com/mw-panoramio/photos/square/24792430.jpg", "owner_id": 1951764}, {"upload_date": "09 September 2010", "owner_name": "Ivo Dolic", "photo_id": 40509916, "longitude": 17.112536, "height": 60, "width": 60, "photo_title": "Nadmetanje", "latitude": 43.805792, "owner_url": "http://www.panoramio.com/user/2573851", "photo_url": "http://www.panoramio.com/photo/40509916", "photo_file_url": "http://mw2.google.com/mw-panoramio/photos/square/40509916.jpg", "owner_id": 2573851}, {"upload_date": "10 August 2009", "owner_name": "Ivo Dolic", "photo_id": 25470104, "longitude": 17.01808, "height": 60, "width": 60, "photo_title": "Megdan - Contest", "latitude": 43.869993, "owner_url": "http://www.panoramio.com/user/2573851", "photo_url": "http://www.panoramio.com/photo/25470104", "photo_file_url": "http://mw2.google.com/mw-panoramio/photos/square/25470104.jpg", "owner_id": 2573851}, {"upload_date": "10 August 2009", "owner_name": "Ivo Dolic", "photo_id": 25470048, "longitude": 17.019925, "height": 60, "width": 60, "photo_title": "Konji-impresionizam, The Horses impressionism", "latitude": 43.853113, "owner_url": "http://www.panoramio.com/user/2573851", "photo_url": "http://www.panoramio.com/photo/25470048", "photo_file_url": "http://mw2.google.com/mw-panoramio/photos/square/25470048.jpg", "owner_id": 2573851}, {"upload_date": "13 December 2009", "owner_name": "Ivo Dolic", "photo_id": 29873240, "longitude": 17.06357, "height": 60, "width": 60, "photo_title": "Samo mu Princ nedostaje", "latitude": 43.871973, "owner_url": "http://www.panoramio.com/user/2573851", "photo_url": "http://www.panoramio.com/photo/29873240", "photo_file_url": "http://mw2.google.com/mw-panoramio/photos/square/29873240.jpg", "owner_id": 2573851}, {"upload_date": "02 February 2009", "owner_name": "RADOMIR KR\u010cMAR", "photo_id": 18479548, "longitude": 16.963577, "height": 60, "width": 60, "photo_title": "CINCAR U MAJU", "latitude": 43.92955, "owner_url": "http://www.panoramio.com/user/1951764", "photo_url": "http://www.panoramio.com/photo/18479548", "photo_file_url": "http://mw2.google.com/mw-panoramio/photos/square/18479548.jpg", "owner_id": 1951764}, {"upload_date": "04 May 2009", "owner_name": "Ivo Dolic", "photo_id": 21956086, "longitude": 16.921606, "height": 60, "width": 60, "photo_title": "Zalazak na Lipskom jezeru", "latitude": 43.757038, "owner_url": "http://www.panoramio.com/user/2573851", "photo_url": "http://www.panoramio.com/photo/21956086", "photo_file_url": "http://mw2.google.com/mw-panoramio/photos/square/21956086.jpg", "owner_id": 2573851}, {"upload_date": "31 May 2010", "owner_name": "RADOMIR KR\u010cMAR", "photo_id": 36211103, "longitude": 16.986923, "height": 60, "width": 60, "photo_title": "CINCAR,GLAMO\u010cKO POLJE", "latitude": 43.922725, "owner_url": "http://www.panoramio.com/user/1951764", "photo_url": "http://www.panoramio.com/photo/36211103", "photo_file_url": "http://mw2.google.com/mw-panoramio/photos/square/36211103.jpg", "owner_id": 1951764}, {"upload_date": "10 August 2009", "owner_name": "Ivo Dolic", "photo_id": 25468970, "longitude": 17.029109, "height": 60, "width": 60, "photo_title": "Konji na lokvi - Horses Mirror", "latitude": 43.846568, "owner_url": "http://www.panoramio.com/user/2573851", "photo_url": "http://www.panoramio.com/photo/25468970", "photo_file_url": "http://mw2.google.com/mw-panoramio/photos/square/25468970.jpg", "owner_id": 2573851}, {"upload_date": "15 January 2009", "owner_name": "Ivo Dolic", "photo_id": 17854580, "longitude": 17.007437, "height": 60, "width": 60, "photo_title": "crkva Svih svetih, Livno", "latitude": 43.82479, "owner_url": "http://www.panoramio.com/user/2573851", "photo_url": "http://www.panoramio.com/photo/17854580", "photo_file_url": "http://mw2.google.com/mw-panoramio/photos/square/17854580.jpg", "owner_id": 2573851}, {"upload_date": "31 August 2009", "owner_name": "Ivo Dolic", "photo_id": 26289722, "longitude": 16.994519, "height": 60, "width": 60, "photo_title": "Stampedo prema zapadu", "latitude": 43.867935, "owner_url": "http://www.panoramio.com/user/2573851", "photo_url": "http://www.panoramio.com/photo/26289722", "photo_file_url": "http://mw2.google.com/mw-panoramio/photos/square/26289722.jpg", "owner_id": 2573851}, {"upload_date": "10 August 2009", "owner_name": "Ivo Dolic", "photo_id": 25469715, "longitude": 17.045116, "height": 60, "width": 60, "photo_title": "Konji u zalasku sunca - The horses and Sunset", "latitude": 43.854583, "owner_url": "http://www.panoramio.com/user/2573851", "photo_url": "http://www.panoramio.com/photo/25469715", "photo_file_url": "http://mw2.google.com/mw-panoramio/photos/square/25469715.jpg", "owner_id": 2573851}, {"upload_date": "13 March 2009", "owner_name": "Ivo Dolic", "photo_id": 19981178, "longitude": 16.864014, "height": 60, "width": 60, "photo_title": "Sun\u010deve zrake iznad \u017dirovi\u0107a", "latitude": 43.871385, "owner_url": "http://www.panoramio.com/user/2573851", "photo_url": "http://www.panoramio.com/photo/19981178", "photo_file_url": "http://mw2.google.com/mw-panoramio/photos/square/19981178.jpg", "owner_id": 2573851}, {"upload_date": "15 July 2010", "owner_name": "Ivo Dolic", "photo_id": 37969681, "longitude": 16.939974000000007, "height": 60, "width": 60, "photo_title": "\u017ddralovi - Cranes", "latitude": 43.856347, "owner_url": "http://www.panoramio.com/user/2573851", "photo_url": "http://www.panoramio.com/photo/37969681", "photo_file_url": "http://mw2.google.com/mw-panoramio/photos/square/37969681.jpg", "owner_id": 2573851}, {"upload_date": "15 July 2010", "owner_name": "Ivo Dolic", "photo_id": 37969629, "longitude": 17.10288, "height": 60, "width": 60, "photo_title": "Zlatni u potrazi za travom...", "latitude": 43.778779, "owner_url": "http://www.panoramio.com/user/2573851", "photo_url": "http://www.panoramio.com/photo/37969629", "photo_file_url": "http://mw2.google.com/mw-panoramio/photos/square/37969629.jpg", "owner_id": 2573851}, {"upload_date": "12 September 2011", "owner_name": "Ivo Dolic", "photo_id": 58878164, "longitude": 17.119145, "height": 60, "width": 60, "photo_title": "Zekan u zlatnom zalazu sunca", "latitude": 43.788322, "owner_url": "http://www.panoramio.com/user/2573851", "photo_url": "http://www.panoramio.com/photo/58878164", "photo_file_url": "http://mw2.google.com/mw-panoramio/photos/square/58878164.jpg", "owner_id": 2573851}, {"upload_date": "22 May 2011", "owner_name": "MehmedPora\u010daninMe\u0161a", "photo_id": 53048681, "longitude": 17.032757000000004, "height": 60, "width": 60, "photo_title": "BU\u0160KO JEZERO U SUMRAK", "latitude": 43.692453, "owner_url": "http://www.panoramio.com/user/5526748", "photo_url": "http://www.panoramio.com/photo/53048681", "photo_file_url": "http://mw2.google.com/mw-panoramio/photos/square/53048681.jpg", "owner_id": 5526748}, {"upload_date": "05 February 2009", "owner_name": "Ivo Dolic", "photo_id": 18582431, "longitude": 17.017329, "height": 60, "width": 60, "photo_title": "Crkva sv. Petra i Pavla - Samostan Gorica", "latitude": 43.818799, "owner_url": "http://www.panoramio.com/user/2573851", "photo_url": "http://www.panoramio.com/photo/18582431", "photo_file_url": "http://mw2.google.com/mw-panoramio/photos/square/18582431.jpg", "owner_id": 2573851}, {"upload_date": "05 February 2009", "owner_name": "RADOMIR KR\u010cMAR", "photo_id": 18593064, "longitude": 17.015891, "height": 60, "width": 60, "photo_title": "ULAZ U DOLAC, LIVO \u0160ILjAK,DESNO LICE", "latitude": 43.921436, "owner_url": "http://www.panoramio.com/user/1951764", "photo_url": "http://www.panoramio.com/photo/18593064", "photo_file_url": "http://mw2.google.com/mw-panoramio/photos/square/18593064.jpg", "owner_id": 1951764}, {"upload_date": "19 May 2009", "owner_name": "Ivo Dolic", "photo_id": 22516392, "longitude": 16.786487, "height": 60, "width": 60, "photo_title": "Zalazak na Bri\u017einama", "latitude": 43.894707, "owner_url": "http://www.panoramio.com/user/2573851", "photo_url": "http://www.panoramio.com/photo/22516392", "photo_file_url": "http://mw2.google.com/mw-panoramio/photos/square/22516392.jpg", "owner_id": 2573851}, {"upload_date": "26 October 2009", "owner_name": "Ivo Dolic", "photo_id": 28248634, "longitude": 17.09223700000001, "height": 60, "width": 60, "photo_title": "U ljubavnom ratu pobjednik je onaj koji bje\u017ei", "latitude": 43.865723, "owner_url": "http://www.panoramio.com/user/2573851", "photo_url": "http://www.panoramio.com/photo/28248634", "photo_file_url": "http://mw2.google.com/mw-panoramio/photos/square/28248634.jpg", "owner_id": 2573851}, {"upload_date": "23 February 2008", "owner_name": "olga.a", "photo_id": 8042952, "longitude": 16.980057, "height": 60, "width": 60, "photo_title": "LIVNO BUSKO J", "latitude": 43.650485, "owner_url": "http://www.panoramio.com/user/1424413", "photo_url": "http://www.panoramio.com/photo/8042952", "photo_file_url": "http://mw2.google.com/mw-panoramio/photos/square/8042952.jpg", "owner_id": 1424413}, {"upload_date": "29 July 2010", "owner_name": "Ivo Dolic", "photo_id": 38547197, "longitude": 17.111034, "height": 60, "width": 60, "photo_title": "Bezbri\u017eni roditelji...", "latitude": 43.813596, "owner_url": "http://www.panoramio.com/user/2573851", "photo_url": "http://www.panoramio.com/photo/38547197", "photo_file_url": "http://mw2.google.com/mw-panoramio/photos/square/38547197.jpg", "owner_id": 2573851}, {"upload_date": "13 December 2009", "owner_name": "Ivo Dolic", "photo_id": 29873044, "longitude": 17.069557, "height": 60, "width": 60, "photo_title": "Konj Zekan u zimskom krajoliku - The horse Zekan in winter landscape", "latitude": 43.866481, "owner_url": "http://www.panoramio.com/user/2573851", "photo_url": "http://www.panoramio.com/photo/29873044", "photo_file_url": "http://mw2.google.com/mw-panoramio/photos/square/29873044.jpg", "owner_id": 2573851}, {"upload_date": "25 June 2009", "owner_name": "Ivo Dolic", "photo_id": 23821118, "longitude": 17.129703, "height": 60, "width": 60, "photo_title": "Drve\u0107e - Trees ", "latitude": 43.813751, "owner_url": "http://www.panoramio.com/user/2573851", "photo_url": "http://www.panoramio.com/photo/23821118", "photo_file_url": "http://mw2.google.com/mw-panoramio/photos/square/23821118.jpg", "owner_id": 2573851}, {"upload_date": "11 December 2009", "owner_name": "Ivo Dolic", "photo_id": 29781799, "longitude": 16.849744, "height": 60, "width": 60, "photo_title": "Ovce u jesenskom predve\u010derju", "latitude": 43.883001, "owner_url": "http://www.panoramio.com/user/2573851", "photo_url": "http://www.panoramio.com/photo/29781799", "photo_file_url": "http://mw2.google.com/mw-panoramio/photos/square/29781799.jpg", "owner_id": 2573851}, {"upload_date": "22 July 2009", "owner_name": "RADOMIR KR\u010cMAR", "photo_id": 24750706, "longitude": 16.852663, "height": 60, "width": 60, "photo_title": "NOVA KATOLI\u010cKA CRKVA U GLAMO\u010cU", "latitude": 44.040851, "owner_url": "http://www.panoramio.com/user/1951764", "photo_url": "http://www.panoramio.com/photo/24750706", "photo_file_url": "http://mw2.google.com/mw-panoramio/photos/square/24750706.jpg", "owner_id": 1951764}, {"upload_date": "30 October 2009", "owner_name": "Ivo Dolic", "photo_id": 28351643, "longitude": 17.029409, "height": 60, "width": 60, "photo_title": "Presti\u017e, The Prestige", "latitude": 43.864919, "owner_url": "http://www.panoramio.com/user/2573851", "photo_url": "http://www.panoramio.com/photo/28351643", "photo_file_url": "http://mw2.google.com/mw-panoramio/photos/square/28351643.jpg", "owner_id": 2573851}, {"upload_date": "12 June 2011", "owner_name": "RADOMIR KR\u010cMAR", "photo_id": 54104732, "longitude": 16.72914399999999, "height": 60, "width": 60, "photo_title": "PRAVOSLAVNA SRKVA DONJI RUJANI,ORTHODOX CHURCH-DONJI RUJANI", "latitude": 43.888978, "owner_url": "http://www.panoramio.com/user/1951764", "photo_url": "http://www.panoramio.com/photo/54104732", "photo_file_url": "http://mw2.google.com/mw-panoramio/photos/square/54104732.jpg", "owner_id": 1951764}, {"upload_date": "19 December 2010", "owner_name": "RADOMIR KR\u010cMAR", "photo_id": 45289946, "longitude": 16.944137, "height": 60, "width": 60, "photo_title": "KOLIKO NAM MALO TREBA DA BUDEMO SRE\u0106NI -HOW LITTLE WE NEED TO BE HAPPY", "latitude": 43.960184, "owner_url": "http://www.panoramio.com/user/1951764", "photo_url": "http://www.panoramio.com/photo/45289946", "photo_file_url": "http://mw2.google.com/mw-panoramio/photos/square/45289946.jpg", "owner_id": 1951764}, {"upload_date": "09 June 2009", "owner_name": "RADOMIR KR\u010cMAR", "photo_id": 23265568, "longitude": 16.844369, "height": 60, "width": 60, "photo_title": "GLAMO\u010cKA KULA", "latitude": 44.042051, "owner_url": "http://www.panoramio.com/user/1951764", "photo_url": "http://www.panoramio.com/photo/23265568", "photo_file_url": "http://mw2.google.com/mw-panoramio/photos/square/23265568.jpg", "owner_id": 1951764}, {"upload_date": "26 July 2009", "owner_name": "Ivo Dolic", "photo_id": 24903284, "longitude": 16.757369, "height": 60, "width": 60, "photo_title": "Li\u0161tani, sv. Ana & Joakim, 2009.", "latitude": 43.86167, "owner_url": "http://www.panoramio.com/user/2573851", "photo_url": "http://www.panoramio.com/photo/24903284", "photo_file_url": "http://mw2.google.com/mw-panoramio/photos/square/24903284.jpg", "owner_id": 2573851}, {"upload_date": "05 February 2009", "owner_name": "Ivo Dolic", "photo_id": 18583709, "longitude": 16.602402, "height": 60, "width": 60, "photo_title": "Troglav - tri glave (Three - head)", "latitude": 43.949389, "owner_url": "http://www.panoramio.com/user/2573851", "photo_url": "http://www.panoramio.com/photo/18583709", "photo_file_url": "http://mw2.google.com/mw-panoramio/photos/square/18583709.jpg", "owner_id": 2573851}, {"upload_date": "23 March 2009", "owner_name": "Ivo Dolic", "photo_id": 20354408, "longitude": 17.073269, "height": 60, "width": 60, "photo_title": "Bu\u0161ko jezero - istok", "latitude": 43.678177, "owner_url": "http://www.panoramio.com/user/2573851", "photo_url": "http://www.panoramio.com/photo/20354408", "photo_file_url": "http://mw2.google.com/mw-panoramio/photos/square/20354408.jpg", "owner_id": 2573851}, {"upload_date": "10 July 2009", "owner_name": "Ivo Dolic", "photo_id": 24329249, "longitude": 16.964371, "height": 60, "width": 60, "photo_title": "Sturba - Dr\u017eanlije", "latitude": 43.793991, "owner_url": "http://www.panoramio.com/user/2573851", "photo_url": "http://www.panoramio.com/photo/24329249", "photo_file_url": "http://mw2.google.com/mw-panoramio/photos/square/24329249.jpg", "owner_id": 2573851}, {"upload_date": "02 April 2009", "owner_name": "RADOMIR KR\u010cMAR", "photo_id": 20717477, "longitude": 16.876373, "height": 60, "width": 60, "photo_title": "FABRIKA  ,,GLAMA,. GLAMO\u010c ", "latitude": 44.031765, "owner_url": "http://www.panoramio.com/user/1951764", "photo_url": "http://www.panoramio.com/photo/20717477", "photo_file_url": "http://mw2.google.com/mw-panoramio/photos/square/20717477.jpg", "owner_id": 1951764}, {"upload_date": "13 March 2009", "owner_name": "Ivo Dolic", "photo_id": 19981438, "longitude": 16.771488, "height": 60, "width": 60, "photo_title": "Strupni\u0107, Livno, BiH", "latitude": 43.884176, "owner_url": "http://www.panoramio.com/user/2573851", "photo_url": "http://www.panoramio.com/photo/19981438", "photo_file_url": "http://mw2.google.com/mw-panoramio/photos/square/19981438.jpg", "owner_id": 2573851}, {"upload_date": "05 February 2009", "owner_name": "Ivo Dolic", "photo_id": 18580258, "longitude": 16.709862, "height": 60, "width": 60, "photo_title": "Plitvine - Uble", "latitude": 43.863743, "owner_url": "http://www.panoramio.com/user/2573851", "photo_url": "http://www.panoramio.com/photo/18580258", "photo_file_url": "http://mw2.google.com/mw-panoramio/photos/square/18580258.jpg", "owner_id": 2573851}, {"upload_date": "19 May 2009", "owner_name": "Ivo Dolic", "photo_id": 22515428, "longitude": 16.813674, "height": 60, "width": 60, "photo_title": "Vodenica na \u0106ai\u0107kom ponoru ", "latitude": 43.829728, "owner_url": "http://www.panoramio.com/user/2573851", "photo_url": "http://www.panoramio.com/photo/22515428", "photo_file_url": "http://mw2.google.com/mw-panoramio/photos/square/22515428.jpg", "owner_id": 2573851}, {"upload_date": "16 February 2009", "owner_name": "RADOMIR KR\u010cMAR", "photo_id": 19055520, "longitude": 16.973705, "height": 60, "width": 60, "photo_title": "KOPI\u0106  GLAMO\u010c", "latitude": 43.934958, "owner_url": "http://www.panoramio.com/user/1951764", "photo_url": "http://www.panoramio.com/photo/19055520", "photo_file_url": "http://mw2.google.com/mw-panoramio/photos/square/19055520.jpg", "owner_id": 1951764}, {"upload_date": "23 July 2009", "owner_name": "RADOMIR KR\u010cMAR", "photo_id": 24794758, "longitude": 17.019507, "height": 60, "width": 60, "photo_title": "DRAGNJI\u0106,STARA KAMENA KU\u0106A,GLAMO\u010c", "latitude": 43.898832, "owner_url": "http://www.panoramio.com/user/1951764", "photo_url": "http://www.panoramio.com/photo/24794758", "photo_file_url": "http://mw2.google.com/mw-panoramio/photos/square/24794758.jpg", "owner_id": 1951764}, {"upload_date": "09 February 2009", "owner_name": "RADOMIR KR\u010cMAR", "photo_id": 18768869, "longitude": 17.035975, "height": 60, "width": 60, "photo_title": "PRIVIJA DOLAC,GLAMO\u010c", "latitude": 43.928437, "owner_url": "http://www.panoramio.com/user/1951764", "photo_url": "http://www.panoramio.com/photo/18768869", "photo_file_url": "http://mw2.google.com/mw-panoramio/photos/square/18768869.jpg", "owner_id": 1951764}, {"upload_date": "04 May 2009", "owner_name": "Ivo Dolic", "photo_id": 21958424, "longitude": 17.002598, "height": 60, "width": 60, "photo_title": "Spomenik Livanjskim braniteljima", "latitude": 43.825185, "owner_url": "http://www.panoramio.com/user/2573851", "photo_url": "http://www.panoramio.com/photo/21958424", "photo_file_url": "http://mw2.google.com/mw-panoramio/photos/square/21958424.jpg", "owner_id": 2573851}, {"upload_date": "10 August 2009", "owner_name": "Ivo Dolic", "photo_id": 25467142, "longitude": 17.042198, "height": 60, "width": 60, "photo_title": "Vranac - The Black horse", "latitude": 43.861824, "owner_url": "http://www.panoramio.com/user/2573851", "photo_url": "http://www.panoramio.com/photo/25467142", "photo_file_url": "http://mw2.google.com/mw-panoramio/photos/square/25467142.jpg", "owner_id": 2573851}, {"upload_date": "10 August 2009", "owner_name": "Ivo Dolic", "photo_id": 25467760, "longitude": 17.031813, "height": 60, "width": 60, "photo_title": "Gagi\u0107 greda - Kruzi - konji", "latitude": 43.856131, "owner_url": "http://www.panoramio.com/user/2573851", "photo_url": "http://www.panoramio.com/photo/25467760", "photo_file_url": "http://mw2.google.com/mw-panoramio/photos/square/25467760.jpg", "owner_id": 2573851}, {"upload_date": "25 October 2009", "owner_name": "Ivo Dolic", "photo_id": 28210716, "longitude": 16.888604, "height": 60, "width": 60, "photo_title": "Dinara, Livno-polje, \u017dirovi\u0107", "latitude": 43.869513, "owner_url": "http://www.panoramio.com/user/2573851", "photo_url": "http://www.panoramio.com/photo/28210716", "photo_file_url": "http://mw2.google.com/mw-panoramio/photos/square/28210716.jpg", "owner_id": 2573851}, {"upload_date": "09 February 2009", "owner_name": "Ivo Dolic", "photo_id": 18742407, "longitude": 16.866245, "height": 60, "width": 60, "photo_title": "Glamo\u010dko jezero - panorama", "latitude": 44.020379, "owner_url": "http://www.panoramio.com/user/2573851", "photo_url": "http://www.panoramio.com/photo/18742407", "photo_file_url": "http://mw2.google.com/mw-panoramio/photos/square/18742407.jpg", "owner_id": 2573851}, {"upload_date": "15 January 2009", "owner_name": "Ivo Dolic", "photo_id": 17855576, "longitude": 16.791508, "height": 60, "width": 60, "photo_title": "Lusnic, Golija", "latitude": 43.866729, "owner_url": "http://www.panoramio.com/user/2573851", "photo_url": "http://www.panoramio.com/photo/17855576", "photo_file_url": "http://mw2.google.com/mw-panoramio/photos/square/17855576.jpg", "owner_id": 2573851}, {"upload_date": "15 January 2009", "owner_name": "Ivo Dolic", "photo_id": 17855417, "longitude": 16.890235, "height": 60, "width": 60, "photo_title": "Dzajina kosara", "latitude": 43.891522, "owner_url": "http://www.panoramio.com/user/2573851", "photo_url": "http://www.panoramio.com/photo/17855417", "photo_file_url": "http://mw2.google.com/mw-panoramio/photos/square/17855417.jpg", "owner_id": 2573851}, {"upload_date": "01 June 2009", "owner_name": "Ivo Dolic", "photo_id": 22949254, "longitude": 16.855001, "height": 60, "width": 60, "photo_title": "Oblaci nad Cincaraom", "latitude": 43.958719, "owner_url": "http://www.panoramio.com/user/2573851", "photo_url": "http://www.panoramio.com/photo/22949254", "photo_file_url": "http://mw2.google.com/mw-panoramio/photos/square/22949254.jpg", "owner_id": 2573851}, {"upload_date": "19 October 2009", "owner_name": "Ivo Dolic", "photo_id": 28002718, "longitude": 16.833072000000016, "height": 60, "width": 60, "photo_title": "Ivetova vikendica", "latitude": 43.907756, "owner_url": "http://www.panoramio.com/user/2573851", "photo_url": "http://www.panoramio.com/photo/28002718", "photo_file_url": "http://mw2.google.com/mw-panoramio/photos/square/28002718.jpg", "owner_id": 2573851}, {"upload_date": "23 February 2008", "owner_name": "ana  buzancic petercic", "photo_id": 8050059, "longitude": 16.640081, "height": 60, "width": 60, "photo_title": "Kamicak", "latitude": 43.706042, "owner_url": "http://www.panoramio.com/user/1286260", "photo_url": "http://www.panoramio.com/photo/8050059", "photo_file_url": "http://mw2.google.com/mw-panoramio/photos/square/8050059.jpg", "owner_id": 1286260}, {"upload_date": "09 June 2009", "owner_name": "RADOMIR KR\u010cMAR", "photo_id": 23265779, "longitude": 16.926895, "height": 60, "width": 60, "photo_title": "CAREVICA,TOLI\u0106I-TOLIMIRI", "latitude": 43.972539, "owner_url": "http://www.panoramio.com/user/1951764", "photo_url": "http://www.panoramio.com/photo/23265779", "photo_file_url": "http://mw2.google.com/mw-panoramio/photos/square/23265779.jpg", "owner_id": 1951764}, {"upload_date": "24 October 2011", "owner_name": "RADOMIR KR\u010cMAR", "photo_id": 61075501, "longitude": 17.02177, "height": 60, "width": 60, "photo_title": "BLAGODIJA I DRAGA-GLAMO\u010c", "latitude": 43.881278, "owner_url": "http://www.panoramio.com/user/1951764", "photo_url": "http://www.panoramio.com/photo/61075501", "photo_file_url": "http://mw2.google.com/mw-panoramio/photos/square/61075501.jpg", "owner_id": 1951764}, {"upload_date": "01 July 2009", "owner_name": "RADOMIR KR\u010cMAR", "photo_id": 24009232, "longitude": 17.009239, "height": 60, "width": 60, "photo_title": "DOLAC,GLAMO\u010cKO POLJE", "latitude": 43.913971, "owner_url": "http://www.panoramio.com/user/1951764", "photo_url": "http://www.panoramio.com/photo/24009232", "photo_file_url": "http://mw2.google.com/mw-panoramio/photos/square/24009232.jpg", "owner_id": 1951764}, {"upload_date": "29 June 2009", "owner_name": "RADOMIR KR\u010cMAR", "photo_id": 23952453, "longitude": 17.019678, "height": 60, "width": 60, "photo_title": "JA\u010cI  OD BURE,JA\u010cI OD JUGA,POGLED NA DOLAC,GLAMO\u010cKO POLJE", "latitude": 43.930119, "owner_url": "http://www.panoramio.com/user/1951764", "photo_url": "http://www.panoramio.com/photo/23952453", "photo_file_url": "http://mw2.google.com/mw-panoramio/photos/square/23952453.jpg", "owner_id": 1951764}, {"upload_date": "28 June 2011", "owner_name": "RADOMIR KR\u010cMAR", "photo_id": 54913483, "longitude": 17.003746, "height": 60, "width": 60, "photo_title": "Dragnji\u0107-Glami\u010dko polje- Dragnji\u0107-Glamo\u010d field", "latitude": 43.902098, "owner_url": "http://www.panoramio.com/user/1951764", "photo_url": "http://www.panoramio.com/photo/54913483", "photo_file_url": "http://mw2.google.com/mw-panoramio/photos/square/54913483.jpg", "owner_id": 1951764}, {"upload_date": "31 August 2009", "owner_name": "Ivo Dolic", "photo_id": 26289319, "longitude": 17.002308, "height": 60, "width": 60, "photo_title": "Vranci u pokretu", "latitude": 43.866589, "owner_url": "http://www.panoramio.com/user/2573851", "photo_url": "http://www.panoramio.com/photo/26289319", "photo_file_url": "http://mw2.google.com/mw-panoramio/photos/square/26289319.jpg", "owner_id": 2573851}, {"upload_date": "15 December 2009", "owner_name": "Ivo Dolic", "photo_id": 29936083, "longitude": 17.08447, "height": 60, "width": 60, "photo_title": "U zavjetrini", "latitude": 43.857601, "owner_url": "http://www.panoramio.com/user/2573851", "photo_url": "http://www.panoramio.com/photo/29936083", "photo_file_url": "http://mw2.google.com/mw-panoramio/photos/square/29936083.jpg", "owner_id": 2573851}, {"upload_date": "24 June 2011", "owner_name": "RADOMIR KR\u010cMAR", "photo_id": 54689450, "longitude": 17.035675, "height": 60, "width": 60, "photo_title": "DRAGNJI\u0106,GLAMO\u010c-B i H.", "latitude": 43.904522, "owner_url": "http://www.panoramio.com/user/1951764", "photo_url": "http://www.panoramio.com/photo/54689450", "photo_file_url": "http://mw2.google.com/mw-panoramio/photos/square/54689450.jpg", "owner_id": 1951764}, {"upload_date": "01 August 2009", "owner_name": "RADOMIR KR\u010cMAR", "photo_id": 25114365, "longitude": 17.026277, "height": 60, "width": 60, "photo_title": "GLAMO\u010cKO POLJE,IZA LIVANJSKO POLJE,PRKO BUKVE", "latitude": 43.942703, "owner_url": "http://www.panoramio.com/user/1951764", "photo_url": "http://www.panoramio.com/photo/25114365", "photo_file_url": "http://mw2.google.com/mw-panoramio/photos/square/25114365.jpg", "owner_id": 1951764}, {"upload_date": "28 June 2008", "owner_name": "DC", "photo_id": 11599028, "longitude": 16.649094, "height": 60, "width": 60, "photo_title": "Rumin-iznad izvora", "latitude": 43.775556, "owner_url": "http://www.panoramio.com/user/1936600", "photo_url": "http://www.panoramio.com/photo/11599028", "photo_file_url": "http://mw2.google.com/mw-panoramio/photos/square/11599028.jpg", "owner_id": 1936600}, {"upload_date": "30 October 2009", "owner_name": "Ivo Dolic", "photo_id": 28351635, "longitude": 17.040482, "height": 60, "width": 60, "photo_title": "Ljuti \u017edripci - Hot studs", "latitude": 43.842699, "owner_url": "http://www.panoramio.com/user/2573851", "photo_url": "http://www.panoramio.com/photo/28351635", "photo_file_url": "http://mw2.google.com/mw-panoramio/photos/square/28351635.jpg", "owner_id": 2573851}, {"upload_date": "19 October 2009", "owner_name": "Ivo Dolic", "photo_id": 28002689, "longitude": 17.110090000000014, "height": 60, "width": 60, "photo_title": "Odmjeravanje suparnika", "latitude": 43.820099, "owner_url": "http://www.panoramio.com/user/2573851", "photo_url": "http://www.panoramio.com/photo/28002689", "photo_file_url": "http://mw2.google.com/mw-panoramio/photos/square/28002689.jpg", "owner_id": 2573851}, {"upload_date": "12 June 2011", "owner_name": "RADOMIR KR\u010cMAR", "photo_id": 54104887, "longitude": 16.946087000000006, "height": 60, "width": 60, "photo_title": "VIDIMLIJE D\u017dAMIJA OBNOVLJENA-GLAMO\u010c;VIDIMLIJE MOSQUE-RENEVED GLAMO\u010c", "latitude": 43.953446, "owner_url": "http://www.panoramio.com/user/1951764", "photo_url": "http://www.panoramio.com/photo/54104887", "photo_file_url": "http://mw2.google.com/mw-panoramio/photos/square/54104887.jpg", "owner_id": 1951764}, {"upload_date": "12 June 2011", "owner_name": "RADOMIR KR\u010cMAR", "photo_id": 54104801, "longitude": 16.91971799999999, "height": 60, "width": 60, "photo_title": "KATOLI\u010cKA CRKVA SV. STJEPANA U PRILUCI-LIVNO:CATHOLIC CHURCH SAN STJEPAN  IN Priluke-LIVNO", "latitude": 43.869368, "owner_url": "http://www.panoramio.com/user/1951764", "photo_url": "http://www.panoramio.com/photo/54104801", "photo_file_url": "http://mw2.google.com/mw-panoramio/photos/square/54104801.jpg", "owner_id": 1951764}, {"upload_date": "09 September 2010", "owner_name": "Ivo Dolic", "photo_id": 40509356, "longitude": 16.76627400000001, "height": 60, "width": 60, "photo_title": "KOCKA", "latitude": 43.933398, "owner_url": "http://www.panoramio.com/user/2573851", "photo_url": "http://www.panoramio.com/photo/40509356", "photo_file_url": "http://mw2.google.com/mw-panoramio/photos/square/40509356.jpg", "owner_id": 2573851}, {"upload_date": "19 March 2009", "owner_name": "RADOMIR KR\u010cMAR", "photo_id": 20201799, "longitude": 17.013059, "height": 60, "width": 60, "photo_title": "DOLAC,S GALOVA\u010cE,GLAMO\u010cKO POLJE", "latitude": 43.924295, "owner_url": "http://www.panoramio.com/user/1951764", "photo_url": "http://www.panoramio.com/photo/20201799", "photo_file_url": "http://mw2.google.com/mw-panoramio/photos/square/20201799.jpg", "owner_id": 1951764}, {"upload_date": "15 January 2009", "owner_name": "Ivo Dolic", "photo_id": 17854995, "longitude": 16.928301, "height": 60, "width": 60, "photo_title": "Pogled na Tusnicu", "latitude": 43.710199, "owner_url": "http://www.panoramio.com/user/2573851", "photo_url": "http://www.panoramio.com/photo/17854995", "photo_file_url": "http://mw2.google.com/mw-panoramio/photos/square/17854995.jpg", "owner_id": 2573851}, {"upload_date": "05 February 2009", "owner_name": "Ivo Dolic", "photo_id": 18584191, "longitude": 16.670895, "height": 60, "width": 60, "photo_title": "TROGLAV", "latitude": 43.983428, "owner_url": "http://www.panoramio.com/user/2573851", "photo_url": "http://www.panoramio.com/photo/18584191", "photo_file_url": "http://mw2.google.com/mw-panoramio/photos/square/18584191.jpg", "owner_id": 2573851}, {"upload_date": "08 May 2009", "owner_name": "RADOMIR KR\u010cMAR", "photo_id": 22141732, "longitude": 16.810455, "height": 60, "width": 60, "photo_title": "HALAPI\u0106,RUDI\u0106I,GLAMO\u010cKO POLJE", "latitude": 44.07106, "owner_url": "http://www.panoramio.com/user/1951764", "photo_url": "http://www.panoramio.com/photo/22141732", "photo_file_url": "http://mw2.google.com/mw-panoramio/photos/square/22141732.jpg", "owner_id": 1951764}, {"upload_date": "13 March 2009", "owner_name": "Ivo Dolic", "photo_id": 19981986, "longitude": 16.760888, "height": 60, "width": 60, "photo_title": "Kova\u010di\u0107, panorama", "latitude": 43.930354, "owner_url": "http://www.panoramio.com/user/2573851", "photo_url": "http://www.panoramio.com/photo/19981986", "photo_file_url": "http://mw2.google.com/mw-panoramio/photos/square/19981986.jpg", "owner_id": 2573851}, {"upload_date": "05 February 2009", "owner_name": "Ivo Dolic", "photo_id": 18578497, "longitude": 16.814661, "height": 60, "width": 60, "photo_title": "Put peko Vagnja", "latitude": 43.813225, "owner_url": "http://www.panoramio.com/user/2573851", "photo_url": "http://www.panoramio.com/photo/18578497", "photo_file_url": "http://mw2.google.com/mw-panoramio/photos/square/18578497.jpg", "owner_id": 2573851}, {"upload_date": "06 April 2010", "owner_name": "Tijana Lubura", "photo_id": 34069740, "longitude": 17.099999999999994, "height": 60, "width": 60, "photo_title": "Koricka jama", "latitude": 43.633333, "owner_url": "http://www.panoramio.com/user/3250798", "photo_url": "http://www.panoramio.com/photo/34069740", "photo_file_url": "http://mw2.google.com/mw-panoramio/photos/square/34069740.jpg", "owner_id": 3250798}, {"upload_date": "31 July 2010", "owner_name": "gastony", "photo_id": 38625821, "longitude": 16.590863000000013, "height": 60, "width": 60, "photo_title": "Pr\u017eine, letnje popodne...", "latitude": 44.042063, "owner_url": "http://www.panoramio.com/user/2024181", "photo_url": "http://www.panoramio.com/photo/38625821", "photo_file_url": "http://mw2.google.com/mw-panoramio/photos/square/38625821.jpg", "owner_id": 2024181}, {"upload_date": "19 May 2009", "owner_name": "Ivo Dolic", "photo_id": 22515043, "longitude": 16.844165, "height": 60, "width": 60, "photo_title": "Butina ko\u0161ara", "latitude": 43.911157, "owner_url": "http://www.panoramio.com/user/2573851", "photo_url": "http://www.panoramio.com/photo/22515043", "photo_file_url": "http://mw2.google.com/mw-panoramio/photos/square/22515043.jpg", "owner_id": 2573851}, {"upload_date": "04 June 2008", "owner_name": "Ivan Chromy", "photo_id": 10909982, "longitude": 16.885986, "height": 60, "width": 60, "photo_title": "cesta vnitrozem\u00edm, Chorvatsko", "latitude": 43.683764, "owner_url": "http://www.panoramio.com/user/1834336", "photo_url": "http://www.panoramio.com/photo/10909982", "photo_file_url": "http://mw2.google.com/mw-panoramio/photos/square/10909982.jpg", "owner_id": 1834336}, {"upload_date": "16 July 2009", "owner_name": "Ivo Dolic", "photo_id": 24523553, "longitude": 16.879163, "height": 60, "width": 60, "photo_title": "Simetrija u polju - Symmetry of the field", "latitude": 43.801394, "owner_url": "http://www.panoramio.com/user/2573851", "photo_url": "http://www.panoramio.com/photo/24523553", "photo_file_url": "http://mw2.google.com/mw-panoramio/photos/square/24523553.jpg", "owner_id": 2573851}, {"upload_date": "04 June 2011", "owner_name": "RADOMIR KR\u010cMAR", "photo_id": 53700231, "longitude": 16.71964600000001, "height": 60, "width": 60, "photo_title": "LIVANJSKO POLJE U MAJU!", "latitude": 43.927189, "owner_url": "http://www.panoramio.com/user/1951764", "photo_url": "http://www.panoramio.com/photo/53700231", "photo_file_url": "http://mw2.google.com/mw-panoramio/photos/square/53700231.jpg", "owner_id": 1951764}, {"upload_date": "20 November 2008", "owner_name": "mtomaz", "photo_id": 16138786, "longitude": 17.089233, "height": 60, "width": 60, "photo_title": "Kame\u0161nica s Tu\u0161nice", "latitude": 43.715535, "owner_url": "http://www.panoramio.com/user/2451447", "photo_url": "http://www.panoramio.com/photo/16138786", "photo_file_url": "http://mw2.google.com/mw-panoramio/photos/square/16138786.jpg", "owner_id": 2451447}, {"upload_date": "07 November 2008", "owner_name": "\u017divak Mladen", "photo_id": 15741154, "longitude": 16.763935, "height": 60, "width": 60, "photo_title": "Pogled sa Vagnja", "latitude": 43.781072, "owner_url": "http://www.panoramio.com/user/2433396", "photo_url": "http://www.panoramio.com/photo/15741154", "photo_file_url": "http://mw2.google.com/mw-panoramio/photos/square/15741154.jpg", "owner_id": 2433396}, {"upload_date": "30 November 2009", "owner_name": "Takeadventure", "photo_id": 29408611, "longitude": 16.5688667297, "height": 60, "width": 60, "photo_title": "The ruins of Bravcev Dolac village", "latitude": 43.8895149231, "owner_url": "http://www.panoramio.com/user/3535119", "photo_url": "http://www.panoramio.com/photo/29408611", "photo_file_url": "http://mw2.google.com/mw-panoramio/photos/square/29408611.jpg", "owner_id": 3535119}, {"upload_date": "19 October 2009", "owner_name": "Ivo Dolic", "photo_id": 28013358, "longitude": 16.905856, "height": 60, "width": 60, "photo_title": "Jesen u \u017ddralovcu", "latitude": 43.915424, "owner_url": "http://www.panoramio.com/user/2573851", "photo_url": "http://www.panoramio.com/photo/28013358", "photo_file_url": "http://mw2.google.com/mw-panoramio/photos/square/28013358.jpg", "owner_id": 2573851}, {"upload_date": "08 August 2011", "owner_name": "Ivo Dolic", "photo_id": 57015199, "longitude": 17.001072, "height": 60, "width": 60, "photo_title": "Crkva u Podhumu", "latitude": 43.722475, "owner_url": "http://www.panoramio.com/user/2573851", "photo_url": "http://www.panoramio.com/photo/57015199", "photo_file_url": "http://mw2.google.com/mw-panoramio/photos/square/57015199.jpg", "owner_id": 2573851}, {"upload_date": "03 March 2010", "owner_name": "*goran", "photo_id": 32825418, "longitude": 16.98692299999999, "height": 60, "width": 60, "photo_title": "Great expectations", "latitude": 43.632348, "owner_url": "http://www.panoramio.com/user/1247180", "photo_url": "http://www.panoramio.com/photo/32825418", "photo_file_url": "http://mw2.google.com/mw-panoramio/photos/square/32825418.jpg", "owner_id": 1247180}, {"upload_date": "06 October 2011", "owner_name": "\u0411\u0430\u0441\u0442\u0430\u0448\u0438\u045b", "photo_id": 60138502, "longitude": 16.912047, "height": 60, "width": 60, "photo_title": "\u0421\u043f\u043e\u043c\u0435\u043d\u0438\u0446\u0438 \u043d\u0430 \u043f\u0440\u0430\u0432\u043e\u0441\u043b\u0430\u0432\u043d\u043e\u043c \u0433\u0440\u043e\u0431\u0459\u0443 \u0443 \u041f\u043e\u0434\u0433\u0440\u0430\u0434\u0438\u043d\u0438 \u043a\u043e\u0434 \u0413\u043b\u0430\u043c\u043e\u0447\u0430", "latitude": 44.020695, "owner_url": "http://www.panoramio.com/user/237563", "photo_url": "http://www.panoramio.com/photo/60138502", "photo_file_url": "http://mw2.google.com/mw-panoramio/photos/square/60138502.jpg", "owner_id": 237563}, {"upload_date": "30 November 2009", "owner_name": "Takeadventure", "photo_id": 29408878, "longitude": 16.6293468475, "height": 60, "width": 60, "photo_title": "Gornji Biteli\u0107", "latitude": 43.79895401, "owner_url": "http://www.panoramio.com/user/3535119", "photo_url": "http://www.panoramio.com/photo/29408878", "photo_file_url": "http://mw2.google.com/mw-panoramio/photos/square/29408878.jpg", "owner_id": 3535119}, {"upload_date": "27 July 2010", "owner_name": "gastony", "photo_id": 38480419, "longitude": 16.629909999999995, "height": 60, "width": 60, "photo_title": "Jutarnji oblaci/ Clouds in the morninig", "latitude": 43.98597, "owner_url": "http://www.panoramio.com/user/2024181", "photo_url": "http://www.panoramio.com/photo/38480419", "photo_file_url": "http://mw2.google.com/mw-panoramio/photos/square/38480419.jpg", "owner_id": 2024181}, {"upload_date": "06 August 2009", "owner_name": "RADOMIR KR\u010cMAR", "photo_id": 25329287, "longitude": 17.014561000000015, "height": 60, "width": 60, "photo_title": "CINCAR S KUJA\u010cE,GLAMO\u010cKO POLJE", "latitude": 43.952705, "owner_url": "http://www.panoramio.com/user/1951764", "photo_url": "http://www.panoramio.com/photo/25329287", "photo_file_url": "http://mw2.google.com/mw-panoramio/photos/square/25329287.jpg", "owner_id": 1951764}, {"upload_date": "12 February 2011", "owner_name": "Takeadventure", "photo_id": 48005776, "longitude": 16.7918949127, "height": 60, "width": 60, "photo_title": "Ruda river", "latitude": 43.6686973572, "owner_url": "http://www.panoramio.com/user/3535119", "photo_url": "http://www.panoramio.com/photo/48005776", "photo_file_url": "http://mw2.google.com/mw-panoramio/photos/square/48005776.jpg", "owner_id": 3535119}, {"upload_date": "13 August 2008", "owner_name": "Valkyrie_M", "photo_id": 13085717, "longitude": 16.579353, "height": 60, "width": 60, "photo_title": "Nuglasica", "latitude": 44.072633, "owner_url": "http://www.panoramio.com/user/1979718", "photo_url": "http://www.panoramio.com/photo/13085717", "photo_file_url": "http://mw2.google.com/mw-panoramio/photos/square/13085717.jpg", "owner_id": 1979718}, {"upload_date": "11 June 2009", "owner_name": "RADOMIR KR\u010cMAR", "photo_id": 23308480, "longitude": 17.016655, "height": 60, "width": 60, "photo_title": "DOLAC ,POGLED SA LISKOVCA,GLAMO\u010cKO POLJE", "latitude": 43.93714, "owner_url": "http://www.panoramio.com/user/1951764", "photo_url": "http://www.panoramio.com/photo/23308480", "photo_file_url": "http://mw2.google.com/mw-panoramio/photos/square/23308480.jpg", "owner_id": 1951764}, {"upload_date": "28 June 2008", "owner_name": "DC", "photo_id": 11598977, "longitude": 16.657505, "height": 60, "width": 60, "photo_title": "Rumin - tik do izvora...", "latitude": 43.78008, "owner_url": "http://www.panoramio.com/user/1936600", "photo_url": "http://www.panoramio.com/photo/11598977", "photo_file_url": "http://mw2.google.com/mw-panoramio/photos/square/11598977.jpg", "owner_id": 1936600}, {"upload_date": "15 March 2011", "owner_name": "Ivo Dolic", "photo_id": 49534738, "longitude": 16.970572000000004, "height": 60, "width": 60, "photo_title": "Nebo nad Golijom", "latitude": 43.814386, "owner_url": "http://www.panoramio.com/user/2573851", "photo_url": "http://www.panoramio.com/photo/49534738", "photo_file_url": "http://mw2.google.com/mw-panoramio/photos/square/49534738.jpg", "owner_id": 2573851}, {"upload_date": "23 February 2009", "owner_name": "Zbynda", "photo_id": 19329966, "longitude": 16.986237, "height": 60, "width": 60, "photo_title": "The Artisan Called \"The Frost\"", "latitude": 43.643529, "owner_url": "http://www.panoramio.com/user/956868", "photo_url": "http://www.panoramio.com/photo/19329966", "photo_file_url": "http://mw2.google.com/mw-panoramio/photos/square/19329966.jpg", "owner_id": 956868}, {"upload_date": "04 December 2009", "owner_name": "Ivo Dolic", "photo_id": 29540438, "longitude": 16.804447, "height": 60, "width": 60, "photo_title": "Lusni\u0107 no\u0107u", "latitude": 43.894336, "owner_url": "http://www.panoramio.com/user/2573851", "photo_url": "http://www.panoramio.com/photo/29540438", "photo_file_url": "http://mw2.google.com/mw-panoramio/photos/square/29540438.jpg", "owner_id": 2573851}, {"upload_date": "19 May 2009", "owner_name": "Ivo Dolic", "photo_id": 22515571, "longitude": 16.804662, "height": 60, "width": 60, "photo_title": "Crkva sv. Mihovila", "latitude": 43.850313, "owner_url": "http://www.panoramio.com/user/2573851", "photo_url": "http://www.panoramio.com/photo/22515571", "photo_file_url": "http://mw2.google.com/mw-panoramio/photos/square/22515571.jpg", "owner_id": 2573851}, {"upload_date": "13 March 2009", "owner_name": "Ivo Dolic", "photo_id": 19981763, "longitude": 16.867318, "height": 60, "width": 60, "photo_title": "\u017dirovi\u0107, srpanj 2001, Peli\u0107", "latitude": 43.863603, "owner_url": "http://www.panoramio.com/user/2573851", "photo_url": "http://www.panoramio.com/photo/19981763", "photo_file_url": "http://mw2.google.com/mw-panoramio/photos/square/19981763.jpg", "owner_id": 2573851}, {"upload_date": "09 February 2009", "owner_name": "Ivo Dolic", "photo_id": 18742858, "longitude": 16.927443, "height": 60, "width": 60, "photo_title": "Priluka - panorama", "latitude": 43.859999, "owner_url": "http://www.panoramio.com/user/2573851", "photo_url": "http://www.panoramio.com/photo/18742858", "photo_file_url": "http://mw2.google.com/mw-panoramio/photos/square/18742858.jpg", "owner_id": 2573851}, {"upload_date": "10 November 2009", "owner_name": "RADOMIR KR\u010cMAR", "photo_id": 28749849, "longitude": 16.706809, "height": 60, "width": 60, "photo_title": ",,AUTOBUSNA STANICA,, KOD PIPE,OKUKA  PERAJICE,LUNI\u0106I,\u010cAPRAZLIJE,LIVNO      ", "latitude": 43.895179, "owner_url": "http://www.panoramio.com/user/1951764", "photo_url": "http://www.panoramio.com/photo/28749849", "photo_file_url": "http://mw2.google.com/mw-panoramio/photos/square/28749849.jpg", "owner_id": 1951764}, {"upload_date": "31 January 2009", "owner_name": "RADOMIR KR\u010cMAR", "photo_id": 18402000, "longitude": 17.029581, "height": 60, "width": 60, "photo_title": "CINCAR-2006m,POGLED SA PRIVIJE", "latitude": 43.933939, "owner_url": "http://www.panoramio.com/user/1951764", "photo_url": "http://www.panoramio.com/photo/18402000", "photo_file_url": "http://mw2.google.com/mw-panoramio/photos/square/18402000.jpg", "owner_id": 1951764}, {"upload_date": "14 January 2009", "owner_name": "Ivo Dolic", "photo_id": 17820511, "longitude": 16.854057, "height": 60, "width": 60, "photo_title": "Prema Velikoj Goliji", "latitude": 43.950471, "owner_url": "http://www.panoramio.com/user/2573851", "photo_url": "http://www.panoramio.com/photo/17820511", "photo_file_url": "http://mw2.google.com/mw-panoramio/photos/square/17820511.jpg", "owner_id": 2573851}, {"upload_date": "15 January 2009", "owner_name": "Ivo Dolic", "photo_id": 17855135, "longitude": 16.858327, "height": 60, "width": 60, "photo_title": "Zirovic panorama", "latitude": 43.866806, "owner_url": "http://www.panoramio.com/user/2573851", "photo_url": "http://www.panoramio.com/photo/17855135", "photo_file_url": "http://mw2.google.com/mw-panoramio/photos/square/17855135.jpg", "owner_id": 2573851}, {"upload_date": "19 May 2009", "owner_name": "Ivo Dolic", "photo_id": 22515265, "longitude": 17.001686, "height": 60, "width": 60, "photo_title": "Livno no\u0107u", "latitude": 43.836137, "owner_url": "http://www.panoramio.com/user/2573851", "photo_url": "http://www.panoramio.com/photo/22515265", "photo_file_url": "http://mw2.google.com/mw-panoramio/photos/square/22515265.jpg", "owner_id": 2573851}, {"upload_date": "16 February 2009", "owner_name": "RADOMIR KR\u010cMAR", "photo_id": 19058232, "longitude": 16.816807, "height": 60, "width": 60, "photo_title": "GLAMO\u010cKI AERODROM", "latitude": 44.07846, "owner_url": "http://www.panoramio.com/user/1951764", "photo_url": "http://www.panoramio.com/photo/19058232", "photo_file_url": "http://mw2.google.com/mw-panoramio/photos/square/19058232.jpg", "owner_id": 1951764}, {"upload_date": "19 October 2009", "owner_name": "Ivo Dolic", "photo_id": 28002112, "longitude": 16.872253, "height": 60, "width": 60, "photo_title": "Prisapsko blagu na Plovu\u0107i", "latitude": 43.84208, "owner_url": "http://www.panoramio.com/user/2573851", "photo_url": "http://www.panoramio.com/photo/28002112", "photo_file_url": "http://mw2.google.com/mw-panoramio/photos/square/28002112.jpg", "owner_id": 2573851}, {"upload_date": "17 February 2009", "owner_name": "RADOMIR KR\u010cMAR", "photo_id": 19097346, "longitude": 17.012672, "height": 60, "width": 60, "photo_title": "RADI\u0106A \u010cATRNJA,DOLAC,GLAMO\u010c", "latitude": 43.920895, "owner_url": "http://www.panoramio.com/user/1951764", "photo_url": "http://www.panoramio.com/photo/19097346", "photo_file_url": "http://mw2.google.com/mw-panoramio/photos/square/19097346.jpg", "owner_id": 1951764}, {"upload_date": "15 January 2009", "owner_name": "Ivo Dolic", "photo_id": 17854694, "longitude": 16.73265, "height": 60, "width": 60, "photo_title": "Livanjsko polje, sjevero-zapad", "latitude": 43.866597, "owner_url": "http://www.panoramio.com/user/2573851", "photo_url": "http://www.panoramio.com/photo/17854694", "photo_file_url": "http://mw2.google.com/mw-panoramio/photos/square/17854694.jpg", "owner_id": 2573851}, {"upload_date": "03 March 2009", "owner_name": "RADOMIR KR\u010cMAR", "photo_id": 19634556, "longitude": 16.827278, "height": 60, "width": 60, "photo_title": "BILI\u010cI\u0106-GLAMO\u010c", "latitude": 44.0755, "owner_url": "http://www.panoramio.com/user/1951764", "photo_url": "http://www.panoramio.com/photo/19634556", "photo_file_url": "http://mw2.google.com/mw-panoramio/photos/square/19634556.jpg", "owner_id": 1951764}, {"upload_date": "16 February 2009", "owner_name": "RADOMIR KR\u010cMAR", "photo_id": 19057416, "longitude": 16.921349, "height": 60, "width": 60, "photo_title": "GLAMO\u010c,SLOVINJ I CRNI VRHOVI", "latitude": 43.928561, "owner_url": "http://www.panoramio.com/user/1951764", "photo_url": "http://www.panoramio.com/photo/19057416", "photo_file_url": "http://mw2.google.com/mw-panoramio/photos/square/19057416.jpg", "owner_id": 1951764}, {"upload_date": "13 March 2009", "owner_name": "Ivo Dolic", "photo_id": 19981266, "longitude": 16.79625, "height": 60, "width": 60, "photo_title": "\u0106ai\u0107, Panorama", "latitude": 43.846289, "owner_url": "http://www.panoramio.com/user/2573851", "photo_url": "http://www.panoramio.com/photo/19981266", "photo_file_url": "http://mw2.google.com/mw-panoramio/photos/square/19981266.jpg", "owner_id": 2573851}, {"upload_date": "15 July 2010", "owner_name": "Ivo Dolic", "photo_id": 37969956, "longitude": 16.813653, "height": 60, "width": 60, "photo_title": "Medunac - mahovina", "latitude": 43.904533, "owner_url": "http://www.panoramio.com/user/2573851", "photo_url": "http://www.panoramio.com/photo/37969956", "photo_file_url": "http://mw2.google.com/mw-panoramio/photos/square/37969956.jpg", "owner_id": 2573851}, {"upload_date": "05 February 2009", "owner_name": "Ivo Dolic", "photo_id": 18579096, "longitude": 17.122407, "height": 60, "width": 60, "photo_title": "Sa Borove glave", "latitude": 43.780034, "owner_url": "http://www.panoramio.com/user/2573851", "photo_url": "http://www.panoramio.com/photo/18579096", "photo_file_url": "http://mw2.google.com/mw-panoramio/photos/square/18579096.jpg", "owner_id": 2573851}, {"upload_date": "13 May 2008", "owner_name": "Metodi Davidovi\u0107", "photo_id": 10178120, "longitude": 17.05061, "height": 60, "width": 60, "photo_title": "Cincar, pogled na Dragnji\u0107 polje", "latitude": 43.904572, "owner_url": "http://www.panoramio.com/user/194685", "photo_url": "http://www.panoramio.com/photo/10178120", "photo_file_url": "http://mw2.google.com/mw-panoramio/photos/square/10178120.jpg", "owner_id": 194685}, {"upload_date": "30 October 2009", "owner_name": "Ivo Dolic", "photo_id": 28351624, "longitude": 17.039108, "height": 60, "width": 60, "photo_title": "Konji\u0107 Cvitko - Small horse Cvitko", "latitude": 43.867951, "owner_url": "http://www.panoramio.com/user/2573851", "photo_url": "http://www.panoramio.com/photo/28351624", "photo_file_url": "http://mw2.google.com/mw-panoramio/photos/square/28351624.jpg", "owner_id": 2573851}, {"upload_date": "19 October 2009", "owner_name": "Ivo Dolic", "photo_id": 27999559, "longitude": 16.851225, "height": 60, "width": 60, "photo_title": "Skloni\u0161te na vrhu...", "latitude": 43.965222, "owner_url": "http://www.panoramio.com/user/2573851", "photo_url": "http://www.panoramio.com/photo/27999559", "photo_file_url": "http://mw2.google.com/mw-panoramio/photos/square/27999559.jpg", "owner_id": 2573851}, {"upload_date": "09 February 2009", "owner_name": "RADOMIR KR\u010cMAR", "photo_id": 18769644, "longitude": 17.015934, "height": 60, "width": 60, "photo_title": "DOLAC SA JANJILA,GLAMO\u010c", "latitude": 43.916258, "owner_url": "http://www.panoramio.com/user/1951764", "photo_url": "http://www.panoramio.com/photo/18769644", "photo_file_url": "http://mw2.google.com/mw-panoramio/photos/square/18769644.jpg", "owner_id": 1951764}, {"upload_date": "21 January 2012", "owner_name": "RADOMIR KR\u010cMAR", "photo_id": 65283520, "longitude": 17.016449, "height": 60, "width": 60, "photo_title": "Na kraju svih krajeva! At the end of all the ends!", "latitude": 43.918917, "owner_url": "http://www.panoramio.com/user/1951764", "photo_url": "http://www.panoramio.com/photo/65283520", "photo_file_url": "http://mw2.google.com/mw-panoramio/photos/square/65283520.jpg", "owner_id": 1951764}, {"upload_date": "30 December 2008", "owner_name": "Hars\u00e1nyi Istv\u00e1n", "photo_id": 17312989, "longitude": 17.012329, "height": 60, "width": 60, "photo_title": "Busko Jezero", "latitude": 43.634087, "owner_url": "http://www.panoramio.com/user/1420451", "photo_url": "http://www.panoramio.com/photo/17312989", "photo_file_url": "http://mw2.google.com/mw-panoramio/photos/square/17312989.jpg", "owner_id": 1420451}, {"upload_date": "16 February 2009", "owner_name": "RADOMIR KR\u010cMAR", "photo_id": 19058741, "longitude": 16.985121, "height": 60, "width": 60, "photo_title": "MA\u0160AT,KOPI\u0106", "latitude": 43.930044, "owner_url": "http://www.panoramio.com/user/1951764", "photo_url": "http://www.panoramio.com/photo/19058741", "photo_file_url": "http://mw2.google.com/mw-panoramio/photos/square/19058741.jpg", "owner_id": 1951764}, {"upload_date": "04 July 2009", "owner_name": "Ivo Dolic", "photo_id": 24111628, "longitude": 17.071708, "height": 60, "width": 60, "photo_title": "Rimski put - Roman road", "latitude": 43.81074, "owner_url": "http://www.panoramio.com/user/2573851", "photo_url": "http://www.panoramio.com/photo/24111628", "photo_file_url": "http://mw2.google.com/mw-panoramio/photos/square/24111628.jpg", "owner_id": 2573851}, {"upload_date": "11 January 2011", "owner_name": "Katica Hamdo", "photo_id": 46411132, "longitude": 17.0084, "height": 60, "width": 60, "photo_title": "Livno Izvor Duman - Bistrica", "latitude": 43.831574, "owner_url": "http://www.panoramio.com/user/1072228", "photo_url": "http://www.panoramio.com/photo/46411132", "photo_file_url": "http://mw2.google.com/mw-panoramio/photos/square/46411132.jpg", "owner_id": 1072228}, {"upload_date": "12 June 2009", "owner_name": "RADOMIR KR\u010cMAR", "photo_id": 23352728, "longitude": 17.016743, "height": 60, "width": 60, "photo_title": "DRAGNJI\u0106-GLAMO\u010cKO POLJE", "latitude": 43.890916, "owner_url": "http://www.panoramio.com/user/1951764", "photo_url": "http://www.panoramio.com/photo/23352728", "photo_file_url": "http://mw2.google.com/mw-panoramio/photos/square/23352728.jpg", "owner_id": 1951764}, {"upload_date": "23 July 2009", "owner_name": "RADOMIR KR\u010cMAR", "photo_id": 24797503, "longitude": 16.934577, "height": 60, "width": 60, "photo_title": "OSNOVNA \u0160KOLA,MESNA ZAJEDNICA U STAROM SELU,GLAMO\u010cKO POLJE,GLAMO\u010c", "latitude": 43.972693, "owner_url": "http://www.panoramio.com/user/1951764", "photo_url": "http://www.panoramio.com/photo/24797503", "photo_file_url": "http://mw2.google.com/mw-panoramio/photos/square/24797503.jpg", "owner_id": 1951764}, {"upload_date": "31 May 2010", "owner_name": "RADOMIR KR\u010cMAR", "photo_id": 36210279, "longitude": 17.013402, "height": 60, "width": 60, "photo_title": "GLAMO\u010cKO POLJE,VRULJE,PRORADIO BADANJ,REKA PONORNICA", "latitude": 43.907732, "owner_url": "http://www.panoramio.com/user/1951764", "photo_url": "http://www.panoramio.com/photo/36210279", "photo_file_url": "http://mw2.google.com/mw-panoramio/photos/square/36210279.jpg", "owner_id": 1951764}, {"upload_date": "21 July 2009", "owner_name": "Ivo Dolic", "photo_id": 24727213, "longitude": 16.777904, "height": 60, "width": 60, "photo_title": "Kapela sv. Ilija na Bri\u017einama", "latitude": 43.892233, "owner_url": "http://www.panoramio.com/user/2573851", "photo_url": "http://www.panoramio.com/photo/24727213", "photo_file_url": "http://mw2.google.com/mw-panoramio/photos/square/24727213.jpg", "owner_id": 2573851}, {"upload_date": "22 June 2009", "owner_name": "RADOMIR KR\u010cMAR", "photo_id": 23707572, "longitude": 16.912959, "height": 60, "width": 60, "photo_title": "SKUCANI,GLAMO\u010cKO PLJE", "latitude": 43.987714, "owner_url": "http://www.panoramio.com/user/1951764", "photo_url": "http://www.panoramio.com/photo/23707572", "photo_file_url": "http://mw2.google.com/mw-panoramio/photos/square/23707572.jpg", "owner_id": 1951764}, {"upload_date": "03 November 2009", "owner_name": "RADOMIR KR\u010cMAR", "photo_id": 28480783, "longitude": 16.99585, "height": 60, "width": 60, "photo_title": "VELIKI CINCAR,GLAMO\u010cKO POLJE", "latitude": 43.911745, "owner_url": "http://www.panoramio.com/user/1951764", "photo_url": "http://www.panoramio.com/photo/28480783", "photo_file_url": "http://mw2.google.com/mw-panoramio/photos/square/28480783.jpg", "owner_id": 1951764}, {"upload_date": "07 December 2009", "owner_name": "Ivo Dolic", "photo_id": 29646942, "longitude": 16.87736, "height": 60, "width": 60, "photo_title": "Jutarnja magla u polju", "latitude": 43.864269, "owner_url": "http://www.panoramio.com/user/2573851", "photo_url": "http://www.panoramio.com/photo/29646942", "photo_file_url": "http://mw2.google.com/mw-panoramio/photos/square/29646942.jpg", "owner_id": 2573851}, {"upload_date": "19 October 2009", "owner_name": "Ivo Dolic", "photo_id": 28013292, "longitude": 16.838778999999988, "height": 60, "width": 60, "photo_title": "Ljubun\u010di\u0107 - panorama", "latitude": 43.881377, "owner_url": "http://www.panoramio.com/user/2573851", "photo_url": "http://www.panoramio.com/photo/28013292", "photo_file_url": "http://mw2.google.com/mw-panoramio/photos/square/28013292.jpg", "owner_id": 2573851}, {"upload_date": "26 December 2011", "owner_name": "mmekic", "photo_id": 63977118, "longitude": 17.122192, "height": 60, "width": 60, "photo_title": "\u0428\u0435\u043c\u0430\u043d\u043e\u0432\u0446\u0438", "latitude": 44.084163, "owner_url": "http://www.panoramio.com/user/2498463", "photo_url": "http://www.panoramio.com/photo/63977118", "photo_file_url": "http://mw2.google.com/mw-panoramio/photos/square/63977118.jpg", "owner_id": 2498463}, {"upload_date": "08 August 2011", "owner_name": "Ivo Dolic", "photo_id": 57016962, "longitude": 17.010537, "height": 60, "width": 60, "photo_title": "Faraonov globus - Kameni Globus - Globe of stone", "latitude": 43.769103, "owner_url": "http://www.panoramio.com/user/2573851", "photo_url": "http://www.panoramio.com/photo/57016962", "photo_file_url": "http://mw2.google.com/mw-panoramio/photos/square/57016962.jpg", "owner_id": 2573851}, {"upload_date": "26 October 2009", "owner_name": "Ivo Dolic", "photo_id": 28248675, "longitude": 17.054386, "height": 60, "width": 60, "photo_title": "Staje pod Cincarom", "latitude": 43.860772, "owner_url": "http://www.panoramio.com/user/2573851", "photo_url": "http://www.panoramio.com/photo/28248675", "photo_file_url": "http://mw2.google.com/mw-panoramio/photos/square/28248675.jpg", "owner_id": 2573851}, {"upload_date": "16 July 2009", "owner_name": "Ivo Dolic", "photo_id": 24523336, "longitude": 17.114789, "height": 60, "width": 60, "photo_title": "Oblaci nad Cincarom - Clouds over Cincar", "latitude": 43.829202, "owner_url": "http://www.panoramio.com/user/2573851", "photo_url": "http://www.panoramio.com/photo/24523336", "photo_file_url": "http://mw2.google.com/mw-panoramio/photos/square/24523336.jpg", "owner_id": 2573851}, {"upload_date": "28 July 2011", "owner_name": "@na travizi", "photo_id": 56455092, "longitude": 16.846676000000002, "height": 60, "width": 60, "photo_title": "Beauty despite disaster", "latitude": 43.729988, "owner_url": "http://www.panoramio.com/user/2772860", "photo_url": "http://www.panoramio.com/photo/56455092", "photo_file_url": "http://mw2.google.com/mw-panoramio/photos/square/56455092.jpg", "owner_id": 2772860}, {"upload_date": "12 June 2011", "owner_name": "RADOMIR KR\u010cMAR", "photo_id": 54105266, "longitude": 17.029581000000007, "height": 60, "width": 60, "photo_title": "GLAMO\u010cKO POLJE", "latitude": 43.892753, "owner_url": "http://www.panoramio.com/user/1951764", "photo_url": "http://www.panoramio.com/photo/54105266", "photo_file_url": "http://mw2.google.com/mw-panoramio/photos/square/54105266.jpg", "owner_id": 1951764}, {"upload_date": "15 March 2009", "owner_name": "RADOMIR KR\u010cMAR", "photo_id": 20071907, "longitude": 17.000227, "height": 60, "width": 60, "photo_title": "CINCAR-GLAMO\u010cKO POLJE", "latitude": 43.920277, "owner_url": "http://www.panoramio.com/user/1951764", "photo_url": "http://www.panoramio.com/photo/20071907", "photo_file_url": "http://mw2.google.com/mw-panoramio/photos/square/20071907.jpg", "owner_id": 1951764}, {"upload_date": "08 August 2011", "owner_name": "Ivo Dolic", "photo_id": 57016338, "longitude": 16.968749, "height": 60, "width": 60, "photo_title": "Simetrija - kako na tlu tako i na nebu", "latitude": 43.705329, "owner_url": "http://www.panoramio.com/user/2573851", "photo_url": "http://www.panoramio.com/photo/57016338", "photo_file_url": "http://mw2.google.com/mw-panoramio/photos/square/57016338.jpg", "owner_id": 2573851}, {"upload_date": "19 October 2009", "owner_name": "Ivo Dolic", "photo_id": 28002093, "longitude": 16.874614000000008, "height": 60, "width": 60, "photo_title": "Koze i jarad", "latitude": 43.870472, "owner_url": "http://www.panoramio.com/user/2573851", "photo_url": "http://www.panoramio.com/photo/28002093", "photo_file_url": "http://mw2.google.com/mw-panoramio/photos/square/28002093.jpg", "owner_id": 2573851}, {"upload_date": "19 October 2009", "owner_name": "Ivo Dolic", "photo_id": 28002739, "longitude": 16.82616200000001, "height": 60, "width": 60, "photo_title": "Ljubunski lug", "latitude": 43.885924, "owner_url": "http://www.panoramio.com/user/2573851", "photo_url": "http://www.panoramio.com/photo/28002739", "photo_file_url": "http://mw2.google.com/mw-panoramio/photos/square/28002739.jpg", "owner_id": 2573851}, {"upload_date": "19 October 2009", "owner_name": "Ivo Dolic", "photo_id": 28002729, "longitude": 17.067347000000012, "height": 60, "width": 60, "photo_title": "Klen u sutonu", "latitude": 43.795075, "owner_url": "http://www.panoramio.com/user/2573851", "photo_url": "http://www.panoramio.com/photo/28002729", "photo_file_url": "http://mw2.google.com/mw-panoramio/photos/square/28002729.jpg", "owner_id": 2573851}, {"upload_date": "31 January 2010", "owner_name": "Pavel Jan\u00edk", "photo_id": 31681560, "longitude": 17.066955, "height": 60, "width": 60, "photo_title": "Strom (Drvo), Poto\u010dani, BIH", "latitude": 43.801502, "owner_url": "http://www.panoramio.com/user/2486478", "photo_url": "http://www.panoramio.com/photo/31681560", "photo_file_url": "http://mw2.google.com/mw-panoramio/photos/square/31681560.jpg", "owner_id": 2486478}, {"upload_date": "17 November 2009", "owner_name": "RADOMIR KR\u010cMAR", "photo_id": 28963201, "longitude": 17.011299, "height": 60, "width": 60, "photo_title": "MEGDAN,ERCEZI,VULETE,\u017dUJKE,KARANI", "latitude": 43.924357, "owner_url": "http://www.panoramio.com/user/1951764", "photo_url": "http://www.panoramio.com/photo/28963201", "photo_file_url": "http://mw2.google.com/mw-panoramio/photos/square/28963201.jpg", "owner_id": 1951764}, {"upload_date": "01 August 2009", "owner_name": "RADOMIR KR\u010cMAR", "photo_id": 25114534, "longitude": 17.017329, "height": 60, "width": 60, "photo_title": "VODENE BUKVE,KUJA\u010cA,GLAMO\u010cKO POLJE", "latitude": 43.943172, "owner_url": "http://www.panoramio.com/user/1951764", "photo_url": "http://www.panoramio.com/photo/25114534", "photo_file_url": "http://mw2.google.com/mw-panoramio/photos/square/25114534.jpg", "owner_id": 1951764}, {"upload_date": "21 June 2009", "owner_name": "RADOMIR KR\u010cMAR", "photo_id": 23679573, "longitude": 16.801239, "height": 60, "width": 60, "photo_title": "GLAMO\u010cKO POLJE", "latitude": 44.107815, "owner_url": "http://www.panoramio.com/user/1951764", "photo_url": "http://www.panoramio.com/photo/23679573", "photo_file_url": "http://mw2.google.com/mw-panoramio/photos/square/23679573.jpg", "owner_id": 1951764}, {"upload_date": "06 June 2010", "owner_name": "\u0421\u0435\u043a\u0443\u043b\u0430 \u041f\u0435\u0442\u0440\u043e\u0432\u0438\u045b", "photo_id": 36433705, "longitude": 16.90737999999999, "height": 60, "width": 60, "photo_title": "GLAMO\u010c, odmor u polju (Skucani u pozadini)", "latitude": 43.996463, "owner_url": "http://www.panoramio.com/user/2959513", "photo_url": "http://www.panoramio.com/photo/36433705", "photo_file_url": "http://mw2.google.com/mw-panoramio/photos/square/36433705.jpg", "owner_id": 2959513}, {"upload_date": "18 October 2011", "owner_name": "\u0411\u0430\u0441\u0442\u0430\u0448\u0438\u045b", "photo_id": 60774906, "longitude": 16.704495, "height": 60, "width": 60, "photo_title": "\u0425\u0440\u0430\u043c \u0421\u0438\u043b\u0430\u0441\u043a\u0430 \u0421\u0432\u0435\u0442\u043e\u0433\u0430 \u0414\u0443\u0445\u0430 \u0443 \u0412\u0440\u0431\u0438\u0446\u0438", "latitude": 43.997401, "owner_url": "http://www.panoramio.com/user/237563", "photo_url": "http://www.panoramio.com/photo/60774906", "photo_file_url": "http://mw2.google.com/mw-panoramio/photos/square/60774906.jpg", "owner_id": 237563}, {"upload_date": "22 June 2009", "owner_name": "RADOMIR KR\u010cMAR", "photo_id": 23720673, "longitude": 17.040911, "height": 60, "width": 60, "photo_title": "KRUZI,PODNO CINCARA,SA LIVANJSKE STRANE", "latitude": 43.883641, "owner_url": "http://www.panoramio.com/user/1951764", "photo_url": "http://www.panoramio.com/photo/23720673", "photo_file_url": "http://mw2.google.com/mw-panoramio/photos/square/23720673.jpg", "owner_id": 1951764}, {"upload_date": "07 December 2009", "owner_name": "Mario Glava\u0161", "photo_id": 29632964, "longitude": 17.099533, "height": 60, "width": 60, "photo_title": "Livno-Kruge", "latitude": 43.789933, "owner_url": "http://www.panoramio.com/user/2033666", "photo_url": "http://www.panoramio.com/photo/29632964", "photo_file_url": "http://mw2.google.com/mw-panoramio/photos/square/29632964.jpg", "owner_id": 2033666}, {"upload_date": "08 August 2011", "owner_name": "Ivo Dolic", "photo_id": 57014115, "longitude": 17.016642, "height": 60, "width": 60, "photo_title": "Jezero Mandek - Val", "latitude": 43.732375, "owner_url": "http://www.panoramio.com/user/2573851", "photo_url": "http://www.panoramio.com/photo/57014115", "photo_file_url": "http://mw2.google.com/mw-panoramio/photos/square/57014115.jpg", "owner_id": 2573851}, {"upload_date": "17 August 2009", "owner_name": "Takeadventure", "photo_id": 25757083, "longitude": 17.034410000001, "height": 60, "width": 60, "photo_title": "The view from Cincar to field Glamoc Polje and Golija mountain", "latitude": 43.911040000005, "owner_url": "http://www.panoramio.com/user/3535119", "photo_url": "http://www.panoramio.com/photo/25757083", "photo_file_url": "http://mw2.google.com/mw-panoramio/photos/square/25757083.jpg", "owner_id": 3535119}, {"upload_date": "10 February 2007", "owner_name": "satko", "photo_id": 760123, "longitude": 17.068634, "height": 60, "width": 60, "photo_title": "Cincar kod Livna,BiH", "latitude": 43.898635, "owner_url": "http://www.panoramio.com/user/152796", "photo_url": "http://www.panoramio.com/photo/760123", "photo_file_url": "http://mw2.google.com/mw-panoramio/photos/square/760123.jpg", "owner_id": 152796}, {"upload_date": "16 November 2011", "owner_name": "RADOMIR KR\u010cMAR", "photo_id": 62258768, "longitude": 16.929674, "height": 60, "width": 60, "photo_title": "PODGLAVICA,ZAGLAVICA,KARLOVAC-GLAMO\u010cKO POLJE", "latitude": 43.958664, "owner_url": "http://www.panoramio.com/user/1951764", "photo_url": "http://www.panoramio.com/photo/62258768", "photo_file_url": "http://mw2.google.com/mw-panoramio/photos/square/62258768.jpg", "owner_id": 1951764}, {"upload_date": "08 September 2011", "owner_name": "Ivo Dolic", "photo_id": 58669535, "longitude": 16.834638, "height": 60, "width": 60, "photo_title": "Boje iznad Troglava", "latitude": 43.887176, "owner_url": "http://www.panoramio.com/user/2573851", "photo_url": "http://www.panoramio.com/photo/58669535", "photo_file_url": "http://mw2.google.com/mw-panoramio/photos/square/58669535.jpg", "owner_id": 2573851}, {"upload_date": "19 October 2009", "owner_name": "Ivo Dolic", "photo_id": 27999577, "longitude": 16.835861, "height": 60, "width": 60, "photo_title": "Troglav u sutonu", "latitude": 43.867208, "owner_url": "http://www.panoramio.com/user/2573851", "photo_url": "http://www.panoramio.com/photo/27999577", "photo_file_url": "http://mw2.google.com/mw-panoramio/photos/square/27999577.jpg", "owner_id": 2573851}, {"upload_date": "08 August 2011", "owner_name": "Ivo Dolic", "photo_id": 57015195, "longitude": 16.782587, "height": 60, "width": 60, "photo_title": "Za sv. Antu - Strupni\u0107 2011", "latitude": 43.921854, "owner_url": "http://www.panoramio.com/user/2573851", "photo_url": "http://www.panoramio.com/photo/57015195", "photo_file_url": "http://mw2.google.com/mw-panoramio/photos/square/57015195.jpg", "owner_id": 2573851}, {"upload_date": "20 November 2008", "owner_name": "mtomaz", "photo_id": 16138862, "longitude": 17.097473, "height": 60, "width": 60, "photo_title": "Bu\u0161ko jezero s Tu\u0161nice", "latitude": 43.727445, "owner_url": "http://www.panoramio.com/user/2451447", "photo_url": "http://www.panoramio.com/photo/16138862", "photo_file_url": "http://mw2.google.com/mw-panoramio/photos/square/16138862.jpg", "owner_id": 2451447}, {"upload_date": "14 September 2010", "owner_name": "olga.a", "photo_id": 40781667, "longitude": 17.099661999999995, "height": 60, "width": 60, "photo_title": "krave uz Bu\u0161ko jezero", "latitude": 43.683681, "owner_url": "http://www.panoramio.com/user/1424413", "photo_url": "http://www.panoramio.com/photo/40781667", "photo_file_url": "http://mw2.google.com/mw-panoramio/photos/square/40781667.jpg", "owner_id": 1424413}, {"upload_date": "15 September 2009", "owner_name": "Jursky", "photo_id": 26852325, "longitude": 16.593926, "height": 60, "width": 60, "photo_title": "Sv. Jakov i Ana", "latitude": 43.629407, "owner_url": "http://www.panoramio.com/user/3474899", "photo_url": "http://www.panoramio.com/photo/26852325", "photo_file_url": "http://mw2.google.com/mw-panoramio/photos/square/26852325.jpg", "owner_id": 3474899}, {"upload_date": "10 November 2011", "owner_name": "RADOMIR KR\u010cMAR", "photo_id": 61956264, "longitude": 16.798439, "height": 60, "width": 60, "photo_title": "JESEN U GLAMO\u010cKOM POLJU", "latitude": 44.115937, "owner_url": "http://www.panoramio.com/user/1951764", "photo_url": "http://www.panoramio.com/photo/61956264", "photo_file_url": "http://mw2.google.com/mw-panoramio/photos/square/61956264.jpg", "owner_id": 1951764}, {"upload_date": "29 August 2011", "owner_name": "Ivo Dolic", "photo_id": 58135719, "longitude": 16.854143, "height": 60, "width": 60, "photo_title": "Dugo toplo ljeto 2011", "latitude": 43.857925, "owner_url": "http://www.panoramio.com/user/2573851", "photo_url": "http://www.panoramio.com/photo/58135719", "photo_file_url": "http://mw2.google.com/mw-panoramio/photos/square/58135719.jpg", "owner_id": 2573851}, {"upload_date": "22 February 2010", "owner_name": "Antonio Katavi\u0107", "photo_id": 32463237, "longitude": 16.890793000000002, "height": 60, "width": 60, "photo_title": "Kame\u0161nica", "latitude": 43.715535, "owner_url": "http://www.panoramio.com/user/265145", "photo_url": "http://www.panoramio.com/photo/32463237", "photo_file_url": "http://mw2.google.com/mw-panoramio/photos/square/32463237.jpg", "owner_id": 265145}, {"upload_date": "07 January 2010", "owner_name": "mmekic", "photo_id": 30774162, "longitude": 16.623944999999992, "height": 60, "width": 60, "photo_title": "Mali,Srednji i Veliki Troglav...", "latitude": 43.961808, "owner_url": "http://www.panoramio.com/user/2498463", "photo_url": "http://www.panoramio.com/photo/30774162", "photo_file_url": "http://mw2.google.com/mw-panoramio/photos/square/30774162.jpg", "owner_id": 2498463}, {"upload_date": "22 February 2010", "owner_name": "Antonio Katavi\u0107", "photo_id": 32463315, "longitude": 16.881866000000002, "height": 60, "width": 60, "photo_title": "Livanjsko polje", "latitude": 43.710572, "owner_url": "http://www.panoramio.com/user/265145", "photo_url": "http://www.panoramio.com/photo/32463315", "photo_file_url": "http://mw2.google.com/mw-panoramio/photos/square/32463315.jpg", "owner_id": 265145}, {"upload_date": "30 November 2009", "owner_name": "Takeadventure", "photo_id": 29408614, "longitude": 16.5851345062, "height": 60, "width": 60, "photo_title": "The section from Bravcev Dolac to the ridge of Dinara mountain", "latitude": 43.8919029236, "owner_url": "http://www.panoramio.com/user/3535119", "photo_url": "http://www.panoramio.com/photo/29408614", "photo_file_url": "http://mw2.google.com/mw-panoramio/photos/square/29408614.jpg", "owner_id": 3535119}, {"upload_date": "03 July 2010", "owner_name": "gastony", "photo_id": 37480103, "longitude": 16.594334000000003, "height": 60, "width": 60, "photo_title": "Sneg u junu...", "latitude": 43.959008, "owner_url": "http://www.panoramio.com/user/2024181", "photo_url": "http://www.panoramio.com/photo/37480103", "photo_file_url": "http://mw2.google.com/mw-panoramio/photos/square/37480103.jpg", "owner_id": 2024181}, {"upload_date": "26 December 2011", "owner_name": "mmekic", "photo_id": 63977037, "longitude": 17.106829, "height": 60, "width": 60, "photo_title": "Yes,winter is there...", "latitude": 44.091685, "owner_url": "http://www.panoramio.com/user/2498463", "photo_url": "http://www.panoramio.com/photo/63977037", "photo_file_url": "http://mw2.google.com/mw-panoramio/photos/square/63977037.jpg", "owner_id": 2498463}, {"upload_date": "17 February 2011", "owner_name": "Jursky", "photo_id": 48254017, "longitude": 16.619997, "height": 60, "width": 60, "photo_title": "Skola  u Hrvacama", "latitude": 43.756573, "owner_url": "http://www.panoramio.com/user/3474899", "photo_url": "http://www.panoramio.com/photo/48254017", "photo_file_url": "http://mw2.google.com/mw-panoramio/photos/square/48254017.jpg", "owner_id": 3474899}, {"upload_date": "30 November 2009", "owner_name": "Takeadventure", "photo_id": 29408628, "longitude": 16.6112804413, "height": 60, "width": 60, "photo_title": "At the ridge of Dinara mountain", "latitude": 43.9113388062, "owner_url": "http://www.panoramio.com/user/3535119", "photo_url": "http://www.panoramio.com/photo/29408628", "photo_file_url": "http://mw2.google.com/mw-panoramio/photos/square/29408628.jpg", "owner_id": 3535119}, {"upload_date": "30 November 2009", "owner_name": "Takeadventure", "photo_id": 29408875, "longitude": 16.6438694, "height": 60, "width": 60, "photo_title": "The carriageway section to Vrdovo", "latitude": 43.870059967, "owner_url": "http://www.panoramio.com/user/3535119", "photo_url": "http://www.panoramio.com/photo/29408875", "photo_file_url": "http://mw2.google.com/mw-panoramio/photos/square/29408875.jpg", "owner_id": 3535119}, {"upload_date": "12 February 2011", "owner_name": "Takeadventure", "photo_id": 48004936, "longitude": 16.796787262, "height": 60, "width": 60, "photo_title": "Korita", "latitude": 43.7009773254, "owner_url": "http://www.panoramio.com/user/3535119", "photo_url": "http://www.panoramio.com/photo/48004936", "photo_file_url": "http://mw2.google.com/mw-panoramio/photos/square/48004936.jpg", "owner_id": 3535119}, {"upload_date": "17 January 2007", "owner_name": "I. Brnic", "photo_id": 470990, "longitude": 17.056704, "height": 60, "width": 60, "photo_title": "Raseljka u Dobranjskom polju", "latitude": 43.781505, "owner_url": "http://www.panoramio.com/user/101512", "photo_url": "http://www.panoramio.com/photo/470990", "photo_file_url": "http://mw2.google.com/mw-panoramio/photos/square/470990.jpg", "owner_id": 101512}, {"upload_date": "17 August 2009", "owner_name": "Takeadventure", "photo_id": 25757071, "longitude": 17.065879098591, "height": 60, "width": 60, "photo_title": "The north side of Cincar mountain", "latitude": 43.927517098586, "owner_url": "http://www.panoramio.com/user/3535119", "photo_url": "http://www.panoramio.com/photo/25757071", "photo_file_url": "http://mw2.google.com/mw-panoramio/photos/square/25757071.jpg", "owner_id": 3535119}, {"upload_date": "12 February 2011", "owner_name": "Takeadventure", "photo_id": 48004338, "longitude": 16.649179, "height": 60, "width": 60, "photo_title": "Sinjsko Polje and Kame\u0161nica mountain", "latitude": 43.66694, "owner_url": "http://www.panoramio.com/user/3535119", "photo_url": "http://www.panoramio.com/photo/48004338", "photo_file_url": "http://mw2.google.com/mw-panoramio/photos/square/48004338.jpg", "owner_id": 3535119}, {"upload_date": "25 August 2011", "owner_name": "Ivo Dolic", "photo_id": 57917042, "longitude": 16.735053, "height": 60, "width": 60, "photo_title": "Cestom prema zapadu", "latitude": 43.96621, "owner_url": "http://www.panoramio.com/user/2573851", "photo_url": "http://www.panoramio.com/photo/57917042", "photo_file_url": "http://mw2.google.com/mw-panoramio/photos/square/57917042.jpg", "owner_id": 2573851}, {"upload_date": "23 July 2013", "owner_name": "Ivo Dolic", "photo_id": 93586521, "longitude": 16.68643, "height": 60, "width": 60, "photo_title": "Troglav", "latitude": 44.023311, "owner_url": "http://www.panoramio.com/user/2573851", "photo_url": "http://www.panoramio.com/photo/93586521", "photo_file_url": "http://mw2.google.com/mw-panoramio/photos/square/93586521.jpg", "owner_id": 2573851}, {"upload_date": "22 February 2010", "owner_name": "Antonio Katavi\u0107", "photo_id": 32463289, "longitude": 16.88942, "height": 60, "width": 60, "photo_title": "Kame\u0161nica", "latitude": 43.711564, "owner_url": "http://www.panoramio.com/user/265145", "photo_url": "http://www.panoramio.com/photo/32463289", "photo_file_url": "http://mw2.google.com/mw-panoramio/photos/square/32463289.jpg", "owner_id": 265145}, {"upload_date": "26 December 2011", "owner_name": "mmekic", "photo_id": 63977295, "longitude": 17.095199, "height": 60, "width": 60, "photo_title": "\u041f\u043e\u0433\u043b\u0435\u0434 \u0438\u0437 \u0428\u0435\u043c\u0430\u043d\u043e\u0432\u0430\u0446\u0430 \u043a\u0430 \u0412\u0438\u0442\u0438\u0440\u043e\u0433\u0443..", "latitude": 44.0964, "owner_url": "http://www.panoramio.com/user/2498463", "photo_url": "http://www.panoramio.com/photo/63977295", "photo_file_url": "http://mw2.google.com/mw-panoramio/photos/square/63977295.jpg", "owner_id": 2498463}, {"upload_date": "12 February 2011", "owner_name": "Takeadventure", "photo_id": 48004345, "longitude": 16.7139492035, "height": 60, "width": 60, "photo_title": "The section Sinj - Otok", "latitude": 43.6892738342, "owner_url": "http://www.panoramio.com/user/3535119", "photo_url": "http://www.panoramio.com/photo/48004345", "photo_file_url": "http://mw2.google.com/mw-panoramio/photos/square/48004345.jpg", "owner_id": 3535119}, {"upload_date": "15 February 2011", "owner_name": "Takeadventure", "photo_id": 48174384, "longitude": 16.567725, "height": 60, "width": 60, "photo_title": "Dinara", "latitude": 43.754835, "owner_url": "http://www.panoramio.com/user/3535119", "photo_url": "http://www.panoramio.com/photo/48174384", "photo_file_url": "http://mw2.google.com/mw-panoramio/photos/square/48174384.jpg", "owner_id": 3535119}, {"upload_date": "09 September 2007", "owner_name": "I. Brnic", "photo_id": 4525931, "longitude": 17.01705, "height": 60, "width": 60, "photo_title": "Vido\u0161i", "latitude": 43.766755, "owner_url": "http://www.panoramio.com/user/101512", "photo_url": "http://www.panoramio.com/photo/4525931", "photo_file_url": "http://mw2.google.com/mw-panoramio/photos/square/4525931.jpg", "owner_id": 101512}, {"upload_date": "30 November 2009", "owner_name": "Takeadventure", "photo_id": 29408622, "longitude": 16.5988368988, "height": 60, "width": 60, "photo_title": "The section from Bravcev Dolac to the ridge of Dinara mountain", "latitude": 43.8996925354, "owner_url": "http://www.panoramio.com/user/3535119", "photo_url": "http://www.panoramio.com/photo/29408622", "photo_file_url": "http://mw2.google.com/mw-panoramio/photos/square/29408622.jpg", "owner_id": 3535119}, {"upload_date": "14 February 2012", "owner_name": "Ivo Dolic", "photo_id": 66772333, "longitude": 16.963173, "height": 60, "width": 60, "photo_title": "Me\u0107ava u Suha\u010di 2012.", "latitude": 43.844649, "owner_url": "http://www.panoramio.com/user/2573851", "photo_url": "http://www.panoramio.com/photo/66772333", "photo_file_url": "http://mw2.google.com/mw-panoramio/photos/square/66772333.jpg", "owner_id": 2573851}, {"upload_date": "17 January 2007", "owner_name": "I. Brnic", "photo_id": 470710, "longitude": 17.069836, "height": 60, "width": 60, "photo_title": "Kamesnica od Dobrog", "latitude": 43.784604, "owner_url": "http://www.panoramio.com/user/101512", "photo_url": "http://www.panoramio.com/photo/470710", "photo_file_url": "http://mw2.google.com/mw-panoramio/photos/square/470710.jpg", "owner_id": 101512}, {"upload_date": "10 May 2009", "owner_name": "Antonio Katavi\u0107", "photo_id": 22207269, "longitude": 16.613388, "height": 60, "width": 60, "photo_title": "Svilaja", "latitude": 43.766631, "owner_url": "http://www.panoramio.com/user/265145", "photo_url": "http://www.panoramio.com/photo/22207269", "photo_file_url": "http://mw2.google.com/mw-panoramio/photos/square/22207269.jpg", "owner_id": 265145}, {"upload_date": "14 June 2012", "owner_name": "Ivo Dolic", "photo_id": 73757711, "longitude": 16.856032, "height": 60, "width": 60, "photo_title": "Lipanj 2012", "latitude": 43.84446, "owner_url": "http://www.panoramio.com/user/2573851", "photo_url": "http://www.panoramio.com/photo/73757711", "photo_file_url": "http://mw2.google.com/mw-panoramio/photos/square/73757711.jpg", "owner_id": 2573851}, {"upload_date": "17 August 2012", "owner_name": "dragansremac", "photo_id": 77231768, "longitude": 16.56983, "height": 60, "width": 60, "photo_title": "\u041a\u043e\u043b\u0438\u043a\u043e \u0441\u0435 \u0438\u0437 \u043f\u0440\u043e\u043b\u0430\u0437\u0430 \u0441\u0435\u045b\u0430\u043c, \u043d\u0435\u043a\u0430 \u043d\u043e\u0440\u0432\u0435\u0448\u043a\u0430 \u0444\u043e\u043d\u0434\u0430\u0446\u0438\u0458\u0430 \u0458\u0435 \u043e\u0431\u043d\u043e\u0432\u0438\u043b\u0430 \u043e\u0432\u0443 \u0446\u0440\u043a\u0432\u0443", "latitude": 44.082704, "owner_url": "http://www.panoramio.com/user/3924244", "photo_url": "http://www.panoramio.com/photo/77231768", "photo_file_url": "http://mw2.google.com/mw-panoramio/photos/square/77231768.jpg", "owner_id": 3924244}, {"upload_date": "07 January 2010", "owner_name": "mmekic", "photo_id": 30773993, "longitude": 16.614760999999987, "height": 60, "width": 60, "photo_title": "Dinara,Troglav (1913 m n/v)", "latitude": 43.966195, "owner_url": "http://www.panoramio.com/user/2498463", "photo_url": "http://www.panoramio.com/photo/30773993", "photo_file_url": "http://mw2.google.com/mw-panoramio/photos/square/30773993.jpg", "owner_id": 2498463}, {"upload_date": "14 February 2012", "owner_name": "Ivo Dolic", "photo_id": 66772861, "longitude": 17.113546, "height": 60, "width": 60, "photo_title": "Krdo na B. glavi, velja\u010da 2012.", "latitude": 43.78051, "owner_url": "http://www.panoramio.com/user/2573851", "photo_url": "http://www.panoramio.com/photo/66772861", "photo_file_url": "http://mw2.google.com/mw-panoramio/photos/square/66772861.jpg", "owner_id": 2573851}, {"upload_date": "08 August 2011", "owner_name": "Ivo Dolic", "photo_id": 57015039, "longitude": 16.996847, "height": 60, "width": 60, "photo_title": "Jesen u Livnu 2010", "latitude": 43.823946, "owner_url": "http://www.panoramio.com/user/2573851", "photo_url": "http://www.panoramio.com/photo/57015039", "photo_file_url": "http://mw2.google.com/mw-panoramio/photos/square/57015039.jpg", "owner_id": 2573851}, {"upload_date": "08 August 2011", "owner_name": "Ivo Dolic", "photo_id": 57015061, "longitude": 17.027956, "height": 60, "width": 60, "photo_title": "Procesija svije\u0107a - V. Gospa 2010.", "latitude": 43.771801, "owner_url": "http://www.panoramio.com/user/2573851", "photo_url": "http://www.panoramio.com/photo/57015061", "photo_file_url": "http://mw2.google.com/mw-panoramio/photos/square/57015061.jpg", "owner_id": 2573851}, {"upload_date": "30 July 2010", "owner_name": "olga.a", "photo_id": 38613137, "longitude": 17.12676300000001, "height": 60, "width": 60, "photo_title": "Bu\u0161ko jezero", "latitude": 43.693404, "owner_url": "http://www.panoramio.com/user/1424413", "photo_url": "http://www.panoramio.com/photo/38613137", "photo_file_url": "http://mw2.google.com/mw-panoramio/photos/square/38613137.jpg", "owner_id": 1424413}, {"upload_date": "25 August 2011", "owner_name": "Ivo Dolic", "photo_id": 57915452, "longitude": 16.806421, "height": 60, "width": 60, "photo_title": "Biciklisti preko Vagnja u pohodu Gospi Sinjskoj 2011.", "latitude": 43.810747, "owner_url": "http://www.panoramio.com/user/2573851", "photo_url": "http://www.panoramio.com/photo/57915452", "photo_file_url": "http://mw2.google.com/mw-panoramio/photos/square/57915452.jpg", "owner_id": 2573851}, {"upload_date": "04 November 2011", "owner_name": "RADOMIR KR\u010cMAR", "photo_id": 61634363, "longitude": 16.88324, "height": 60, "width": 60, "photo_title": "SIERA MADRE U GLAMO\u010cKOM POLJU!", "latitude": 44.021163, "owner_url": "http://www.panoramio.com/user/1951764", "photo_url": "http://www.panoramio.com/photo/61634363", "photo_file_url": "http://mw2.google.com/mw-panoramio/photos/square/61634363.jpg", "owner_id": 1951764}, {"upload_date": "08 August 2011", "owner_name": "Ivo Dolic", "photo_id": 57014051, "longitude": 17.012511, "height": 60, "width": 60, "photo_title": "Svekar Voda - Mi\u0161i", "latitude": 43.712836, "owner_url": "http://www.panoramio.com/user/2573851", "photo_url": "http://www.panoramio.com/photo/57014051", "photo_file_url": "http://mw2.google.com/mw-panoramio/photos/square/57014051.jpg", "owner_id": 2573851}, {"upload_date": "17 January 2007", "owner_name": "I. Brnic", "photo_id": 471354, "longitude": 17.102966, "height": 60, "width": 60, "photo_title": "Tusnica", "latitude": 43.719257, "owner_url": "http://www.panoramio.com/user/101512", "photo_url": "http://www.panoramio.com/photo/471354", "photo_file_url": "http://mw2.google.com/mw-panoramio/photos/square/471354.jpg", "owner_id": 101512}, {"upload_date": "17 January 2007", "owner_name": "I. Brnic", "photo_id": 471769, "longitude": 16.913538, "height": 60, "width": 60, "photo_title": "Kame\u0161nica", "latitude": 43.720808, "owner_url": "http://www.panoramio.com/user/101512", "photo_url": "http://www.panoramio.com/photo/471769", "photo_file_url": "http://mw2.google.com/mw-panoramio/photos/square/471769.jpg", "owner_id": 101512}, {"upload_date": "09 September 2007", "owner_name": "I. Brnic", "photo_id": 4526363, "longitude": 17.032757, "height": 60, "width": 60, "photo_title": "Beach on \"Bu\u0161ko\" lake by \"Kazaginac\"", "latitude": 43.633155, "owner_url": "http://www.panoramio.com/user/101512", "photo_url": "http://www.panoramio.com/photo/4526363", "photo_file_url": "http://mw2.google.com/mw-panoramio/photos/square/4526363.jpg", "owner_id": 101512}, {"upload_date": "17 January 2007", "owner_name": "I. Brnic", "photo_id": 471702, "longitude": 16.97319, "height": 60, "width": 60, "photo_title": "Kame\u0161nica", "latitude": 43.719753, "owner_url": "http://www.panoramio.com/user/101512", "photo_url": "http://www.panoramio.com/photo/471702", "photo_file_url": "http://mw2.google.com/mw-panoramio/photos/square/471702.jpg", "owner_id": 101512},