{"count": 2267, "has_more": true, "map_location": {"lat": 43.5984655, "panoramio_zoom": 8, "lon": 3.878299109508053}, "photos": [{"upload_date": "04 July 2011", "owner_name": "Natmara", "photo_id": 55233641, "longitude": 4.090213000000006, "height": 60, "width": 60, "photo_title": "Dove and roman bridge", "latitude": 43.781401, "owner_url": "http://www.panoramio.com/user/3327628", "photo_url": "http://www.panoramio.com/photo/55233641", "photo_file_url": "http://mw2.google.com/mw-panoramio/photos/square/55233641.jpg", "owner_id": 3327628}, {"upload_date": "30 June 2010", "owner_name": "Natmara", "photo_id": 37374769, "longitude": 4.0814849999999865, "height": 60, "width": 60, "photo_title": "Sails and wings.", "latitude": 43.56046, "owner_url": "http://www.panoramio.com/user/3327628", "photo_url": "http://www.panoramio.com/photo/37374769", "photo_file_url": "http://mw2.google.com/mw-panoramio/photos/square/37374769.jpg", "owner_id": 3327628}, {"upload_date": "08 November 2009", "owner_name": "vinc107", "photo_id": 28686727, "longitude": 3.968929, "height": 60, "width": 60, "photo_title": "Love Boat - Carnon - France", "latitude": 43.548789, "owner_url": "http://www.panoramio.com/user/3418712", "photo_url": "http://www.panoramio.com/photo/28686727", "photo_file_url": "http://mw2.google.com/mw-panoramio/photos/square/28686727.jpg", "owner_id": 3418712}, {"upload_date": "20 April 2012", "owner_name": "vinc107", "photo_id": 70592562, "longitude": 3.891341, "height": 60, "width": 60, "photo_title": "Coquelicots Meric", "latitude": 43.629286, "owner_url": "http://www.panoramio.com/user/3418712", "photo_url": "http://www.panoramio.com/photo/70592562", "photo_file_url": "http://mw2.google.com/mw-panoramio/photos/square/70592562.jpg", "owner_id": 3418712}, {"upload_date": "10 March 2011", "owner_name": "Jeanne-Marie Simon-Chapuis", "photo_id": 49278883, "longitude": 3.816977, "height": 60, "width": 60, "photo_title": "Pas de Deux...", "latitude": 43.463573, "owner_url": "http://www.panoramio.com/user/2007128", "photo_url": "http://www.panoramio.com/photo/49278883", "photo_file_url": "http://mw2.google.com/mw-panoramio/photos/square/49278883.jpg", "owner_id": 2007128}, {"upload_date": "04 March 2007", "owner_name": "Kincses Ferenc", "photo_id": 1155224, "longitude": 3.8973569869995, "height": 60, "width": 60, "photo_title": "  Waterwork / Sz\u00f6k\u0151k\u00fat  ", "latitude": 43.607555821533, "owner_url": "http://www.panoramio.com/user/239263", "photo_url": "http://www.panoramio.com/photo/1155224", "photo_file_url": "http://mw2.google.com/mw-panoramio/photos/square/1155224.jpg", "owner_id": 239263}, {"upload_date": "08 September 2010", "owner_name": "pilago", "photo_id": 40477142, "longitude": 3.7324490000000026, "height": 60, "width": 60, "photo_title": "Saint-Martin-de-Londres \u00a6 pilago", "latitude": 43.791205, "owner_url": "http://www.panoramio.com/user/555362", "photo_url": "http://www.panoramio.com/photo/40477142", "photo_file_url": "http://mw2.google.com/mw-panoramio/photos/square/40477142.jpg", "owner_id": 555362}, {"upload_date": "20 April 2012", "owner_name": "vinc107", "photo_id": 70630506, "longitude": 3.879561, "height": 60, "width": 60, "photo_title": "A la plage", "latitude": 43.503442, "owner_url": "http://www.panoramio.com/user/3418712", "photo_url": "http://www.panoramio.com/photo/70630506", "photo_file_url": "http://mw2.google.com/mw-panoramio/photos/square/70630506.jpg", "owner_id": 3418712}, {"upload_date": "02 September 2010", "owner_name": "pilago", "photo_id": 40197050, "place_id": "3cae4b8cd4889736f3ded7a253206cc647efe360", "longitude": 3.863972, "height": 60, "width": 60, "photo_title": "Villeneuve-l\u00e8s-Maguelone, \u00c9glise Saint-\u00c9tienne from the 12 Century \u00a6 pilago", "latitude": 43.531828, "owner_url": "http://www.panoramio.com/user/555362", "photo_url": "http://www.panoramio.com/photo/40197050", "photo_file_url": "http://mw2.google.com/mw-panoramio/photos/square/40197050.jpg", "owner_id": 555362}, {"upload_date": "21 November 2008", "owner_name": "Olivier Faugeras", "photo_id": 16176546, "longitude": 3.929307, "height": 60, "width": 60, "photo_title": "ST 31062", "latitude": 43.528404, "owner_url": "http://www.panoramio.com/user/629243", "photo_url": "http://www.panoramio.com/photo/16176546", "photo_file_url": "http://mw2.google.com/mw-panoramio/photos/square/16176546.jpg", "owner_id": 629243}, {"upload_date": "17 November 2008", "owner_name": "Olivier Faugeras", "photo_id": 16063790, "longitude": 3.908536, "height": 60, "width": 60, "photo_title": "Vers Palavas", "latitude": 43.529945, "owner_url": "http://www.panoramio.com/user/629243", "photo_url": "http://www.panoramio.com/photo/16063790", "photo_file_url": "http://mw2.google.com/mw-panoramio/photos/square/16063790.jpg", "owner_id": 629243}, {"upload_date": "12 May 2012", "owner_name": "vinc107", "photo_id": 71935963, "longitude": 3.852573, "height": 60, "width": 60, "photo_title": "Champs - Prades-le-Lez", "latitude": 43.710653, "owner_url": "http://www.panoramio.com/user/3418712", "photo_url": "http://www.panoramio.com/photo/71935963", "photo_file_url": "http://mw2.google.com/mw-panoramio/photos/square/71935963.jpg", "owner_id": 3418712}, {"upload_date": "09 July 2009", "owner_name": "vinc107", "photo_id": 24292900, "longitude": 3.908944, "height": 60, "width": 60, "photo_title": "DS sur le rond point Route de Carnon (2010)", "latitude": 43.590789, "owner_url": "http://www.panoramio.com/user/3418712", "photo_url": "http://www.panoramio.com/photo/24292900", "photo_file_url": "http://mw2.google.com/mw-panoramio/photos/square/24292900.jpg", "owner_id": 3418712}, {"upload_date": "17 June 2009", "owner_name": "goterei", "photo_id": 23546570, "longitude": 3.960078, "height": 60, "width": 60, "photo_title": "Frankreich hat die besten Verkehrsschilder;)", "latitude": 43.624287, "owner_url": "http://www.panoramio.com/user/1435016", "photo_url": "http://www.panoramio.com/photo/23546570", "photo_file_url": "http://mw2.google.com/mw-panoramio/photos/square/23546570.jpg", "owner_id": 1435016}, {"upload_date": "16 February 2012", "owner_name": "Roger-11", "photo_id": 66860906, "longitude": 3.6782849999999883, "height": 60, "width": 60, "photo_title": "France, cascade de glace et Palmier en hiver 2012 \u00e0 Balaruc-les-Bains", "latitude": 43.440846, "owner_url": "http://www.panoramio.com/user/354935", "photo_url": "http://www.panoramio.com/photo/66860906", "photo_file_url": "http://mw2.google.com/mw-panoramio/photos/square/66860906.jpg", "owner_id": 354935}, {"upload_date": "16 January 2007", "owner_name": "Philippe Stoop", "photo_id": 455958, "longitude": 3.901863, "height": 60, "width": 60, "photo_title": "Plage de Maguelonne", "latitude": 43.514199, "owner_url": "http://www.panoramio.com/user/78506", "photo_url": "http://www.panoramio.com/photo/455958", "photo_file_url": "http://mw2.google.com/mw-panoramio/photos/square/455958.jpg", "owner_id": 78506}, {"upload_date": "16 June 2007", "owner_name": "mue52", "photo_id": 2777322, "longitude": 4.010181427002, "height": 60, "width": 60, "photo_title": "Mittelmeer bei La Grande Motte", "latitude": 43.55315142315, "owner_url": "http://www.panoramio.com/user/570908", "photo_url": "http://www.panoramio.com/photo/2777322", "photo_file_url": "http://mw2.google.com/mw-panoramio/photos/square/2777322.jpg", "owner_id": 570908}, {"upload_date": "05 March 2008", "owner_name": "(graniotte) J GRANIER", "photo_id": 8319875, "longitude": 3.791764, "height": 60, "width": 60, "photo_title": "FRONTIGNAN PLAGE le vent coiffe les vagues", "latitude": 43.438259, "owner_url": "http://www.panoramio.com/user/1216313", "photo_url": "http://www.panoramio.com/photo/8319875", "photo_file_url": "http://mw2.google.com/mw-panoramio/photos/square/8319875.jpg", "owner_id": 1216313}, {"upload_date": "29 June 2007", "owner_name": "boerx", "photo_id": 3022428, "longitude": 4.1014722222222, "height": 60, "width": 60, "photo_title": "Ships (La Grande Motte)", "latitude": 43.567922222222, "owner_url": "http://www.panoramio.com/user/20398", "photo_url": "http://www.panoramio.com/photo/3022428", "photo_file_url": "http://mw2.google.com/mw-panoramio/photos/square/3022428.jpg", "owner_id": 20398}, {"upload_date": "16 May 2012", "owner_name": "vinc107", "photo_id": 72150607, "longitude": 3.81213, "height": 60, "width": 60, "photo_title": "Stade de la Mosson - MTP", "latitude": 43.622638, "owner_url": "http://www.panoramio.com/user/3418712", "photo_url": "http://www.panoramio.com/photo/72150607", "photo_file_url": "http://mw2.google.com/mw-panoramio/photos/square/72150607.jpg", "owner_id": 3418712}, {"upload_date": "28 January 2009", "owner_name": "Jackie Gomez-Blasco", "photo_id": 18292535, "longitude": 3.880019, "height": 60, "width": 60, "photo_title": "Pour **Maryse** , le h\u00e9ron polisson ou son \"fr\u00e8re\" au Parc du Lunaret", "latitude": 43.643467, "owner_url": "http://www.panoramio.com/user/836605", "photo_url": "http://www.panoramio.com/photo/18292535", "photo_file_url": "http://mw2.google.com/mw-panoramio/photos/square/18292535.jpg", "owner_id": 836605}, {"upload_date": "15 January 2007", "owner_name": "Philippe Stoop", "photo_id": 443051, "place_id": "076b140de8cb5b3cbcc390e8b2100197e0a286b1", "longitude": 3.739815, "height": 60, "width": 60, "photo_title": "Pic Saint loup", "latitude": 43.774565, "owner_url": "http://www.panoramio.com/user/78506", "photo_url": "http://www.panoramio.com/photo/443051", "photo_file_url": "http://mw2.google.com/mw-panoramio/photos/square/443051.jpg", "owner_id": 78506}, {"upload_date": "01 May 2011", "owner_name": "\" Mystic Angel \"", "photo_id": 51991351, "longitude": 3.8258749999999964, "height": 60, "width": 60, "photo_title": "Teintes chaudes", "latitude": 43.577604, "owner_url": "http://www.panoramio.com/user/3725919", "photo_url": "http://www.panoramio.com/photo/51991351", "photo_file_url": "http://mw2.google.com/mw-panoramio/photos/square/51991351.jpg", "owner_id": 3725919}, {"upload_date": "27 July 2008", "owner_name": "eric DELVA", "photo_id": 12515457, "longitude": 3.922269, "height": 60, "width": 60, "photo_title": "Montpellier tram 2-Notre Dame de Sablassou", "latitude": 43.634289, "owner_url": "http://www.panoramio.com/user/2057104", "photo_url": "http://www.panoramio.com/photo/12515457", "photo_file_url": "http://mw2.google.com/mw-panoramio/photos/square/12515457.jpg", "owner_id": 2057104}, {"upload_date": "02 June 2007", "owner_name": "Dub", "photo_id": 2519111, "longitude": 3.753891, "height": 60, "width": 60, "photo_title": "Frontignan", "latitude": 43.445441, "owner_url": "http://www.panoramio.com/user/342833", "photo_url": "http://www.panoramio.com/photo/2519111", "photo_file_url": "http://mw2.google.com/mw-panoramio/photos/square/2519111.jpg", "owner_id": 342833}, {"upload_date": "08 July 2008", "owner_name": "Nador38", "photo_id": 11920876, "longitude": 3.776486, "height": 60, "width": 60, "photo_title": "Fontaine du vieux Fabr\u00e8gues", "latitude": 43.55191, "owner_url": "http://www.panoramio.com/user/1687606", "photo_url": "http://www.panoramio.com/photo/11920876", "photo_file_url": "http://mw2.google.com/mw-panoramio/photos/square/11920876.jpg", "owner_id": 1687606}, {"upload_date": "27 February 2008", "owner_name": "domib34", "photo_id": 8135763, "longitude": 4.014274, "height": 60, "width": 60, "photo_title": "Baillargues - H\u00e9rault", "latitude": 43.660871, "owner_url": "http://www.panoramio.com/user/1440696", "photo_url": "http://www.panoramio.com/photo/8135763", "photo_file_url": "http://mw2.google.com/mw-panoramio/photos/square/8135763.jpg", "owner_id": 1440696}, {"upload_date": "20 February 2008", "owner_name": "(graniotte) J GRANIER", "photo_id": 7962061, "longitude": 3.656516, "height": 60, "width": 60, "photo_title": "BOUZIGUES vers MEZE coucher de soleil", "latitude": 43.447782, "owner_url": "http://www.panoramio.com/user/1216313", "photo_url": "http://www.panoramio.com/photo/7962061", "photo_file_url": "http://mw2.google.com/mw-panoramio/photos/square/7962061.jpg", "owner_id": 1216313}, {"upload_date": "31 July 2008", "owner_name": "JM Alves", "photo_id": 12656007, "longitude": 3.698616, "height": 60, "width": 60, "photo_title": "Mont Saint Clair", "latitude": 43.440705, "owner_url": "http://www.panoramio.com/user/162675", "photo_url": "http://www.panoramio.com/photo/12656007", "photo_file_url": "http://mw2.google.com/mw-panoramio/photos/square/12656007.jpg", "owner_id": 162675}, {"upload_date": "28 September 2008", "owner_name": "cojjack", "photo_id": 14503292, "longitude": 3.703809, "height": 60, "width": 60, "photo_title": "vieille batisse", "latitude": 43.742329, "owner_url": "http://www.panoramio.com/user/1203915", "photo_url": "http://www.panoramio.com/photo/14503292", "photo_file_url": "http://mw2.google.com/mw-panoramio/photos/square/14503292.jpg", "owner_id": 1203915}, {"upload_date": "28 April 2009", "owner_name": "Alexandru C. Ene", "photo_id": 21742219, "place_id": "38e820d0cda77da062ec2138a10d990f5234548e", "longitude": 3.857274, "height": 60, "width": 60, "photo_title": "Ecole d'architecture | Car exit mirror", "latitude": 43.637224, "owner_url": "http://www.panoramio.com/user/87083", "photo_url": "http://www.panoramio.com/photo/21742219", "photo_file_url": "http://mw2.google.com/mw-panoramio/photos/square/21742219.jpg", "owner_id": 87083}, {"upload_date": "26 July 2007", "owner_name": "mfe", "photo_id": 3544304, "longitude": 3.732991, "height": 60, "width": 60, "photo_title": "Cambous, long\u00e8re avec toiture reconstitu\u00e9e (extr\u00e9mit\u00e9 avec la  porte haute)", "latitude": 43.755845, "owner_url": "http://www.panoramio.com/user/31047", "photo_url": "http://www.panoramio.com/photo/3544304", "photo_file_url": "http://mw2.google.com/mw-panoramio/photos/square/3544304.jpg", "owner_id": 31047}, {"upload_date": "11 December 2007", "owner_name": "\u00a9UdoSm", "photo_id": 6429329, "longitude": 3.687801, "height": 60, "width": 60, "photo_title": "\u00c9tang de Thau; Hubbr\u00fccke in Sete. \u00a9 by UdoSm", "latitude": 43.415273, "owner_url": "http://www.panoramio.com/user/1037887", "photo_url": "http://www.panoramio.com/photo/6429329", "photo_file_url": "http://mw2.google.com/mw-panoramio/photos/square/6429329.jpg", "owner_id": 1037887}, {"upload_date": "12 March 2008", "owner_name": "(graniotte) J GRANIER", "photo_id": 8484877, "longitude": 3.634415, "height": 60, "width": 60, "photo_title": "lever sur le parc a moules", "latitude": 43.43198, "owner_url": "http://www.panoramio.com/user/1216313", "photo_url": "http://www.panoramio.com/photo/8484877", "photo_file_url": "http://mw2.google.com/mw-panoramio/photos/square/8484877.jpg", "owner_id": 1216313}, {"upload_date": "19 July 2010", "owner_name": "vinc107", "photo_id": 38139051, "longitude": 3.715023, "height": 60, "width": 60, "photo_title": "Cournonterral - Panorama", "latitude": 43.561695, "owner_url": "http://www.panoramio.com/user/3418712", "photo_url": "http://www.panoramio.com/photo/38139051", "photo_file_url": "http://mw2.google.com/mw-panoramio/photos/square/38139051.jpg", "owner_id": 3418712}, {"upload_date": "29 February 2008", "owner_name": "domib34", "photo_id": 8187366, "longitude": 3.911642, "height": 60, "width": 60, "photo_title": "centre oecumenique", "latitude": 43.656773, "owner_url": "http://www.panoramio.com/user/1440696", "photo_url": "http://www.panoramio.com/photo/8187366", "photo_file_url": "http://mw2.google.com/mw-panoramio/photos/square/8187366.jpg", "owner_id": 1440696}, {"upload_date": "15 July 2008", "owner_name": "Kincses Ferenc", "photo_id": 12127638, "longitude": 3.988906, "height": 60, "width": 60, "photo_title": "Plage", "latitude": 43.54585, "owner_url": "http://www.panoramio.com/user/239263", "photo_url": "http://www.panoramio.com/photo/12127638", "photo_file_url": "http://mw2.google.com/mw-panoramio/photos/square/12127638.jpg", "owner_id": 239263}, {"upload_date": "15 February 2008", "owner_name": "mfe", "photo_id": 7846360, "longitude": 4.054556, "height": 60, "width": 60, "photo_title": "R\u00e9ensablage apr\u00e9s les temp\u00eates (f\u00e9vrier 2008)", "latitude": 43.557879, "owner_url": "http://www.panoramio.com/user/31047", "photo_url": "http://www.panoramio.com/photo/7846360", "photo_file_url": "http://mw2.google.com/mw-panoramio/photos/square/7846360.jpg", "owner_id": 31047}, {"upload_date": "20 April 2008", "owner_name": "nicolethiemonge", "photo_id": 9525365, "longitude": 3.931475, "height": 60, "width": 60, "photo_title": "Le Cr\u00e8s, le lac", "latitude": 43.656416, "owner_url": "http://www.panoramio.com/user/1452018", "photo_url": "http://www.panoramio.com/photo/9525365", "photo_file_url": "http://mw2.google.com/mw-panoramio/photos/square/9525365.jpg", "owner_id": 1452018}, {"upload_date": "01 July 2007", "owner_name": "mfe", "photo_id": 3043896, "longitude": 3.898446000000007, "height": 60, "width": 60, "photo_title": "Entr\u00e9e ancienne du ch\u00e2teau d'Assas", "latitude": 43.701562, "owner_url": "http://www.panoramio.com/user/31047", "photo_url": "http://www.panoramio.com/photo/3043896", "photo_file_url": "http://mw2.google.com/mw-panoramio/photos/square/3043896.jpg", "owner_id": 31047}, {"upload_date": "14 January 2007", "owner_name": "mfe", "photo_id": 429358, "longitude": 3.736667, "height": 60, "width": 60, "photo_title": "Mas Rimbault - Frontignan", "latitude": 43.474722, "owner_url": "http://www.panoramio.com/user/31047", "photo_url": "http://www.panoramio.com/photo/429358", "photo_file_url": "http://mw2.google.com/mw-panoramio/photos/square/429358.jpg", "owner_id": 31047}, {"upload_date": "06 July 2007", "owner_name": "mfe", "photo_id": 3148601, "longitude": 3.862982, "height": 60, "width": 60, "photo_title": "Arriv\u00e9e sur Montferrier par Montpelier", "latitude": 43.661011, "owner_url": "http://www.panoramio.com/user/31047", "photo_url": "http://www.panoramio.com/photo/3148601", "photo_file_url": "http://mw2.google.com/mw-panoramio/photos/square/3148601.jpg", "owner_id": 31047}, {"upload_date": "01 September 2010", "owner_name": "pilago", "photo_id": 40147000, "place_id": "df130dda926ef7f6d104bfca6885522d2f65151c", "longitude": 3.883613, "height": 60, "width": 60, "photo_title": "Cath\u00e9drale Saint-Pierre-et-Saint-Paul de Maguelone, interior \u00a6 pilago", "latitude": 43.512448, "owner_url": "http://www.panoramio.com/user/555362", "photo_url": "http://www.panoramio.com/photo/40147000", "photo_file_url": "http://mw2.google.com/mw-panoramio/photos/square/40147000.jpg", "owner_id": 555362}, {"upload_date": "03 March 2011", "owner_name": "\u10e6 Dominique Rolland", "photo_id": 48944301, "longitude": 4.09863, "height": 60, "width": 60, "photo_title": "Seule sur la plage", "latitude": 43.554551, "owner_url": "http://www.panoramio.com/user/3743897", "photo_url": "http://www.panoramio.com/photo/48944301", "photo_file_url": "http://mw2.google.com/mw-panoramio/photos/square/48944301.jpg", "owner_id": 3743897}, {"upload_date": "28 August 2011", "owner_name": "Kincses Ferenc", "photo_id": 58054092, "longitude": 3.881226, "height": 60, "width": 60, "photo_title": "De la Com\u00e9die", "latitude": 43.609455, "owner_url": "http://www.panoramio.com/user/239263", "photo_url": "http://www.panoramio.com/photo/58054092", "photo_file_url": "http://mw2.google.com/mw-panoramio/photos/square/58054092.jpg", "owner_id": 239263}, {"upload_date": "01 July 2010", "owner_name": "Oram", "photo_id": 37398519, "longitude": 3.8964990000000057, "height": 60, "width": 60, "photo_title": "Lattes, Montpellier", "latitude": 43.558835, "owner_url": "http://www.panoramio.com/user/4272273", "photo_url": "http://www.panoramio.com/photo/37398519", "photo_file_url": "http://mw2.google.com/mw-panoramio/photos/square/37398519.jpg", "owner_id": 4272273}, {"upload_date": "10 May 2012", "owner_name": "vinc107", "photo_id": 71837266, "longitude": 3.944479, "height": 60, "width": 60, "photo_title": "Palavas - Octobre doux", "latitude": 43.531224, "owner_url": "http://www.panoramio.com/user/3418712", "photo_url": "http://www.panoramio.com/photo/71837266", "photo_file_url": "http://mw2.google.com/mw-panoramio/photos/square/71837266.jpg", "owner_id": 3418712}, {"upload_date": "17 October 2008", "owner_name": "Olivier Faugeras", "photo_id": 15095884, "longitude": 3.932365, "height": 60, "width": 60, "photo_title": "Le phare de la M\u00e9diterran\u00e9e", "latitude": 43.528412, "owner_url": "http://www.panoramio.com/user/629243", "photo_url": "http://www.panoramio.com/photo/15095884", "photo_file_url": "http://mw2.google.com/mw-panoramio/photos/square/15095884.jpg", "owner_id": 629243}, {"upload_date": "28 August 2011", "owner_name": "Kincses Ferenc", "photo_id": 58052498, "longitude": 3.870701, "height": 60, "width": 60, "photo_title": "R\u00f3mai k\u00fat / Roman Fountain", "latitude": 43.611285, "owner_url": "http://www.panoramio.com/user/239263", "photo_url": "http://www.panoramio.com/photo/58052498", "photo_file_url": "http://mw2.google.com/mw-panoramio/photos/square/58052498.jpg", "owner_id": 239263}, {"upload_date": "28 November 2012", "owner_name": "\u00a9 FranciscoGC", "photo_id": 82685876, "longitude": 3.696942, "height": 60, "width": 60, "photo_title": "LE PALAIS CONSULAIRE, S\u00e8te-FRANCIA-- (by FranciscoGC)", "latitude": 43.405726, "owner_url": "http://www.panoramio.com/user/1666771", "photo_url": "http://www.panoramio.com/photo/82685876", "photo_file_url": "http://mw2.google.com/mw-panoramio/photos/square/82685876.jpg", "owner_id": 1666771}, {"upload_date": "21 January 2007", "owner_name": "androo", "photo_id": 510567, "longitude": 3.887347, "height": 60, "width": 60, "photo_title": "Montpellier - Place du Nombre d'Or", "latitude": 43.608138, "owner_url": "http://www.panoramio.com/user/48403", "photo_url": "http://www.panoramio.com/photo/510567", "photo_file_url": "http://mw2.google.com/mw-panoramio/photos/square/510567.jpg", "owner_id": 48403}, {"upload_date": "21 January 2007", "owner_name": "androo", "photo_id": 510539, "longitude": 3.895812, "height": 60, "width": 60, "photo_title": "Montpellier - from Avenue du Pir\u00e9e", "latitude": 43.607665, "owner_url": "http://www.panoramio.com/user/48403", "photo_url": "http://www.panoramio.com/photo/510539", "photo_file_url": "http://mw2.google.com/mw-panoramio/photos/square/510539.jpg", "owner_id": 48403}, {"upload_date": "22 April 2007", "owner_name": "manuamador", "photo_id": 1877484, "longitude": 3.879341, "height": 60, "width": 60, "photo_title": "Place de la Com\u00e9die", "latitude": 43.608556, "owner_url": "http://www.panoramio.com/user/395412", "photo_url": "http://www.panoramio.com/photo/1877484", "photo_file_url": "http://mw2.google.com/mw-panoramio/photos/square/1877484.jpg", "owner_id": 395412}, {"upload_date": "07 May 2010", "owner_name": "\u10e6 Dominique Rolland", "photo_id": 35207296, "longitude": 4.090090000000004, "height": 60, "width": 60, "photo_title": "La Grande Motte", "latitude": 43.556355, "owner_url": "http://www.panoramio.com/user/3743897", "photo_url": "http://www.panoramio.com/photo/35207296", "photo_file_url": "http://mw2.google.com/mw-panoramio/photos/square/35207296.jpg", "owner_id": 3743897}, {"upload_date": "24 November 2012", "owner_name": "vinc107", "photo_id": 82499491, "longitude": 3.97182, "height": 60, "width": 60, "photo_title": "Carnon - Walk", "latitude": 43.541695, "owner_url": "http://www.panoramio.com/user/3418712", "photo_url": "http://www.panoramio.com/photo/82499491", "photo_file_url": "http://mw2.google.com/mw-panoramio/photos/square/82499491.jpg", "owner_id": 3418712}, {"upload_date": "06 February 2011", "owner_name": "justine", "photo_id": 47680126, "longitude": 4.082279, "height": 60, "width": 60, "photo_title": "Pont de Sommi\u00e8res... sur le   Vidourle", "latitude": 43.784232, "owner_url": "http://www.panoramio.com/user/4297603", "photo_url": "http://www.panoramio.com/photo/47680126", "photo_file_url": "http://mw2.google.com/mw-panoramio/photos/square/47680126.jpg", "owner_id": 4297603}, {"upload_date": "01 January 2007", "owner_name": "A.R.G.", "photo_id": 277728, "longitude": 3.868939, "height": 60, "width": 60, "photo_title": "Aq\u00fceducte de Montpellier", "latitude": 43.611444, "owner_url": "http://www.panoramio.com/user/48198", "photo_url": "http://www.panoramio.com/photo/277728", "photo_file_url": "http://mw2.google.com/mw-panoramio/photos/square/277728.jpg", "owner_id": 48198}, {"upload_date": "28 April 2010", "owner_name": "Roger-11", "photo_id": 34858170, "place_id": "1709a27d6cdfe8ca4d7b781e1f02ce645528ea2e", "longitude": 3.917334, "height": 60, "width": 60, "photo_title": "France, le Carrousel de Jules Verne \u00e0 Montpellier", "latitude": 43.603221, "owner_url": "http://www.panoramio.com/user/354935", "photo_url": "http://www.panoramio.com/photo/34858170", "photo_file_url": "http://mw2.google.com/mw-panoramio/photos/square/34858170.jpg", "owner_id": 354935}, {"upload_date": "18 March 2007", "owner_name": "Kincses Ferenc", "photo_id": 1376301, "longitude": 3.874982, "height": 60, "width": 60, "photo_title": "Rue Foch", "latitude": 43.610962, "owner_url": "http://www.panoramio.com/user/239263", "photo_url": "http://www.panoramio.com/photo/1376301", "photo_file_url": "http://mw2.google.com/mw-panoramio/photos/square/1376301.jpg", "owner_id": 239263}, {"upload_date": "11 December 2007", "owner_name": "\u00a9UdoSm", "photo_id": 6429454, "longitude": 3.6943244934082, "height": 60, "width": 60, "photo_title": "\u00c9tang de Thau; Sete 3, \u00a9 by UdoSm", "latitude": 43.410534673699, "owner_url": "http://www.panoramio.com/user/1037887", "photo_url": "http://www.panoramio.com/photo/6429454", "photo_file_url": "http://mw2.google.com/mw-panoramio/photos/square/6429454.jpg", "owner_id": 1037887}, {"upload_date": "17 November 2008", "owner_name": "Olivier Faugeras", "photo_id": 16063752, "longitude": 3.930053, "height": 60, "width": 60, "photo_title": "Course camarguaise I", "latitude": 43.530688, "owner_url": "http://www.panoramio.com/user/629243", "photo_url": "http://www.panoramio.com/photo/16063752", "photo_file_url": "http://mw2.google.com/mw-panoramio/photos/square/16063752.jpg", "owner_id": 629243}, {"upload_date": "19 December 2007", "owner_name": "dimashoo", "photo_id": 6573010, "longitude": 3.872348, "height": 60, "width": 60, "photo_title": "Montpellier", "latitude": 43.611098, "owner_url": "http://www.panoramio.com/user/530862", "photo_url": "http://www.panoramio.com/photo/6573010", "photo_file_url": "http://mw2.google.com/mw-panoramio/photos/square/6573010.jpg", "owner_id": 530862}, {"upload_date": "20 March 2011", "owner_name": "Jeanne-Marie Simon-Chapuis", "photo_id": 49770670, "longitude": 3.818092000000007, "height": 60, "width": 60, "photo_title": "Reflets d'Argent...pour Betty qui aime la mer en toute saison", "latitude": 43.459274, "owner_url": "http://www.panoramio.com/user/2007128", "photo_url": "http://www.panoramio.com/photo/49770670", "photo_file_url": "http://mw2.google.com/mw-panoramio/photos/square/49770670.jpg", "owner_id": 2007128}, {"upload_date": "21 July 2007", "owner_name": "Met de Ribes", "photo_id": 3432614, "longitude": 3.874338, "height": 60, "width": 60, "photo_title": "Montpeller, catedral", "latitude": 43.613184, "owner_url": "http://www.panoramio.com/user/653650", "photo_url": "http://www.panoramio.com/photo/3432614", "photo_file_url": "http://mw2.google.com/mw-panoramio/photos/square/3432614.jpg", "owner_id": 653650}, {"upload_date": "30 June 2008", "owner_name": "M Teixeira", "photo_id": 11671000, "longitude": 3.947954, "height": 60, "width": 60, "photo_title": "Sacr\u00e9e activit\u00e9e", "latitude": 43.537972, "owner_url": "http://www.panoramio.com/user/1745789", "photo_url": "http://www.panoramio.com/photo/11671000", "photo_file_url": "http://mw2.google.com/mw-panoramio/photos/square/11671000.jpg", "owner_id": 1745789}, {"upload_date": "18 October 2008", "owner_name": "domib34", "photo_id": 15117862, "longitude": 3.898087, "height": 60, "width": 60, "photo_title": "Port Ariane", "latitude": 43.571818, "owner_url": "http://www.panoramio.com/user/1440696", "photo_url": "http://www.panoramio.com/photo/15117862", "photo_file_url": "http://mw2.google.com/mw-panoramio/photos/square/15117862.jpg", "owner_id": 1440696}, {"upload_date": "09 April 2008", "owner_name": "effeelle", "photo_id": 9232366, "longitude": 3.893892, "height": 60, "width": 60, "photo_title": "Linea Tram Azzurro a Montpellier - Francia", "latitude": 43.607381, "owner_url": "http://www.panoramio.com/user/1368195", "photo_url": "http://www.panoramio.com/photo/9232366", "photo_file_url": "http://mw2.google.com/mw-panoramio/photos/square/9232366.jpg", "owner_id": 1368195}, {"upload_date": "03 August 2007", "owner_name": "Kasanicky", "photo_id": 3696225, "longitude": 3.876039, "height": 60, "width": 60, "photo_title": "Montpellier painted houses.", "latitude": 43.606748, "owner_url": "http://www.panoramio.com/user/724518", "photo_url": "http://www.panoramio.com/photo/3696225", "photo_file_url": "http://mw2.google.com/mw-panoramio/photos/square/3696225.jpg", "owner_id": 724518}, {"upload_date": "16 June 2008", "owner_name": "Teddy-Ada", "photo_id": 11248809, "longitude": 3.932676, "height": 60, "width": 60, "photo_title": "Palavas les Flots (34)", "latitude": 43.533087, "owner_url": "http://www.panoramio.com/user/895631", "photo_url": "http://www.panoramio.com/photo/11248809", "photo_file_url": "http://mw2.google.com/mw-panoramio/photos/square/11248809.jpg", "owner_id": 895631}, {"upload_date": "14 December 2010", "owner_name": "CKIKI 83", "photo_id": 44998842, "longitude": 3.786335000000008, "height": 60, "width": 60, "photo_title": "Reflets Frontignan plage", "latitude": 43.439584, "owner_url": "http://www.panoramio.com/user/1039150", "photo_url": "http://www.panoramio.com/photo/44998842", "photo_file_url": "http://mw2.google.com/mw-panoramio/photos/square/44998842.jpg", "owner_id": 1039150}, {"upload_date": "13 November 2007", "owner_name": "Roger-11", "photo_id": 5879925, "place_id": "87115cddaafa00d135043baeff48c5f4e9e100ce", "longitude": 3.682684, "height": 60, "width": 60, "photo_title": "France, S\u00e9te au loin sur le mont Saint-Clair et l'\u00e9tang de Thau c\u00f4t\u00e9 Balaruc les Bains", "latitude": 43.439615, "owner_url": "http://www.panoramio.com/user/354935", "photo_url": "http://www.panoramio.com/photo/5879925", "photo_file_url": "http://mw2.google.com/mw-panoramio/photos/square/5879925.jpg", "owner_id": 354935}, {"upload_date": "12 March 2007", "owner_name": "jean ROUBY", "photo_id": 1283689, "longitude": 3.890705, "height": 60, "width": 60, "photo_title": " Train touristique de Palavas La locomotive n\u00b081 devenue monument historique", "latitude": 43.589841, "owner_url": "http://www.panoramio.com/user/119374", "photo_url": "http://www.panoramio.com/photo/1283689", "photo_file_url": "http://mw2.google.com/mw-panoramio/photos/square/1283689.jpg", "owner_id": 119374}, {"upload_date": "09 April 2012", "owner_name": "vinc107", "photo_id": 69948454, "longitude": 3.919553, "height": 60, "width": 60, "photo_title": "Etang du M\u00e9jan - Flamands Roses", "latitude": 43.542989, "owner_url": "http://www.panoramio.com/user/3418712", "photo_url": "http://www.panoramio.com/photo/69948454", "photo_file_url": "http://mw2.google.com/mw-panoramio/photos/square/69948454.jpg", "owner_id": 3418712}, {"upload_date": "11 February 2013", "owner_name": "Dominique Rolland \u2729\u2602", "photo_id": 85942774, "longitude": 4.083566, "height": 60, "width": 60, "photo_title": "La Grande Motte", "latitude": 43.555266, "owner_url": "http://www.panoramio.com/user/7386916", "photo_url": "http://www.panoramio.com/photo/85942774", "photo_file_url": "http://mw2.google.com/mw-panoramio/photos/square/85942774.jpg", "owner_id": 7386916}, {"upload_date": "03 February 2011", "owner_name": "Marie-christine Rico", "photo_id": 47532816, "longitude": 3.9117339999999956, "height": 60, "width": 60, "photo_title": "Patience... attendre le bon moment !", "latitude": 43.530463, "owner_url": "http://www.panoramio.com/user/5494617", "photo_url": "http://www.panoramio.com/photo/47532816", "photo_file_url": "http://mw2.google.com/mw-panoramio/photos/square/47532816.jpg", "owner_id": 5494617}, {"upload_date": "14 February 2007", "owner_name": "jean ROUBY", "photo_id": 813294, "longitude": 3.644317, "height": 60, "width": 60, "photo_title": " Bouzigues  H\u00e9rault  L'Etang de Thau et la montagne de S\u00e8te ", "latitude": 43.44719, "owner_url": "http://www.panoramio.com/user/119374", "photo_url": "http://www.panoramio.com/photo/813294", "photo_file_url": "http://mw2.google.com/mw-panoramio/photos/square/813294.jpg", "owner_id": 119374}, {"upload_date": "30 January 2008", "owner_name": "Rio-Vista", "photo_id": 7458107, "longitude": 3.691449, "height": 60, "width": 60, "photo_title": "Thomas Bestevaer", "latitude": 43.413278, "owner_url": "http://www.panoramio.com/user/1084491", "photo_url": "http://www.panoramio.com/photo/7458107", "photo_file_url": "http://mw2.google.com/mw-panoramio/photos/square/7458107.jpg", "owner_id": 1084491}, {"upload_date": "02 June 2007", "owner_name": "Dub", "photo_id": 2521258, "longitude": 3.811913, "height": 60, "width": 60, "photo_title": "Frontignan plage", "latitude": 43.453168, "owner_url": "http://www.panoramio.com/user/342833", "photo_url": "http://www.panoramio.com/photo/2521258", "photo_file_url": "http://mw2.google.com/mw-panoramio/photos/square/2521258.jpg", "owner_id": 342833}, {"upload_date": "06 April 2009", "owner_name": "David Ian Wilson", "photo_id": 20882151, "longitude": 4.027777, "height": 60, "width": 60, "photo_title": "Carnon Plage, Montpellier, France, 1978", "latitude": 43.55564, "owner_url": "http://www.panoramio.com/user/1159929", "photo_url": "http://www.panoramio.com/photo/20882151", "photo_file_url": "http://mw2.google.com/mw-panoramio/photos/square/20882151.jpg", "owner_id": 1159929}, {"upload_date": "18 November 2007", "owner_name": "SvenP", "photo_id": 5984390, "longitude": 3.8905055555556, "height": 60, "width": 60, "photo_title": "Montpellier - Place Zeus et Place de Thessalie", "latitude": 43.608027777778, "owner_url": "http://www.panoramio.com/user/1019894", "photo_url": "http://www.panoramio.com/photo/5984390", "photo_file_url": "http://mw2.google.com/mw-panoramio/photos/square/5984390.jpg", "owner_id": 1019894}, {"upload_date": "01 November 2007", "owner_name": "mdopp", "photo_id": 5679413, "longitude": 4.040909, "height": 60, "width": 60, "photo_title": "Beach of Montpellier", "latitude": 43.557443, "owner_url": "http://www.panoramio.com/user/1060854", "photo_url": "http://www.panoramio.com/photo/5679413", "photo_file_url": "http://mw2.google.com/mw-panoramio/photos/square/5679413.jpg", "owner_id": 1060854}, {"upload_date": "16 June 2007", "owner_name": "JM Alves", "photo_id": 2783684, "longitude": 4.083052, "height": 60, "width": 60, "photo_title": "Grande Motte", "latitude": 43.560056, "owner_url": "http://www.panoramio.com/user/162675", "photo_url": "http://www.panoramio.com/photo/2783684", "photo_file_url": "http://mw2.google.com/mw-panoramio/photos/square/2783684.jpg", "owner_id": 162675}, {"upload_date": "27 October 2007", "owner_name": "Daniel Pelletier", "photo_id": 5563224, "longitude": 3.853111, "height": 60, "width": 60, "photo_title": "Pic Saint Loup", "latitude": 43.777539, "owner_url": "http://www.panoramio.com/user/1039014", "photo_url": "http://www.panoramio.com/photo/5563224", "photo_file_url": "http://mw2.google.com/mw-panoramio/photos/square/5563224.jpg", "owner_id": 1039014}, {"upload_date": "02 June 2007", "owner_name": "Dub", "photo_id": 2519104, "longitude": 3.756294, "height": 60, "width": 60, "photo_title": "Frontignan", "latitude": 43.448433, "owner_url": "http://www.panoramio.com/user/342833", "photo_url": "http://www.panoramio.com/photo/2519104", "photo_file_url": "http://mw2.google.com/mw-panoramio/photos/square/2519104.jpg", "owner_id": 342833}, {"upload_date": "11 November 2007", "owner_name": "Jackie Gomez-Blasco", "photo_id": 5849711, "longitude": 3.932097, "height": 60, "width": 60, "photo_title": "Le transcanal", "latitude": 43.527168, "owner_url": "http://www.panoramio.com/user/836605", "photo_url": "http://www.panoramio.com/photo/5849711", "photo_file_url": "http://mw2.google.com/mw-panoramio/photos/square/5849711.jpg", "owner_id": 836605}, {"upload_date": "22 January 2008", "owner_name": "\u00a9marica ferrentino", "photo_id": 7288569, "longitude": 4.085369, "height": 60, "width": 60, "photo_title": "idem....", "latitude": 43.557972, "owner_url": "http://www.panoramio.com/user/789846", "photo_url": "http://www.panoramio.com/photo/7288569", "photo_file_url": "http://mw2.google.com/mw-panoramio/photos/square/7288569.jpg", "owner_id": 789846}, {"upload_date": "26 July 2008", "owner_name": "eric DELVA", "photo_id": 12515306, "place_id": "75caaac464da6acc7e37897247be5689b7769ef5", "longitude": 3.878528, "height": 60, "width": 60, "photo_title": "Cr\u00e8che Pinocchio \u00e0 Montpellier", "latitude": 43.617126, "owner_url": "http://www.panoramio.com/user/2057104", "photo_url": "http://www.panoramio.com/photo/12515306", "photo_file_url": "http://mw2.google.com/mw-panoramio/photos/square/12515306.jpg", "owner_id": 2057104}, {"upload_date": "09 April 2008", "owner_name": "effeelle", "photo_id": 9233073, "longitude": 3.8814370000000054, "height": 60, "width": 60, "photo_title": "Statue e bandiere in Champ de Mars a Montpellier - Francia", "latitude": 43.61285, "owner_url": "http://www.panoramio.com/user/1368195", "photo_url": "http://www.panoramio.com/photo/9233073", "photo_file_url": "http://mw2.google.com/mw-panoramio/photos/square/9233073.jpg", "owner_id": 1368195}, {"upload_date": "10 April 2012", "owner_name": "j\u00e9r\u00f4me bastianelli", "photo_id": 70010647, "longitude": 3.963352, "height": 60, "width": 60, "photo_title": "Le terminus du tramway", "latitude": 43.55778, "owner_url": "http://www.panoramio.com/user/813925", "photo_url": "http://www.panoramio.com/photo/70010647", "photo_file_url": "http://mw2.google.com/mw-panoramio/photos/square/70010647.jpg", "owner_id": 813925}, {"upload_date": "21 August 2013", "owner_name": "\u00a9 FranciscoGC", "photo_id": 95016882, "longitude": 3.924716, "height": 60, "width": 60, "photo_title": "PALAVAS les Flots......[by FranciscoGC]", "latitude": 43.533017, "owner_url": "http://www.panoramio.com/user/1666771", "photo_url": "http://www.panoramio.com/photo/95016882", "photo_file_url": "http://mw2.google.com/mw-panoramio/photos/square/95016882.jpg", "owner_id": 1666771}, {"upload_date": "14 February 2007", "owner_name": "jean ROUBY", "photo_id": 813261, "longitude": 4.081764, "height": 60, "width": 60, "photo_title": "La Grande-Motte Le port, H\u00e9rault", "latitude": 43.558003, "owner_url": "http://www.panoramio.com/user/119374", "photo_url": "http://www.panoramio.com/photo/813261", "photo_file_url": "http://mw2.google.com/mw-panoramio/photos/square/813261.jpg", "owner_id": 119374}, {"upload_date": "21 July 2007", "owner_name": "Met de Ribes", "photo_id": 3432598, "longitude": 3.877637, "height": 60, "width": 60, "photo_title": "Montpeller - Montpellier", "latitude": 43.613351, "owner_url": "http://www.panoramio.com/user/653650", "photo_url": "http://www.panoramio.com/photo/3432598", "photo_file_url": "http://mw2.google.com/mw-panoramio/photos/square/3432598.jpg", "owner_id": 653650}, {"upload_date": "03 February 2008", "owner_name": "Naru Kenji", "photo_id": 7554710, "longitude": 4.063997, "height": 60, "width": 60, "photo_title": "La Grande-Motte (H\u00e9rault)", "latitude": 43.55707, "owner_url": "http://www.panoramio.com/user/1310638", "photo_url": "http://www.panoramio.com/photo/7554710", "photo_file_url": "http://mw2.google.com/mw-panoramio/photos/square/7554710.jpg", "owner_id": 1310638}, {"upload_date": "08 May 2008", "owner_name": "stefano.incerpi", "photo_id": 10020947, "longitude": 3.708433, "height": 60, "width": 60, "photo_title": "S\u00e8te il porticciolo", "latitude": 43.42335, "owner_url": "http://www.panoramio.com/user/686032", "photo_url": "http://www.panoramio.com/photo/10020947", "photo_file_url": "http://mw2.google.com/mw-panoramio/photos/square/10020947.jpg", "owner_id": 686032}, {"upload_date": "21 July 2009", "owner_name": "SvenP", "photo_id": 24732236, "longitude": 3.778386959685, "height": 60, "width": 60, "photo_title": "A9 KM113,0 nord - Aire de Montpellier-Fabr\u00e8gues - 1000m", "latitude": 43.53319659971, "owner_url": "http://www.panoramio.com/user/1019894", "photo_url": "http://www.panoramio.com/photo/24732236", "photo_file_url": "http://mw2.google.com/mw-panoramio/photos/square/24732236.jpg", "owner_id": 1019894}, {"upload_date": "12 May 2008", "owner_name": "Dub", "photo_id": 10151048, "longitude": 3.808072, "height": 60, "width": 60, "photo_title": "Frontignan plages", "latitude": 43.449601, "owner_url": "http://www.panoramio.com/user/342833", "photo_url": "http://www.panoramio.com/photo/10151048", "photo_file_url": "http://mw2.google.com/mw-panoramio/photos/square/10151048.jpg", "owner_id": 342833}, {"upload_date": "17 March 2007", "owner_name": "mfe", "photo_id": 1364808, "longitude": 3.864065, "height": 60, "width": 60, "photo_title": "Eglise Sainte-Th\u00e9r\u00e8se (class\u00e9e M. H.)1942", "latitude": 43.615196, "owner_url": "http://www.panoramio.com/user/31047", "photo_url": "http://www.panoramio.com/photo/1364808", "photo_file_url": "http://mw2.google.com/mw-panoramio/photos/square/1364808.jpg", "owner_id": 31047}, {"upload_date": "21 April 2007", "owner_name": "manuamador", "photo_id": 1870476, "longitude": 3.674015, "height": 60, "width": 60, "photo_title": "Le pic Saint Loup vu d'Argelliers", "latitude": 43.699031, "owner_url": "http://www.panoramio.com/user/395412", "photo_url": "http://www.panoramio.com/photo/1870476", "photo_file_url": "http://mw2.google.com/mw-panoramio/photos/square/1870476.jpg", "owner_id": 395412}, {"upload_date": "20 February 2007", "owner_name": "mfe", "photo_id": 911844, "longitude": 3.883372, "height": 60, "width": 60, "photo_title": "Rue de  la Tour de Candelon - Rue du Mas de Calenda", "latitude": 43.628733, "owner_url": "http://www.panoramio.com/user/31047", "photo_url": "http://www.panoramio.com/photo/911844", "photo_file_url": "http://mw2.google.com/mw-panoramio/photos/square/911844.jpg", "owner_id": 31047}, {"upload_date": "27 June 2007", "owner_name": "mfe", "photo_id": 2977619, "longitude": 3.879397, "height": 60, "width": 60, "photo_title": "Haut de l'Aiguelongue", "latitude": 43.636065, "owner_url": "http://www.panoramio.com/user/31047", "photo_url": "http://www.panoramio.com/photo/2977619", "photo_file_url": "http://mw2.google.com/mw-panoramio/photos/square/2977619.jpg", "owner_id": 31047}, {"upload_date": "04 December 2007", "owner_name": "SvenP", "photo_id": 6299622, "longitude": 3.8306888888889, "height": 60, "width": 60, "photo_title": "Montpellier A9 - Gare de P\u00e9age", "latitude": 43.561997222222, "owner_url": "http://www.panoramio.com/user/1019894", "photo_url": "http://www.panoramio.com/photo/6299622", "photo_file_url": "http://mw2.google.com/mw-panoramio/photos/square/6299622.jpg", "owner_id": 1019894}, {"upload_date": "02 June 2007", "owner_name": "Dub", "photo_id": 2521882, "longitude": 3.858948, "height": 60, "width": 60, "photo_title": "Flamand rose", "latitude": 43.492036, "owner_url": "http://www.panoramio.com/user/342833", "photo_url": "http://www.panoramio.com/photo/2521882", "photo_file_url": "http://mw2.google.com/mw-panoramio/photos/square/2521882.jpg", "owner_id": 342833}, {"upload_date": "09 June 2007", "owner_name": "mfe", "photo_id": 2661098, "longitude": 3.7770438194275, "height": 60, "width": 60, "photo_title": "Abbatiale de Vignogoule XIIIeS (vue ext. Est)", "latitude": 43.594658653802, "owner_url": "http://www.panoramio.com/user/31047", "photo_url": "http://www.panoramio.com/photo/2661098", "photo_file_url": "http://mw2.google.com/mw-panoramio/photos/square/2661098.jpg", "owner_id": 31047}, {"upload_date": "05 August 2008", "owner_name": "Nador38", "photo_id": 12820190, "longitude": 3.809316, "height": 60, "width": 60, "photo_title": "Les Matelles, rue du vieux village", "latitude": 43.730856, "owner_url": "http://www.panoramio.com/user/1687606", "photo_url": "http://www.panoramio.com/photo/12820190", "photo_file_url": "http://mw2.google.com/mw-panoramio/photos/square/12820190.jpg", "owner_id": 1687606}, {"upload_date": "12 November 2007", "owner_name": "Avuedoiseau", "photo_id": 5873098, "longitude": 4.019929, "height": 60, "width": 60, "photo_title": "Mauguio", "latitude": 43.586025, "owner_url": "http://www.panoramio.com/user/1090294", "photo_url": "http://www.panoramio.com/photo/5873098", "photo_file_url": "http://mw2.google.com/mw-panoramio/photos/square/5873098.jpg", "owner_id": 1090294}, {"upload_date": "14 September 2007", "owner_name": "Sam Asaert", "photo_id": 4637827, "longitude": 3.776894, "height": 60, "width": 60, "photo_title": "Horse at the palace", "latitude": 43.823815, "owner_url": "http://www.panoramio.com/user/64890", "photo_url": "http://www.panoramio.com/photo/4637827", "photo_file_url": "http://mw2.google.com/mw-panoramio/photos/square/4637827.jpg", "owner_id": 64890}, {"upload_date": "01 July 2007", "owner_name": "manuamador", "photo_id": 3064783, "longitude": 3.811355, "height": 60, "width": 60, "photo_title": "Pic Saint Loup", "latitude": 43.77881, "owner_url": "http://www.panoramio.com/user/395412", "photo_url": "http://www.panoramio.com/photo/3064783", "photo_file_url": "http://mw2.google.com/mw-panoramio/photos/square/3064783.jpg", "owner_id": 395412}, {"upload_date": "30 June 2008", "owner_name": "M Teixeira", "photo_id": 11670987, "longitude": 3.637633, "height": 60, "width": 60, "photo_title": "Elevage d'huitres", "latitude": 43.445909, "owner_url": "http://www.panoramio.com/user/1745789", "photo_url": "http://www.panoramio.com/photo/11670987", "photo_file_url": "http://mw2.google.com/mw-panoramio/photos/square/11670987.jpg", "owner_id": 1745789}, {"upload_date": "07 January 2008", "owner_name": "Ben de Graaf Bierbrauwer", "photo_id": 6969229, "longitude": 3.836975, "height": 60, "width": 60, "photo_title": "Pic Saint Loup", "latitude": 43.765144, "owner_url": "http://www.panoramio.com/user/1138231", "photo_url": "http://www.panoramio.com/photo/6969229", "photo_file_url": "http://mw2.google.com/mw-panoramio/photos/square/6969229.jpg", "owner_id": 1138231}, {"upload_date": "15 July 2008", "owner_name": "Nador38", "photo_id": 12128894, "longitude": 3.810636, "height": 60, "width": 60, "photo_title": "Edouard 1er de Giovanni Ingrato", "latitude": 43.646037, "owner_url": "http://www.panoramio.com/user/1687606", "photo_url": "http://www.panoramio.com/photo/12128894", "photo_file_url": "http://mw2.google.com/mw-panoramio/photos/square/12128894.jpg", "owner_id": 1687606}, {"upload_date": "06 July 2007", "owner_name": "mfe", "photo_id": 3148709, "longitude": 3.836246, "height": 60, "width": 60, "photo_title": "Panoramique : Pic Saint-Loup - Montagne de l'Hortus", "latitude": 43.787903, "owner_url": "http://www.panoramio.com/user/31047", "photo_url": "http://www.panoramio.com/photo/3148709", "photo_file_url": "http://mw2.google.com/mw-panoramio/photos/square/3148709.jpg", "owner_id": 31047}, {"upload_date": "16 November 2007", "owner_name": "joreca", "photo_id": 5939262, "longitude": 3.682308, "height": 60, "width": 60, "photo_title": "balaruc les bains", "latitude": 43.457716, "owner_url": "http://www.panoramio.com/user/556079", "photo_url": "http://www.panoramio.com/photo/5939262", "photo_file_url": "http://mw2.google.com/mw-panoramio/photos/square/5939262.jpg", "owner_id": 556079}, {"upload_date": "02 December 2007", "owner_name": "manuamador", "photo_id": 6257087, "longitude": 3.677673, "height": 60, "width": 60, "photo_title": "Le village", "latitude": 43.691211, "owner_url": "http://www.panoramio.com/user/395412", "photo_url": "http://www.panoramio.com/photo/6257087", "photo_file_url": "http://mw2.google.com/mw-panoramio/photos/square/6257087.jpg", "owner_id": 395412}, {"upload_date": "18 December 2009", "owner_name": "vinc107", "photo_id": 30023082, "longitude": 3.887552, "height": 60, "width": 60, "photo_title": "Montpellier - A9", "latitude": 43.582661, "owner_url": "http://www.panoramio.com/user/3418712", "photo_url": "http://www.panoramio.com/photo/30023082", "photo_file_url": "http://mw2.google.com/mw-panoramio/photos/square/30023082.jpg", "owner_id": 3418712}, {"upload_date": "10 May 2014", "owner_name": "Bruno Locatelli", "photo_id": 106803254, "longitude": 3.839879, "height": 60, "width": 60, "photo_title": "Etang de Vic, France", "latitude": 43.497515, "owner_url": "http://www.panoramio.com/user/6939681", "photo_url": "http://www.panoramio.com/photo/106803254", "photo_file_url": "http://mw2.google.com/mw-panoramio/photos/square/106803254.jpg", "owner_id": 6939681}, {"upload_date": "05 February 2007", "owner_name": "Sylvaingobi", "photo_id": 706905, "longitude": 3.957825, "height": 60, "width": 60, "photo_title": "DSCN4068", "latitude": 43.485809, "owner_url": "http://www.panoramio.com/user/67836", "photo_url": "http://www.panoramio.com/photo/706905", "photo_file_url": "http://mw2.google.com/mw-panoramio/photos/square/706905.jpg", "owner_id": 67836}, {"upload_date": "21 January 2009", "owner_name": "Tonton Esteban", "photo_id": 18049304, "longitude": 3.874912, "height": 60, "width": 60, "photo_title": "Silhouette du pic St Loup dominant un champ de tournesols", "latitude": 43.790676, "owner_url": "http://www.panoramio.com/user/500575", "photo_url": "http://www.panoramio.com/photo/18049304", "photo_file_url": "http://mw2.google.com/mw-panoramio/photos/square/18049304.jpg", "owner_id": 500575}, {"upload_date": "30 January 2011", "owner_name": "Marie-christine Rico", "photo_id": 47322156, "longitude": 4.010039000000006, "height": 60, "width": 60, "photo_title": "Une lampe accroch\u00e9 sur un mur au lierre rampant..", "latitude": 43.615556, "owner_url": "http://www.panoramio.com/user/5494617", "photo_url": "http://www.panoramio.com/photo/47322156", "photo_file_url": "http://mw2.google.com/mw-panoramio/photos/square/47322156.jpg", "owner_id": 5494617}, {"upload_date": "25 June 2009", "owner_name": "becnic", "photo_id": 23820115, "longitude": 3.889503, "height": 60, "width": 60, "photo_title": "Lac de Cecel\u00e9s - Arbre perdu", "latitude": 43.765082, "owner_url": "http://www.panoramio.com/user/3237657", "photo_url": "http://www.panoramio.com/photo/23820115", "photo_file_url": "http://mw2.google.com/mw-panoramio/photos/square/23820115.jpg", "owner_id": 3237657}, {"upload_date": "22 September 2009", "owner_name": "laurent klein", "photo_id": 27066258, "longitude": 4.105024000000014, "height": 60, "width": 60, "photo_title": "Icaro.", "latitude": 43.553354, "owner_url": "http://www.panoramio.com/user/3569726", "photo_url": "http://www.panoramio.com/photo/27066258", "photo_file_url": "http://mw2.google.com/mw-panoramio/photos/square/27066258.jpg", "owner_id": 3569726}, {"upload_date": "01 November 2008", "owner_name": "toledo49", "photo_id": 15562223, "longitude": 3.667535, "height": 60, "width": 60, "photo_title": "Carcasses et vieux bateaux.- Bon pour la casse.", "latitude": 43.414198, "owner_url": "http://www.panoramio.com/user/1776396", "photo_url": "http://www.panoramio.com/photo/15562223", "photo_file_url": "http://mw2.google.com/mw-panoramio/photos/square/15562223.jpg", "owner_id": 1776396}, {"upload_date": "18 November 2007", "owner_name": "SvenP", "photo_id": 5982210, "longitude": 4.0691777777778, "height": 60, "width": 60, "photo_title": "Fast view of \u00c9tang de Mauguio", "latitude": 43.568722222222, "owner_url": "http://www.panoramio.com/user/1019894", "photo_url": "http://www.panoramio.com/photo/5982210", "photo_file_url": "http://mw2.google.com/mw-panoramio/photos/square/5982210.jpg", "owner_id": 1019894}, {"upload_date": "01 December 2008", "owner_name": "Soleiade-Provence", "photo_id": 16487502, "longitude": 3.71089, "height": 60, "width": 60, "photo_title": "SETE : Les copains d'abord ", "latitude": 43.412109, "owner_url": "http://www.panoramio.com/user/1251650", "photo_url": "http://www.panoramio.com/photo/16487502", "photo_file_url": "http://mw2.google.com/mw-panoramio/photos/square/16487502.jpg", "owner_id": 1251650}, {"upload_date": "18 May 2008", "owner_name": "domib34", "photo_id": 10334572, "longitude": 4.017777, "height": 60, "width": 60, "photo_title": "clouds", "latitude": 43.553867, "owner_url": "http://www.panoramio.com/user/1440696", "photo_url": "http://www.panoramio.com/photo/10334572", "photo_file_url": "http://mw2.google.com/mw-panoramio/photos/square/10334572.jpg", "owner_id": 1440696}, {"upload_date": "04 August 2007", "owner_name": "mue52", "photo_id": 3714345, "longitude": 4.085841, "height": 60, "width": 60, "photo_title": "La Grande Motte", "latitude": 43.567877, "owner_url": "http://www.panoramio.com/user/570908", "photo_url": "http://www.panoramio.com/photo/3714345", "photo_file_url": "http://mw2.google.com/mw-panoramio/photos/square/3714345.jpg", "owner_id": 570908}, {"upload_date": "02 June 2007", "owner_name": "Dub", "photo_id": 2521398, "longitude": 3.754921, "height": 60, "width": 60, "photo_title": "Eglise de Frontignan", "latitude": 43.446937, "owner_url": "http://www.panoramio.com/user/342833", "photo_url": "http://www.panoramio.com/photo/2521398", "photo_file_url": "http://mw2.google.com/mw-panoramio/photos/square/2521398.jpg", "owner_id": 342833}, {"upload_date": "08 July 2008", "owner_name": "Nador38", "photo_id": 11921264, "longitude": 3.880985, "height": 60, "width": 60, "photo_title": "Porte de Maguelone", "latitude": 43.516265, "owner_url": "http://www.panoramio.com/user/1687606", "photo_url": "http://www.panoramio.com/photo/11921264", "photo_file_url": "http://mw2.google.com/mw-panoramio/photos/square/11921264.jpg", "owner_id": 1687606}, {"upload_date": "14 February 2007", "owner_name": "jean ROUBY", "photo_id": 813274, "longitude": 3.774834, "height": 60, "width": 60, "photo_title": "Frontignan  H\u00e9rault Port de Plaisance", "latitude": 43.434598, "owner_url": "http://www.panoramio.com/user/119374", "photo_url": "http://www.panoramio.com/photo/813274", "photo_file_url": "http://mw2.google.com/mw-panoramio/photos/square/813274.jpg", "owner_id": 119374}, {"upload_date": "22 June 2009", "owner_name": "titlis39", "photo_id": 23710286, "place_id": "39bf6dfd9cc739973c67e19b021a46a76b1c8f3c", "longitude": 4.122448, "height": 60, "width": 60, "photo_title": "plage en mai", "latitude": 43.546557, "owner_url": "http://www.panoramio.com/user/1271935", "photo_url": "http://www.panoramio.com/photo/23710286", "photo_file_url": "http://mw2.google.com/mw-panoramio/photos/square/23710286.jpg", "owner_id": 1271935}, {"upload_date": "24 December 2007", "owner_name": "(graniotte) J GRANIER", "photo_id": 6657636, "longitude": 3.629007, "height": 60, "width": 60, "photo_title": "LOUPIAN  le mas bb", "latitude": 43.440113, "owner_url": "http://www.panoramio.com/user/1216313", "photo_url": "http://www.panoramio.com/photo/6657636", "photo_file_url": "http://mw2.google.com/mw-panoramio/photos/square/6657636.jpg", "owner_id": 1216313}, {"upload_date": "18 November 2007", "owner_name": "SvenP", "photo_id": 5983202, "longitude": 3.9067138888889, "height": 60, "width": 60, "photo_title": "D66 into Montpellier", "latitude": 43.610075, "owner_url": "http://www.panoramio.com/user/1019894", "photo_url": "http://www.panoramio.com/photo/5983202", "photo_file_url": "http://mw2.google.com/mw-panoramio/photos/square/5983202.jpg", "owner_id": 1019894}, {"upload_date": "06 July 2007", "owner_name": "mfe", "photo_id": 3148621, "longitude": 3.844442, "height": 60, "width": 60, "photo_title": "Source (r\u00e9surgence bassin des Matelles) du Lez (eau potable de Montpellier)", "latitude": 43.717985, "owner_url": "http://www.panoramio.com/user/31047", "photo_url": "http://www.panoramio.com/photo/3148621", "photo_file_url": "http://mw2.google.com/mw-panoramio/photos/square/3148621.jpg", "owner_id": 31047}, {"upload_date": "28 June 2007", "owner_name": "mfe", "photo_id": 2995545, "longitude": 3.86178, "height": 60, "width": 60, "photo_title": "Le temple bouddhiste tib\u00e9tain de Montpellier", "latitude": 43.642209, "owner_url": "http://www.panoramio.com/user/31047", "photo_url": "http://www.panoramio.com/photo/2995545", "photo_file_url": "http://mw2.google.com/mw-panoramio/photos/square/2995545.jpg", "owner_id": 31047}, {"upload_date": "18 March 2008", "owner_name": "effeelle", "photo_id": 8623517, "longitude": 3.876908, "height": 60, "width": 60, "photo_title": "Le vieux Montpellier - Montpellier, citt\u00e0 vecchia", "latitude": 43.608768, "owner_url": "http://www.panoramio.com/user/1368195", "photo_url": "http://www.panoramio.com/photo/8623517", "photo_file_url": "http://mw2.google.com/mw-panoramio/photos/square/8623517.jpg", "owner_id": 1368195}, {"upload_date": "14 September 2007", "owner_name": "Sam Asaert", "photo_id": 4637807, "longitude": 3.790798, "height": 60, "width": 60, "photo_title": "Rockformation", "latitude": 43.816941, "owner_url": "http://www.panoramio.com/user/64890", "photo_url": "http://www.panoramio.com/photo/4637807", "photo_file_url": "http://mw2.google.com/mw-panoramio/photos/square/4637807.jpg", "owner_id": 64890}, {"upload_date": "20 November 2007", "owner_name": "SvenP", "photo_id": 6033529, "longitude": 3.7844222222222, "height": 60, "width": 60, "photo_title": "Sky above the A9 near Fabr\u00e8gues", "latitude": 43.539088888889, "owner_url": "http://www.panoramio.com/user/1019894", "photo_url": "http://www.panoramio.com/photo/6033529", "photo_file_url": "http://mw2.google.com/mw-panoramio/photos/square/6033529.jpg", "owner_id": 1019894}, {"upload_date": "27 November 2007", "owner_name": "mfe", "photo_id": 6160992, "longitude": 3.89585, "height": 60, "width": 60, "photo_title": "Centre traditionnel de Castelnau-le-Lez avec l\u2019\u00e9glise m\u00e9di\u00e9vale (fin XIIe..XIIIe S)", "latitude": 43.632946, "owner_url": "http://www.panoramio.com/user/31047", "photo_url": "http://www.panoramio.com/photo/6160992", "photo_file_url": "http://mw2.google.com/mw-panoramio/photos/square/6160992.jpg", "owner_id": 31047}, {"upload_date": "03 February 2008", "owner_name": "Naru Kenji", "photo_id": 7554809, "longitude": 4.066315, "height": 60, "width": 60, "photo_title": "La Grande-Motte (H\u00e9rault)", "latitude": 43.561113, "owner_url": "http://www.panoramio.com/user/1310638", "photo_url": "http://www.panoramio.com/photo/7554809", "photo_file_url": "http://mw2.google.com/mw-panoramio/photos/square/7554809.jpg", "owner_id": 1310638}, {"upload_date": "18 December 2006", "owner_name": "mfe", "photo_id": 180715, "longitude": 3.884246, "height": 60, "width": 60, "photo_title": "Rue de la Roqueturi\u00e8re (\u00e0 gauche rue Salvador Dali)", "latitude": 43.631478, "owner_url": "http://www.panoramio.com/user/31047", "photo_url": "http://www.panoramio.com/photo/180715", "photo_file_url": "http://mw2.google.com/mw-panoramio/photos/square/180715.jpg", "owner_id": 31047}, {"upload_date": "22 February 2007", "owner_name": "mfe", "photo_id": 958854, "longitude": 3.861115, "height": 60, "width": 60, "photo_title": "Vers la Facult\u00e9 des Sciences U2", "latitude": 43.630841, "owner_url": "http://www.panoramio.com/user/31047", "photo_url": "http://www.panoramio.com/photo/958854", "photo_file_url": "http://mw2.google.com/mw-panoramio/photos/square/958854.jpg", "owner_id": 31047}, {"upload_date": "30 June 2008", "owner_name": "M Teixeira", "photo_id": 11670993, "longitude": 3.873239, "height": 60, "width": 60, "photo_title": "Matin dans les \u00e9tangs", "latitude": 43.52341, "owner_url": "http://www.panoramio.com/user/1745789", "photo_url": "http://www.panoramio.com/photo/11670993", "photo_file_url": "http://mw2.google.com/mw-panoramio/photos/square/11670993.jpg", "owner_id": 1745789}, {"upload_date": "30 June 2008", "owner_name": "M Teixeira", "photo_id": 11670983, "longitude": 3.648984, "height": 60, "width": 60, "photo_title": "Des couleurs uniques", "latitude": 43.447545, "owner_url": "http://www.panoramio.com/user/1745789", "photo_url": "http://www.panoramio.com/photo/11670983", "photo_file_url": "http://mw2.google.com/mw-panoramio/photos/square/11670983.jpg", "owner_id": 1745789}, {"upload_date": "09 June 2007", "owner_name": "mfe", "photo_id": 2660915, "longitude": 3.7762069702148, "height": 60, "width": 60, "photo_title": "L'abbaye de Vignogoule XIIIeS (vue du NW)", "latitude": 43.595155945244, "owner_url": "http://www.panoramio.com/user/31047", "photo_url": "http://www.panoramio.com/photo/2660915", "photo_file_url": "http://mw2.google.com/mw-panoramio/photos/square/2660915.jpg", "owner_id": 31047}, {"upload_date": "18 November 2007", "owner_name": "SvenP", "photo_id": 5982397, "longitude": 4.0490527777778, "height": 60, "width": 60, "photo_title": "Fast view of \u00c9tang de Mauguio", "latitude": 43.564383333333, "owner_url": "http://www.panoramio.com/user/1019894", "photo_url": "http://www.panoramio.com/photo/5982397", "photo_file_url": "http://mw2.google.com/mw-panoramio/photos/square/5982397.jpg", "owner_id": 1019894}, {"upload_date": "22 January 2008", "owner_name": "Paul Nechkova-Raven", "photo_id": 7286360, "longitude": 3.695167, "height": 60, "width": 60, "photo_title": "terras", "latitude": 43.404227, "owner_url": "http://www.panoramio.com/user/122189", "photo_url": "http://www.panoramio.com/photo/7286360", "photo_file_url": "http://mw2.google.com/mw-panoramio/photos/square/7286360.jpg", "owner_id": 122189}, {"upload_date": "16 January 2007", "owner_name": "Philippe Stoop", "photo_id": 455919, "longitude": 3.8541412353516, "height": 60, "width": 60, "photo_title": "Vignes \u00e0 l'automne", "latitude": 43.794641253847, "owner_url": "http://www.panoramio.com/user/78506", "photo_url": "http://www.panoramio.com/photo/455919", "photo_file_url": "http://mw2.google.com/mw-panoramio/photos/square/455919.jpg", "owner_id": 78506}, {"upload_date": "15 March 2008", "owner_name": "yves floret", "photo_id": 8554638, "longitude": 3.717103, "height": 60, "width": 60, "photo_title": "French Graffitis", "latitude": 43.414822, "owner_url": "http://www.panoramio.com/user/464343", "photo_url": "http://www.panoramio.com/photo/8554638", "photo_file_url": "http://mw2.google.com/mw-panoramio/photos/square/8554638.jpg", "owner_id": 464343}, {"upload_date": "14 February 2007", "owner_name": "jean ROUBY", "photo_id": 813261, "longitude": 4.081764, "height": 60, "width": 60, "photo_title": "La Grande-Motte Le port, H\u00e9rault", "latitude": 43.558003, "owner_url": "http://www.panoramio.com/user/119374", "photo_url": "http://www.panoramio.com/photo/813261", "photo_file_url": "http://mw2.google.com/mw-panoramio/photos/square/813261.jpg", "owner_id": 119374}, {"upload_date": "21 July 2007", "owner_name": "Met de Ribes", "photo_id": 3432598, "longitude": 3.877637, "height": 60, "width": 60, "photo_title": "Montpeller - Montpellier", "latitude": 43.613351, "owner_url": "http://www.panoramio.com/user/653650", "photo_url": "http://www.panoramio.com/photo/3432598", "photo_file_url": "http://mw2.google.com/mw-panoramio/photos/square/3432598.jpg", "owner_id": 653650}, {"upload_date": "03 February 2008", "owner_name": "Naru Kenji", "photo_id": 7554710, "longitude": 4.063997, "height": 60, "width": 60, "photo_title": "La Grande-Motte (H\u00e9rault)", "latitude": 43.55707, "owner_url": "http://www.panoramio.com/user/1310638", "photo_url": "http://www.panoramio.com/photo/7554710", "photo_file_url": "http://mw2.google.com/mw-panoramio/photos/square/7554710.jpg", "owner_id": 1310638}, {"upload_date": "23 February 2007", "owner_name": "mfe", "photo_id": 980861, "longitude": 3.890566, "height": 60, "width": 60, "photo_title": "Sur le chemin de la Draye en bordure du Lez", "latitude": 43.63348, "owner_url": "http://www.panoramio.com/user/31047", "photo_url": "http://www.panoramio.com/photo/980861", "photo_file_url": "http://mw2.google.com/mw-panoramio/photos/square/980861.jpg", "owner_id": 31047}, {"upload_date": "20 April 2012", "owner_name": "vinc107", "photo_id": 70630182, "longitude": 3.860774, "height": 60, "width": 60, "photo_title": "Green Lines - VLM", "latitude": 43.54245, "owner_url": "http://www.panoramio.com/user/3418712", "photo_url": "http://www.panoramio.com/photo/70630182", "photo_file_url": "http://mw2.google.com/mw-panoramio/photos/square/70630182.jpg", "owner_id": 3418712}, {"upload_date": "27 February 2008", "owner_name": "domib34", "photo_id": 8144993, "longitude": 3.910714, "height": 60, "width": 60, "photo_title": "Banc public", "latitude": 43.66235, "owner_url": "http://www.panoramio.com/user/1440696", "photo_url": "http://www.panoramio.com/photo/8144993", "photo_file_url": "http://mw2.google.com/mw-panoramio/photos/square/8144993.jpg", "owner_id": 1440696}, {"upload_date": "19 April 2012", "owner_name": "vinc107", "photo_id": 70565026, "longitude": 3.958886, "height": 60, "width": 60, "photo_title": "Carnon - P\u00eache", "latitude": 43.536612, "owner_url": "http://www.panoramio.com/user/3418712", "photo_url": "http://www.panoramio.com/photo/70565026", "photo_file_url": "http://mw2.google.com/mw-panoramio/photos/square/70565026.jpg", "owner_id": 3418712}, {"upload_date": "12 July 2007", "owner_name": "manuamador", "photo_id": 3267521, "longitude": 3.682737, "height": 60, "width": 60, "photo_title": "Argelliers, Coucher de soleil", "latitude": 43.702257, "owner_url": "http://www.panoramio.com/user/395412", "photo_url": "http://www.panoramio.com/photo/3267521", "photo_file_url": "http://mw2.google.com/mw-panoramio/photos/square/3267521.jpg", "owner_id": 395412}, {"upload_date": "05 September 2008", "owner_name": "toledo49", "photo_id": 13833298, "longitude": 3.673834999999997, "height": 60, "width": 60, "photo_title": "Le Barrou", "latitude": 43.423197, "owner_url": "http://www.panoramio.com/user/1776396", "photo_url": "http://www.panoramio.com/photo/13833298", "photo_file_url": "http://mw2.google.com/mw-panoramio/photos/square/13833298.jpg", "owner_id": 1776396}, {"upload_date": "27 June 2007", "owner_name": "mfe", "photo_id": 2977066, "longitude": 3.886242, "height": 60, "width": 60, "photo_title": "Promenade rive Montpellier du Lez : chant de l'eau et fraicheur", "latitude": 43.644701, "owner_url": "http://www.panoramio.com/user/31047", "photo_url": "http://www.panoramio.com/photo/2977066", "photo_file_url": "http://mw2.google.com/mw-panoramio/photos/square/2977066.jpg", "owner_id": 31047}, {"upload_date": "19 August 2009", "owner_name": "CKIKI 83", "photo_id": 25817768, "longitude": 3.937569, "height": 60, "width": 60, "photo_title": "Palavas les flots H\u00e9rault", "latitude": 43.524935, "owner_url": "http://www.panoramio.com/user/1039150", "photo_url": "http://www.panoramio.com/photo/25817768", "photo_file_url": "http://mw2.google.com/mw-panoramio/photos/square/25817768.jpg", "owner_id": 1039150}, {"upload_date": "18 April 2007", "owner_name": "Wutz", "photo_id": 1828386, "longitude": 3.905168, "height": 60, "width": 60, "photo_title": "Le petit train", "latitude": 43.517062, "owner_url": "http://www.panoramio.com/user/283855", "photo_url": "http://www.panoramio.com/photo/1828386", "photo_file_url": "http://mw2.google.com/mw-panoramio/photos/square/1828386.jpg", "owner_id": 283855}, {"upload_date": "07 January 2007", "owner_name": "Sylvaingobi", "photo_id": 337739, "longitude": 3.689604, "height": 60, "width": 60, "photo_title": "Quartier de la Pointe Courte", "latitude": 43.414151, "owner_url": "http://www.panoramio.com/user/67836", "photo_url": "http://www.panoramio.com/photo/337739", "photo_file_url": "http://mw2.google.com/mw-panoramio/photos/square/337739.jpg", "owner_id": 67836}, {"upload_date": "06 March 2008", "owner_name": "Lafraque", "photo_id": 8335686, "longitude": 3.975635, "height": 60, "width": 60, "photo_title": "Carnon", "latitude": 43.544629, "owner_url": "http://www.panoramio.com/user/1451734", "photo_url": "http://www.panoramio.com/photo/8335686", "photo_file_url": "http://mw2.google.com/mw-panoramio/photos/square/8335686.jpg", "owner_id": 1451734}, {"upload_date": "12 March 2008", "owner_name": "Sylvaingobi", "photo_id": 8478102, "longitude": 3.863357, "height": 60, "width": 60, "photo_title": "Apr\u00e8s la temp\u00eate", "latitude": 43.494246, "owner_url": "http://www.panoramio.com/user/67836", "photo_url": "http://www.panoramio.com/photo/8478102", "photo_file_url": "http://mw2.google.com/mw-panoramio/photos/square/8478102.jpg", "owner_id": 67836}, {"upload_date": "14 January 2009", "owner_name": "alto83", "photo_id": 17823119, "longitude": 3.937397, "height": 60, "width": 60, "photo_title": "Lever du soleil", "latitude": 43.518556, "owner_url": "http://www.panoramio.com/user/1592311", "photo_url": "http://www.panoramio.com/photo/17823119", "photo_file_url": "http://mw2.google.com/mw-panoramio/photos/square/17823119.jpg", "owner_id": 1592311}, {"upload_date": "03 June 2008", "owner_name": "Tonton Esteban", "photo_id": 10875253, "longitude": 3.868974, "height": 60, "width": 60, "photo_title": "Devant derri\u00e8re", "latitude": 43.620951, "owner_url": "http://www.panoramio.com/user/500575", "photo_url": "http://www.panoramio.com/photo/10875253", "photo_file_url": "http://mw2.google.com/mw-panoramio/photos/square/10875253.jpg", "owner_id": 500575}, {"upload_date": "15 February 2009", "owner_name": "jeangenie", "photo_id": 18994572, "longitude": 3.659644, "height": 60, "width": 60, "photo_title": "Brassed Off ", "latitude": 43.445946, "owner_url": "http://www.panoramio.com/user/2630175", "photo_url": "http://www.panoramio.com/photo/18994572", "photo_file_url": "http://mw2.google.com/mw-panoramio/photos/square/18994572.jpg", "owner_id": 2630175}, {"upload_date": "06 December 2009", "owner_name": "vinc107", "photo_id": 29587522, "longitude": 3.902255, "height": 60, "width": 60, "photo_title": "Travaux Jacques Coeur - Montpellier", "latitude": 43.596015, "owner_url": "http://www.panoramio.com/user/3418712", "photo_url": "http://www.panoramio.com/photo/29587522", "photo_file_url": "http://mw2.google.com/mw-panoramio/photos/square/29587522.jpg", "owner_id": 3418712}, {"upload_date": "31 March 2009", "owner_name": "CKIKI 83", "photo_id": 20646976, "longitude": 3.792171, "height": 60, "width": 60, "photo_title": "Les Aresquiers trait d' union entre ciel et mer", "latitude": 43.450427, "owner_url": "http://www.panoramio.com/user/1039150", "photo_url": "http://www.panoramio.com/photo/20646976", "photo_file_url": "http://mw2.google.com/mw-panoramio/photos/square/20646976.jpg", "owner_id": 1039150}, {"upload_date": "22 February 2009", "owner_name": "gezginruh", "photo_id": 19271598, "longitude": 3.888887, "height": 60, "width": 60, "photo_title": "Antigon", "latitude": 43.608138, "owner_url": "http://www.panoramio.com/user/2249041", "photo_url": "http://www.panoramio.com/photo/19271598", "photo_file_url": "http://mw2.google.com/mw-panoramio/photos/square/19271598.jpg", "owner_id": 2249041}, {"upload_date": "11 May 2008", "owner_name": "mfe", "photo_id": 10107234, "longitude": 3.728099, "height": 60, "width": 60, "photo_title": "Entr\u00e9e d'une capitelle.", "latitude": 43.486408, "owner_url": "http://www.panoramio.com/user/31047", "photo_url": "http://www.panoramio.com/photo/10107234", "photo_file_url": "http://mw2.google.com/mw-panoramio/photos/square/10107234.jpg", "owner_id": 31047}, {"upload_date": "13 June 2010", "owner_name": "mfe", "photo_id": 36706346, "longitude": 3.9261419999999987, "height": 60, "width": 60, "photo_title": "Plage ouest de Palavas-les-Flots", "latitude": 43.524764, "owner_url": "http://www.panoramio.com/user/31047", "photo_url": "http://www.panoramio.com/photo/36706346", "photo_file_url": "http://mw2.google.com/mw-panoramio/photos/square/36706346.jpg", "owner_id": 31047}, {"upload_date": "29 June 2007", "owner_name": "mfe", "photo_id": 3020267, "longitude": 3.868904, "height": 60, "width": 60, "photo_title": "Agropolis International et Agropolis Museum", "latitude": 43.646697, "owner_url": "http://www.panoramio.com/user/31047", "photo_url": "http://www.panoramio.com/photo/3020267", "photo_file_url": "http://mw2.google.com/mw-panoramio/photos/square/3020267.jpg", "owner_id": 31047}, {"upload_date": "15 November 2010", "owner_name": "\u263aJean & Coco-Views ? Jamais...Never !!!\u263a", "photo_id": 43725092, "longitude": 3.701094, "height": 60, "width": 60, "photo_title": "Canal \u00e0 S\u00e8te", "latitude": 43.407175, "owner_url": "http://www.panoramio.com/user/383566", "photo_url": "http://www.panoramio.com/photo/43725092", "photo_file_url": "http://mw2.google.com/mw-panoramio/photos/square/43725092.jpg", "owner_id": 383566}, {"upload_date": "06 July 2007", "owner_name": "mfe", "photo_id": 3148662, "longitude": 3.864055, "height": 60, "width": 60, "photo_title": "Panoramique : Chateau de Montferrant, Pic Saint-Loup - Montagne de l'Hortus", "latitude": 43.775913, "owner_url": "http://www.panoramio.com/user/31047", "photo_url": "http://www.panoramio.com/photo/3148662", "photo_file_url": "http://mw2.google.com/mw-panoramio/photos/square/3148662.jpg", "owner_id": 31047}, {"upload_date": "24 June 2009", "owner_name": "SvenP", "photo_id": 23791367, "longitude": 3.8957586939723, "height": 60, "width": 60, "photo_title": "Autoroute A9 a sortie 30 direction sud-ouest", "latitude": 43.588849401095, "owner_url": "http://www.panoramio.com/user/1019894", "photo_url": "http://www.panoramio.com/photo/23791367", "photo_file_url": "http://mw2.google.com/mw-panoramio/photos/square/23791367.jpg", "owner_id": 1019894}, {"upload_date": "05 September 2008", "owner_name": "tarinrj", "photo_id": 13847006, "longitude": 3.877144, "height": 60, "width": 60, "photo_title": "Orage du 05-09-08 sur Palavas", "latitude": 43.520026, "owner_url": "http://www.panoramio.com/user/2123970", "photo_url": "http://www.panoramio.com/photo/13847006", "photo_file_url": "http://mw2.google.com/mw-panoramio/photos/square/13847006.jpg", "owner_id": 2123970}, {"upload_date": "05 September 2010", "owner_name": "machucambos", "photo_id": 40358907, "longitude": 3.877976999999987, "height": 60, "width": 60, "photo_title": "\"Montpellier les bains\", rue Richelieu, Montpellier", "latitude": 43.607102, "owner_url": "http://www.panoramio.com/user/4809344", "photo_url": "http://www.panoramio.com/photo/40358907", "photo_file_url": "http://mw2.google.com/mw-panoramio/photos/square/40358907.jpg", "owner_id": 4809344}, {"upload_date": "14 January 2007", "owner_name": "Sylvaingobi", "photo_id": 429890, "longitude": 3.692694, "height": 60, "width": 60, "photo_title": "DSCN5827", "latitude": 43.411719, "owner_url": "http://www.panoramio.com/user/67836", "photo_url": "http://www.panoramio.com/photo/429890", "photo_file_url": "http://mw2.google.com/mw-panoramio/photos/square/429890.jpg", "owner_id": 67836}, {"upload_date": "15 January 2007", "owner_name": "giovanni roda", "photo_id": 438630, "longitude": 3.789597, "height": 60, "width": 60, "photo_title": "Montpellier - France", "latitude": 43.542078, "owner_url": "http://www.panoramio.com/user/93736", "photo_url": "http://www.panoramio.com/photo/438630", "photo_file_url": "http://mw2.google.com/mw-panoramio/photos/square/438630.jpg", "owner_id": 93736}, {"upload_date": "09 February 2007", "owner_name": "Sylvaingobi", "photo_id": 747581, "longitude": 3.888688, "height": 60, "width": 60, "photo_title": "Palavas", "latitude": 43.508052, "owner_url": "http://www.panoramio.com/user/67836", "photo_url": "http://www.panoramio.com/photo/747581", "photo_file_url": "http://mw2.google.com/mw-panoramio/photos/square/747581.jpg", "owner_id": 67836}, {"upload_date": "07 January 2007", "owner_name": "Sylvaingobi", "photo_id": 337850, "longitude": 3.7773871421814, "height": 60, "width": 60, "photo_title": "Capitainerie port Frontignan", "latitude": 43.432088888846, "owner_url": "http://www.panoramio.com/user/67836", "photo_url": "http://www.panoramio.com/photo/337850", "photo_file_url": "http://mw2.google.com/mw-panoramio/photos/square/337850.jpg", "owner_id": 67836}, {"upload_date": "14 January 2007", "owner_name": "Sylvaingobi", "photo_id": 429871, "longitude": 3.812492, "height": 60, "width": 60, "photo_title": "Lisiere du bois de la Fontaine", "latitude": 43.468821, "owner_url": "http://www.panoramio.com/user/67836", "photo_url": "http://www.panoramio.com/photo/429871", "photo_file_url": "http://mw2.google.com/mw-panoramio/photos/square/429871.jpg", "owner_id": 67836}, {"upload_date": "07 January 2007", "owner_name": "Sylvaingobi", "photo_id": 337748, "longitude": 3.669176, "height": 60, "width": 60, "photo_title": "Mini port au Barrou", "latitude": 43.419575, "owner_url": "http://www.panoramio.com/user/67836", "photo_url": "http://www.panoramio.com/photo/337748", "photo_file_url": "http://mw2.google.com/mw-panoramio/photos/square/337748.jpg", "owner_id": 67836}, {"upload_date": "20 June 2007", "owner_name": "Ducapelli", "photo_id": 2853264, "longitude": 3.760582, "height": 60, "width": 60, "photo_title": "Dawn at Frontignan", "latitude": 43.444718, "owner_url": "http://www.panoramio.com/user/88313", "photo_url": "http://www.panoramio.com/photo/2853264", "photo_file_url": "http://mw2.google.com/mw-panoramio/photos/square/2853264.jpg", "owner_id": 88313}, {"upload_date": "24 March 2007", "owner_name": "Sylvaingobi", "photo_id": 1483229, "longitude": 3.687286, "height": 60, "width": 60, "photo_title": "L'\u00e9tang de Thau ", "latitude": 43.430983, "owner_url": "http://www.panoramio.com/user/67836", "photo_url": "http://www.panoramio.com/photo/1483229", "photo_file_url": "http://mw2.google.com/mw-panoramio/photos/square/1483229.jpg", "owner_id": 67836}, {"upload_date": "09 February 2007", "owner_name": "Sylvaingobi", "photo_id": 747548, "longitude": 3.80127, "height": 60, "width": 60, "photo_title": "Les flamants pas tr\u00e8s roses", "latitude": 43.450613, "owner_url": "http://www.panoramio.com/user/67836", "photo_url": "http://www.panoramio.com/photo/747548", "photo_file_url": "http://mw2.google.com/mw-panoramio/photos/square/747548.jpg", "owner_id": 67836}, {"upload_date": "14 January 2007", "owner_name": "Sylvaingobi", "photo_id": 427488, "longitude": 3.730608999999987, "height": 60, "width": 60, "photo_title": "S\u00e8te vu des hauteurs de la Gardiole", "latitude": 43.480515, "owner_url": "http://www.panoramio.com/user/67836", "photo_url": "http://www.panoramio.com/photo/427488", "photo_file_url": "http://mw2.google.com/mw-panoramio/photos/square/427488.jpg", "owner_id": 67836}, {"upload_date": "24 March 2007", "owner_name": "Sylvaingobi", "photo_id": 1483234, "longitude": 3.7367677688599, "height": 60, "width": 60, "photo_title": "Massif de l'Aigoual droit devant-A Droite le nord de Montpellier", "latitude": 43.482788156184, "owner_url": "http://www.panoramio.com/user/67836", "photo_url": "http://www.panoramio.com/photo/1483234", "photo_file_url": "http://mw2.google.com/mw-panoramio/photos/square/1483234.jpg", "owner_id": 67836}, {"upload_date": "23 December 2007", "owner_name": "fotograph", "photo_id": 6650950, "longitude": 3.872745, "height": 60, "width": 60, "photo_title": "cath\u00e9drale", "latitude": 43.612877, "owner_url": "http://www.panoramio.com/user/405166", "photo_url": "http://www.panoramio.com/photo/6650950", "photo_file_url": "http://mw2.google.com/mw-panoramio/photos/square/6650950.jpg", "owner_id": 405166}, {"upload_date": "09 July 2008", "owner_name": "ln63", "photo_id": 11944731, "longitude": 4.090658, "height": 60, "width": 60, "photo_title": "Vieille rue et ses chats", "latitude": 43.783605, "owner_url": "http://www.panoramio.com/user/671263", "photo_url": "http://www.panoramio.com/photo/11944731", "photo_file_url": "http://mw2.google.com/mw-panoramio/photos/square/11944731.jpg", "owner_id": 671263}, {"upload_date": "28 June 2010", "owner_name": "vinc107", "photo_id": 37292282, "longitude": 3.858556, "height": 60, "width": 60, "photo_title": "Route de VLM", "latitude": 43.551959, "owner_url": "http://www.panoramio.com/user/3418712", "photo_url": "http://www.panoramio.com/photo/37292282", "photo_file_url": "http://mw2.google.com/mw-panoramio/photos/square/37292282.jpg", "owner_id": 3418712}, {"upload_date": "21 April 2012", "owner_name": "vinc107", "photo_id": 70659369, "longitude": 3.781509, "height": 60, "width": 60, "photo_title": "Route du Pic-Saint-Loup", "latitude": 43.794705, "owner_url": "http://www.panoramio.com/user/3418712", "photo_url": "http://www.panoramio.com/photo/70659369", "photo_file_url": "http://mw2.google.com/mw-panoramio/photos/square/70659369.jpg", "owner_id": 3418712}, {"upload_date": "31 August 2010", "owner_name": "|A|S|", "photo_id": 40107183, "longitude": 3.870363, "height": 60, "width": 60, "photo_title": "Maguelone", "latitude": 43.498013, "owner_url": "http://www.panoramio.com/user/3484975", "photo_url": "http://www.panoramio.com/photo/40107183", "photo_file_url": "http://mw2.google.com/mw-panoramio/photos/square/40107183.jpg", "owner_id": 3484975}, {"upload_date": "03 April 2011", "owner_name": "Marie-christine Rico", "photo_id": 50468981, "longitude": 3.856008, "height": 60, "width": 60, "photo_title": "Une ancienne Chapelle Beauregard-Vileneuve -les Maguelone", "latitude": 43.507386, "owner_url": "http://www.panoramio.com/user/5494617", "photo_url": "http://www.panoramio.com/photo/50468981", "photo_file_url": "http://mw2.google.com/mw-panoramio/photos/square/50468981.jpg", "owner_id": 5494617}, {"upload_date": "30 June 2010", "owner_name": "Bernard Bost", "photo_id": 37348024, "longitude": 4.109573, "height": 60, "width": 60, "photo_title": "Mon p\u00e9dalo", "latitude": 43.528887, "owner_url": "http://www.panoramio.com/user/1354090", "photo_url": "http://www.panoramio.com/photo/37348024", "photo_file_url": "http://mw2.google.com/mw-panoramio/photos/square/37348024.jpg", "owner_id": 1354090}, {"upload_date": "25 November 2007", "owner_name": "upelepi", "photo_id": 6129812, "longitude": 4.112492, "height": 60, "width": 60, "photo_title": "Baden am Strand L'Espinguette", "latitude": 43.503367, "owner_url": "http://www.panoramio.com/user/1130654", "photo_url": "http://www.panoramio.com/photo/6129812", "photo_file_url": "http://mw2.google.com/mw-panoramio/photos/square/6129812.jpg", "owner_id": 1130654}, {"upload_date": "14 June 2008", "owner_name": "angepel", "photo_id": 11202193, "longitude": 3.673588, "height": 60, "width": 60, "photo_title": "Promenade Georges Brassens", "latitude": 43.435416, "owner_url": "http://www.panoramio.com/user/621299", "photo_url": "http://www.panoramio.com/photo/11202193", "photo_file_url": "http://mw2.google.com/mw-panoramio/photos/square/11202193.jpg", "owner_id": 621299}, {"upload_date": "14 March 2010", "owner_name": "vinc107", "photo_id": 33234854, "longitude": 3.9499720000000025, "height": 60, "width": 60, "photo_title": "Montpellier - Parc des Expo - Grande Salle", "latitude": 43.573087, "owner_url": "http://www.panoramio.com/user/3418712", "photo_url": "http://www.panoramio.com/photo/33234854", "photo_file_url": "http://mw2.google.com/mw-panoramio/photos/square/33234854.jpg", "owner_id": 3418712}, {"upload_date": "09 October 2008", "owner_name": "quettu", "photo_id": 14856189, "longitude": 3.86901, "height": 60, "width": 60, "photo_title": "A day in Montpellier", "latitude": 43.608472, "owner_url": "http://www.panoramio.com/user/1644189", "photo_url": "http://www.panoramio.com/photo/14856189", "photo_file_url": "http://mw2.google.com/mw-panoramio/photos/square/14856189.jpg", "owner_id": 1644189}, {"upload_date": "18 December 2009", "owner_name": "vinc107", "photo_id": 30023097, "longitude": 3.925231, "height": 60, "width": 60, "photo_title": "Montpellier - Carrefour Grand Sud", "latitude": 43.582836, "owner_url": "http://www.panoramio.com/user/3418712", "photo_url": "http://www.panoramio.com/photo/30023097", "photo_file_url": "http://mw2.google.com/mw-panoramio/photos/square/30023097.jpg", "owner_id": 3418712}, {"upload_date": "05 December 2007", "owner_name": "trewq", "photo_id": 6309821, "longitude": 4.123135, "height": 60, "width": 60, "photo_title": "Port Camargue", "latitude": 43.514012, "owner_url": "http://www.panoramio.com/user/766118", "photo_url": "http://www.panoramio.com/photo/6309821", "photo_file_url": "http://mw2.google.com/mw-panoramio/photos/square/6309821.jpg", "owner_id": 766118}, {"upload_date": "18 October 2009", "owner_name": "toledo49", "photo_id": 27970957, "longitude": 3.753194, "height": 60, "width": 60, "photo_title": "Port de Frontignan - zone sud ouest.", "latitude": 43.427737, "owner_url": "http://www.panoramio.com/user/1776396", "photo_url": "http://www.panoramio.com/photo/27970957", "photo_file_url": "http://mw2.google.com/mw-panoramio/photos/square/27970957.jpg", "owner_id": 1776396}, {"upload_date": "01 November 2008", "owner_name": "toledo49", "photo_id": 15562223, "longitude": 3.667535, "height": 60, "width": 60, "photo_title": "Carcasses et vieux bateaux.- Bon pour la casse.", "latitude": 43.414198, "owner_url": "http://www.panoramio.com/user/1776396", "photo_url": "http://www.panoramio.com/photo/15562223", "photo_file_url": "http://mw2.google.com/mw-panoramio/photos/square/15562223.jpg", "owner_id": 1776396}, {"upload_date": "04 August 2008", "owner_name": "mfe", "photo_id": 12786068, "longitude": 3.784232, "height": 60, "width": 60, "photo_title": "D\u00e9collage d'un planeur", "latitude": 43.797832, "owner_url": "http://www.panoramio.com/user/31047", "photo_url": "http://www.panoramio.com/photo/12786068", "photo_file_url": "http://mw2.google.com/mw-panoramio/photos/square/12786068.jpg", "owner_id": 31047}, {"upload_date": "12 May 2012", "owner_name": "vinc107", "photo_id": 71932321, "longitude": 3.6788, "height": 60, "width": 60, "photo_title": "H\u00e9rault", "latitude": 43.814259, "owner_url": "http://www.panoramio.com/user/3418712", "photo_url": "http://www.panoramio.com/photo/71932321", "photo_file_url": "http://mw2.google.com/mw-panoramio/photos/square/71932321.jpg", "owner_id": 3418712}, {"upload_date": "24 March 2009", "owner_name": "jlbrthnn", "photo_id": 20411360, "longitude": 3.948319, "height": 60, "width": 60, "photo_title": "Pond of Greak, Palavas-les-Flots", "latitude": 43.537754, "owner_url": "http://www.panoramio.com/user/3008959", "photo_url": "http://www.panoramio.com/photo/20411360", "photo_file_url": "http://mw2.google.com/mw-panoramio/photos/square/20411360.jpg", "owner_id": 3008959}, {"upload_date": "18 September 2011", "owner_name": "acusticalennon", "photo_id": 59189690, "longitude": 3.8694830000000024, "height": 60, "width": 60, "photo_title": "FRANCIA, MONTPELLIER", "latitude": 43.597938, "owner_url": "http://www.panoramio.com/user/1274078", "photo_url": "http://www.panoramio.com/photo/59189690", "photo_file_url": "http://mw2.google.com/mw-panoramio/photos/square/59189690.jpg", "owner_id": 1274078}, {"upload_date": "12 May 2012", "owner_name": "vinc107", "photo_id": 71907625, "longitude": 3.897524, "height": 60, "width": 60, "photo_title": "Etangs", "latitude": 43.544095, "owner_url": "http://www.panoramio.com/user/3418712", "photo_url": "http://www.panoramio.com/photo/71907625", "photo_file_url": "http://mw2.google.com/mw-panoramio/photos/square/71907625.jpg", "owner_id": 3418712}, {"upload_date": "15 April 2010", "owner_name": "vinc107", "photo_id": 34371940, "longitude": 3.95378, "height": 60, "width": 60, "photo_title": "Perols - Place de l'Eglise", "latitude": 43.563658, "owner_url": "http://www.panoramio.com/user/3418712", "photo_url": "http://www.panoramio.com/photo/34371940", "photo_file_url": "http://mw2.google.com/mw-panoramio/photos/square/34371940.jpg", "owner_id": 3418712}, {"upload_date": "28 August 2008", "owner_name": "Sylvaingobi", "photo_id": 13590807, "longitude": 3.785858, "height": 60, "width": 60, "photo_title": "L'\u00e9tang d'Ingil vue depuis les Salines", "latitude": 43.456455, "owner_url": "http://www.panoramio.com/user/67836", "photo_url": "http://www.panoramio.com/photo/13590807", "photo_file_url": "http://mw2.google.com/mw-panoramio/photos/square/13590807.jpg", "owner_id": 67836}, {"upload_date": "07 March 2011", "owner_name": "H. Rebours", "photo_id": 49137674, "longitude": 3.970553, "height": 60, "width": 60, "photo_title": "34 Montaud - Pigeonnier Montlaur", "latitude": 43.752996, "owner_url": "http://www.panoramio.com/user/4984933", "photo_url": "http://www.panoramio.com/photo/49137674", "photo_file_url": "http://mw2.google.com/mw-panoramio/photos/square/49137674.jpg", "owner_id": 4984933}, {"upload_date": "15 January 2007", "owner_name": "www.lost-pixel.net", "photo_id": 436083, "longitude": 3.914394, "height": 60, "width": 60, "photo_title": "Etang du Mejan - www.lost-pixel.net", "latitude": 43.55875, "owner_url": "http://www.panoramio.com/user/24287", "photo_url": "http://www.panoramio.com/photo/436083", "photo_file_url": "http://mw2.google.com/mw-panoramio/photos/square/436083.jpg", "owner_id": 24287}, {"upload_date": "07 March 2011", "owner_name": "H. Rebours", "photo_id": 49137579, "longitude": 4.067859, "height": 60, "width": 60, "photo_title": "30 Salinelles - Pigeonnier", "latitude": 43.810649, "owner_url": "http://www.panoramio.com/user/4984933", "photo_url": "http://www.panoramio.com/photo/49137579", "photo_file_url": "http://mw2.google.com/mw-panoramio/photos/square/49137579.jpg", "owner_id": 4984933}, {"upload_date": "27 May 2008", "owner_name": "Dominique Sal\u00e9", "photo_id": 10656345, "longitude": 3.924528, "height": 60, "width": 60, "photo_title": "Teyran, le village", "latitude": 43.683143, "owner_url": "http://www.panoramio.com/user/1566608", "photo_url": "http://www.panoramio.com/photo/10656345", "photo_file_url": "http://mw2.google.com/mw-panoramio/photos/square/10656345.jpg", "owner_id": 1566608}, {"upload_date": "01 June 2010", "owner_name": "devot", "photo_id": 36249557, "longitude": 3.8196800000000053, "height": 60, "width": 60, "photo_title": "Le creux de Mi\u00e8ge 28-4-2008", "latitude": 43.523558, "owner_url": "http://www.panoramio.com/user/1912021", "photo_url": "http://www.panoramio.com/photo/36249557", "photo_file_url": "http://mw2.google.com/mw-panoramio/photos/square/36249557.jpg", "owner_id": 1912021}, {"upload_date": "07 March 2011", "owner_name": "H. Rebours", "photo_id": 49137661, "longitude": 3.982274, "height": 60, "width": 60, "photo_title": "34 Mauguio - Pigeonnier Mas de Fabre", "latitude": 43.604678, "owner_url": "http://www.panoramio.com/user/4984933", "photo_url": "http://www.panoramio.com/photo/49137661", "photo_file_url": "http://mw2.google.com/mw-panoramio/photos/square/49137661.jpg", "owner_id": 4984933}, {"upload_date": "21 August 2007", "owner_name": "francesco Rizzi", "photo_id": 4084878, "longitude": 4.077301, "height": 60, "width": 60, "photo_title": "Aigues Mortes", "latitude": 43.574422, "owner_url": "http://www.panoramio.com/user/41149", "photo_url": "http://www.panoramio.com/photo/4084878", "photo_file_url": "http://mw2.google.com/mw-panoramio/photos/square/4084878.jpg", "owner_id": 41149}, {"upload_date": "07 September 2011", "owner_name": "RoschM", "photo_id": 58601154, "longitude": 4.088615, "height": 60, "width": 60, "photo_title": "[Languedoc-Roussillon] Viaduc de Boisseron 27.08.2011 France", "latitude": 43.758356, "owner_url": "http://www.panoramio.com/user/1890590", "photo_url": "http://www.panoramio.com/photo/58601154", "photo_file_url": "http://mw2.google.com/mw-panoramio/photos/square/58601154.jpg", "owner_id": 1890590}, {"upload_date": "02 December 2010", "owner_name": "SvenP", "photo_id": 44523172, "longitude": 3.7980509999999867, "height": 60, "width": 60, "photo_title": "A9 - KM110.7 - Aire de Montpellier - Fabr\u00e8gues", "latitude": 43.54868, "owner_url": "http://www.panoramio.com/user/1019894", "photo_url": "http://www.panoramio.com/photo/44523172", "photo_file_url": "http://mw2.google.com/mw-panoramio/photos/square/44523172.jpg", "owner_id": 1019894}, {"upload_date": "23 January 2011", "owner_name": "mfe", "photo_id": 47002899, "longitude": 3.985201999999987, "height": 60, "width": 60, "photo_title": "L'aqueduc de Castries (\u00e0 la plus haute \u00e9l\u00e9vation des piles)", "latitude": 43.688444, "owner_url": "http://www.panoramio.com/user/31047", "photo_url": "http://www.panoramio.com/photo/47002899", "photo_file_url": "http://mw2.google.com/mw-panoramio/photos/square/47002899.jpg", "owner_id": 31047}, {"upload_date": "21 November 2007", "owner_name": "J&J Productions", "photo_id": 6043559, "longitude": 4.083652, "height": 60, "width": 60, "photo_title": " La Grande Motte", "latitude": 43.557941, "owner_url": "http://www.panoramio.com/user/158309", "photo_url": "http://www.panoramio.com/photo/6043559", "photo_file_url": "http://mw2.google.com/mw-panoramio/photos/square/6043559.jpg", "owner_id": 158309}, {"upload_date": "30 January 2007", "owner_name": "www.lost-pixel.net", "photo_id": 621369, "longitude": 3.913794, "height": 60, "width": 60, "photo_title": "Etang du M\u00e9jan - www.lost-pixel.net", "latitude": 43.537163, "owner_url": "http://www.panoramio.com/user/24287", "photo_url": "http://www.panoramio.com/photo/621369", "photo_file_url": "http://mw2.google.com/mw-panoramio/photos/square/621369.jpg", "owner_id": 24287}, {"upload_date": "21 February 2009", "owner_name": "olivier tabary", "photo_id": 19242344, "longitude": 3.815732, "height": 60, "width": 60, "photo_title": "plage de Frontignan", "latitude": 43.456223, "owner_url": "http://www.panoramio.com/user/518342", "photo_url": "http://www.panoramio.com/photo/19242344", "photo_file_url": "http://mw2.google.com/mw-panoramio/photos/square/19242344.jpg", "owner_id": 518342}, {"upload_date": "10 April 2010", "owner_name": "vinc107", "photo_id": 34227265, "longitude": 3.962932, "height": 60, "width": 60, "photo_title": "Palavas-les-Flots - 14 Juillet", "latitude": 43.537829, "owner_url": "http://www.panoramio.com/user/3418712", "photo_url": "http://www.panoramio.com/photo/34227265", "photo_file_url": "http://mw2.google.com/mw-panoramio/photos/square/34227265.jpg", "owner_id": 3418712}, {"upload_date": "28 June 2010", "owner_name": "Bernard Bost", "photo_id": 37278836, "longitude": 4.122834, "height": 60, "width": 60, "photo_title": "Un chalutier en p\u00eache au large du Grau-du-Roi", "latitude": 43.531687, "owner_url": "http://www.panoramio.com/user/1354090", "photo_url": "http://www.panoramio.com/photo/37278836", "photo_file_url": "http://mw2.google.com/mw-panoramio/photos/square/37278836.jpg", "owner_id": 1354090}, {"upload_date": "19 February 2010", "owner_name": "vinc107", "photo_id": 32350596, "longitude": 3.895645, "height": 60, "width": 60, "photo_title": "Castelnau le Lez - Avenue Fran\u00e7ois Delmas", "latitude": 43.626712, "owner_url": "http://www.panoramio.com/user/3418712", "photo_url": "http://www.panoramio.com/photo/32350596", "photo_file_url": "http://mw2.google.com/mw-panoramio/photos/square/32350596.jpg", "owner_id": 3418712}, {"upload_date": "19 February 2010", "owner_name": "vinc107", "photo_id": 32350578, "longitude": 3.894423, "height": 60, "width": 60, "photo_title": "Castelnau le Lez - Avenue Jean Jaur\u00e8s", "latitude": 43.635841, "owner_url": "http://www.panoramio.com/user/3418712", "photo_url": "http://www.panoramio.com/photo/32350578", "photo_file_url": "http://mw2.google.com/mw-panoramio/photos/square/32350578.jpg", "owner_id": 3418712}, {"upload_date": "24 June 2009", "owner_name": "SvenP", "photo_id": 23791360, "longitude": 3.9652010420139, "height": 60, "width": 60, "photo_title": "A9 direction south-west", "latitude": 43.628320489735, "owner_url": "http://www.panoramio.com/user/1019894", "photo_url": "http://www.panoramio.com/photo/23791360", "photo_file_url": "http://mw2.google.com/mw-panoramio/photos/square/23791360.jpg", "owner_id": 1019894}, {"upload_date": "26 November 2008", "owner_name": "eric DELVA", "photo_id": 16317248, "longitude": 3.929286, "height": 60, "width": 60, "photo_title": "Pic St-Loup vu du lac du Cr\u00e8s-20/11/2008", "latitude": 43.653249, "owner_url": "http://www.panoramio.com/user/2057104", "photo_url": "http://www.panoramio.com/photo/16317248", "photo_file_url": "http://mw2.google.com/mw-panoramio/photos/square/16317248.jpg", "owner_id": 2057104}, {"upload_date": "25 March 2008", "owner_name": "mfe", "photo_id": 8826091, "longitude": 3.887722, "height": 60, "width": 60, "photo_title": "Regard vers Palavas", "latitude": 43.511382, "owner_url": "http://www.panoramio.com/user/31047", "photo_url": "http://www.panoramio.com/photo/8826091", "photo_file_url": "http://mw2.google.com/mw-panoramio/photos/square/8826091.jpg", "owner_id": 31047}, {"upload_date": "24 March 2008", "owner_name": "angepel", "photo_id": 8796748, "longitude": 3.687394, "height": 60, "width": 60, "photo_title": "balaruc les bains", "latitude": 43.444382, "owner_url": "http://www.panoramio.com/user/621299", "photo_url": "http://www.panoramio.com/photo/8796748", "photo_file_url": "http://mw2.google.com/mw-panoramio/photos/square/8796748.jpg", "owner_id": 621299}, {"upload_date": "09 February 2007", "owner_name": "Sylvaingobi", "photo_id": 747568, "longitude": 3.777924, "height": 60, "width": 60, "photo_title": "\"Port des pauvres\" Frontignan Plage", "latitude": 43.435829, "owner_url": "http://www.panoramio.com/user/67836", "photo_url": "http://www.panoramio.com/photo/747568", "photo_file_url": "http://mw2.google.com/mw-panoramio/photos/square/747568.jpg", "owner_id": 67836}, {"upload_date": "09 February 2007", "owner_name": "Sylvaingobi", "photo_id": 747553, "longitude": 3.796291, "height": 60, "width": 60, "photo_title": "Mont Saint Clair", "latitude": 43.447436, "owner_url": "http://www.panoramio.com/user/67836", "photo_url": "http://www.panoramio.com/photo/747553", "photo_file_url": "http://mw2.google.com/mw-panoramio/photos/square/747553.jpg", "owner_id": 67836}, {"upload_date": "23 August 2010", "owner_name": "chatons76", "photo_id": 39719785, "longitude": 3.68495988846, "height": 60, "width": 60, "photo_title": "France: Balaruc-le-Vieux - L'\u00e9glise - ", "latitude": 43.4609489441, "owner_url": "http://www.panoramio.com/user/848968", "photo_url": "http://www.panoramio.com/photo/39719785", "photo_file_url": "http://mw2.google.com/mw-panoramio/photos/square/39719785.jpg", "owner_id": 848968}, {"upload_date": "30 January 2007", "owner_name": "www.lost-pixel.net", "photo_id": 621368, "longitude": 3.918514, "height": 60, "width": 60, "photo_title": "Etang du M\u00e9jan - www.lost-pixel.net", "latitude": 43.535421, "owner_url": "http://www.panoramio.com/user/24287", "photo_url": "http://www.panoramio.com/photo/621368", "photo_file_url": "http://mw2.google.com/mw-panoramio/photos/square/621368.jpg", "owner_id": 24287}, {"upload_date": "05 January 2010", "owner_name": "jacques.maigret", "photo_id": 30679819, "longitude": 3.893956000000003, "height": 60, "width": 60, "photo_title": "Camping\"LE PLEIN AIR DES CHENES\" CLAPIERS -34-", "latitude": 43.650198, "owner_url": "http://www.panoramio.com/user/3290325", "photo_url": "http://www.panoramio.com/photo/30679819", "photo_file_url": "http://mw2.google.com/mw-panoramio/photos/square/30679819.jpg", "owner_id": 3290325}, {"upload_date": "30 October 2009", "owner_name": "domib34", "photo_id": 28373290, "longitude": 3.913515, "height": 60, "width": 60, "photo_title": "Barque", "latitude": 43.521465, "owner_url": "http://www.panoramio.com/user/1440696", "photo_url": "http://www.panoramio.com/photo/28373290", "photo_file_url": "http://mw2.google.com/mw-panoramio/photos/square/28373290.jpg", "owner_id": 1440696},