{"count": 1121, "has_more": true, "map_location": {"lat": 16.350211, "panoramio_zoom": 11, "lon": -15.501397011280094}, "photos": [{"upload_date": "20 October 2009", "owner_name": "Natmara", "photo_id": 28025401, "longitude": -16.025362, "height": 60, "width": 60, "photo_title": "See you later alligator and After wild crocodile in rest.", "latitude": 16.48288, "owner_url": "http://www.panoramio.com/user/3327628", "photo_url": "http://www.panoramio.com/photo/28025401", "photo_file_url": "http://mw2.google.com/mw-panoramio/photos/square/28025401.jpg", "owner_id": 3327628}, {"upload_date": "14 October 2009", "owner_name": "Natmara", "photo_id": 27843704, "longitude": -16.505606, "height": 60, "width": 60, "photo_title": "All the stories commencent \u00e0 l'isthme.", "latitude": 15.933342, "owner_url": "http://www.panoramio.com/user/3327628", "photo_url": "http://www.panoramio.com/photo/27843704", "photo_file_url": "http://mw2.google.com/mw-panoramio/photos/square/27843704.jpg", "owner_id": 3327628}, {"upload_date": "23 September 2007", "owner_name": "michael habla", "photo_id": 4862518, "longitude": -16.217328, "height": 60, "width": 60, "photo_title": "shipwreck - mauritania", "latitude": 17.156855, "owner_url": "http://www.panoramio.com/user/90373", "photo_url": "http://www.panoramio.com/photo/4862518", "photo_file_url": "http://mw2.google.com/mw-panoramio/photos/square/4862518.jpg", "owner_id": 90373}, {"upload_date": "16 February 2011", "owner_name": "Oliviero Masseroli", "photo_id": 48233983, "longitude": -12.65625, "height": 60, "width": 60, "photo_title": "Carovana di cammelli - Mauritania", "latitude": 17.308688, "owner_url": "http://www.panoramio.com/user/1707816", "photo_url": "http://www.panoramio.com/photo/48233983", "photo_file_url": "http://mw2.google.com/mw-panoramio/photos/square/48233983.jpg", "owner_id": 1707816}, {"upload_date": "08 July 2009", "owner_name": "alainchoquet", "photo_id": 24243524, "longitude": -16.236076, "height": 60, "width": 60, "photo_title": "Vieux Baobab dans la savane du S\u00e9n\u00e9gal ", "latitude": 15.8366, "owner_url": "http://www.panoramio.com/user/2175619", "photo_url": "http://www.panoramio.com/photo/24243524", "photo_file_url": "http://mw2.google.com/mw-panoramio/photos/square/24243524.jpg", "owner_id": 2175619}, {"upload_date": "28 February 2009", "owner_name": "coasis", "photo_id": 19494902, "longitude": -15.507835, "height": 60, "width": 60, "photo_title": "Dagana - S\u00e9n\u00e9gal", "latitude": 16.524923, "owner_url": "http://www.panoramio.com/user/885618", "photo_url": "http://www.panoramio.com/photo/19494902", "photo_file_url": "http://mw2.google.com/mw-panoramio/photos/square/19494902.jpg", "owner_id": 885618}, {"upload_date": "25 June 2008", "owner_name": "Bruxel", "photo_id": 11516479, "longitude": -16.025813, "height": 60, "width": 60, "photo_title": "\u00e0 la plage, Nouakchott", "latitude": 18.085649, "owner_url": "http://www.panoramio.com/user/1918019", "photo_url": "http://www.panoramio.com/photo/11516479", "photo_file_url": "http://mw2.google.com/mw-panoramio/photos/square/11516479.jpg", "owner_id": 1918019}, {"upload_date": "13 December 2008", "owner_name": "JMRODRIGUEZ-Pavoreal", "photo_id": 16833669, "longitude": -15.876435, "height": 60, "width": 60, "photo_title": "BEAUTIFUL ARCHITECTURE IN THE MOSQUE OF TOUBA", "latitude": 14.862961, "owner_url": "http://www.panoramio.com/user/2079158", "photo_url": "http://www.panoramio.com/photo/16833669", "photo_file_url": "http://mw2.google.com/mw-panoramio/photos/square/16833669.jpg", "owner_id": 2079158}, {"upload_date": "24 December 2008", "owner_name": "Giraudon Francis", "photo_id": 17115352, "longitude": -15.815141, "height": 60, "width": 60, "photo_title": "Rivage pres de Rosso .fg", "latitude": 16.509072, "owner_url": "http://www.panoramio.com/user/2502173", "photo_url": "http://www.panoramio.com/photo/17115352", "photo_file_url": "http://mw2.google.com/mw-panoramio/photos/square/17115352.jpg", "owner_id": 2502173}, {"upload_date": "08 July 2009", "owner_name": "alainchoquet", "photo_id": 24242400, "longitude": -14.996048, "height": 60, "width": 60, "photo_title": "Village sur le fleuve S\u00e9n\u00e9gal ", "latitude": 16.663483, "owner_url": "http://www.panoramio.com/user/2175619", "photo_url": "http://www.panoramio.com/photo/24242400", "photo_file_url": "http://mw2.google.com/mw-panoramio/photos/square/24242400.jpg", "owner_id": 2175619}, {"upload_date": "19 January 2009", "owner_name": "Giraudon Francis", "photo_id": 17988756, "longitude": -14.68533, "height": 60, "width": 60, "photo_title": "Vers le d\u00e9sert .fg", "latitude": 17.556605, "owner_url": "http://www.panoramio.com/user/2502173", "photo_url": "http://www.panoramio.com/photo/17988756", "photo_file_url": "http://mw2.google.com/mw-panoramio/photos/square/17988756.jpg", "owner_id": 2502173}, {"upload_date": "07 May 2009", "owner_name": "Miguel Jaramillo", "photo_id": 22087045, "longitude": -15.865073, "height": 60, "width": 60, "photo_title": "de Nouakchott a Akjoujt", "latitude": 18.211089, "owner_url": "http://www.panoramio.com/user/1547114", "photo_url": "http://www.panoramio.com/photo/22087045", "photo_file_url": "http://mw2.google.com/mw-panoramio/photos/square/22087045.jpg", "owner_id": 1547114}, {"upload_date": "04 March 2008", "owner_name": "Michal.Hugo.Kostal", "photo_id": 8286656, "longitude": -13.91270399999999, "height": 60, "width": 60, "photo_title": "Meat shop ", "latitude": 17.055123, "owner_url": "http://www.panoramio.com/user/1190143", "photo_url": "http://www.panoramio.com/photo/8286656", "photo_file_url": "http://mw2.google.com/mw-panoramio/photos/square/8286656.jpg", "owner_id": 1190143}, {"upload_date": "05 October 2007", "owner_name": "Fouderg", "photo_id": 5114777, "longitude": -12.23431, "height": 60, "width": 60, "photo_title": "vers N'Be\u00efka", "latitude": 17.96815, "owner_url": "http://www.panoramio.com/user/782549", "photo_url": "http://www.panoramio.com/photo/5114777", "photo_file_url": "http://mw2.google.com/mw-panoramio/photos/square/5114777.jpg", "owner_id": 782549}, {"upload_date": "12 February 2008", "owner_name": "maremagna", "photo_id": 7772523, "longitude": -16.302166, "height": 60, "width": 60, "photo_title": "Parco di Djoudj", "latitude": 16.411304, "owner_url": "http://www.panoramio.com/user/1270976", "photo_url": "http://www.panoramio.com/photo/7772523", "photo_file_url": "http://mw2.google.com/mw-panoramio/photos/square/7772523.jpg", "owner_id": 1270976}, {"upload_date": "05 August 2008", "owner_name": "crodenas", "photo_id": 12821789, "longitude": -16.020899, "height": 60, "width": 60, "photo_title": "The photo-shop (Nouakchott)", "latitude": 18.317089, "owner_url": "http://www.panoramio.com/user/375574", "photo_url": "http://www.panoramio.com/photo/12821789", "photo_file_url": "http://mw2.google.com/mw-panoramio/photos/square/12821789.jpg", "owner_id": 375574}, {"upload_date": "04 March 2008", "owner_name": "Michal.Hugo.Kostal", "photo_id": 8286900, "longitude": -11.967888, "height": 60, "width": 60, "photo_title": "Near Kamor", "latitude": 17.018379, "owner_url": "http://www.panoramio.com/user/1190143", "photo_url": "http://www.panoramio.com/photo/8286900", "photo_file_url": "http://mw2.google.com/mw-panoramio/photos/square/8286900.jpg", "owner_id": 1190143}, {"upload_date": "08 July 2009", "owner_name": "alainchoquet", "photo_id": 24242955, "longitude": -15.230913, "height": 60, "width": 60, "photo_title": "Troupeau d'\u00e9leveurs Peulhs", "latitude": 16.534519, "owner_url": "http://www.panoramio.com/user/2175619", "photo_url": "http://www.panoramio.com/photo/24242955", "photo_file_url": "http://mw2.google.com/mw-panoramio/photos/square/24242955.jpg", "owner_id": 2175619}, {"upload_date": "04 March 2008", "owner_name": "Michal.Hugo.Kostal", "photo_id": 8286680, "longitude": -15.084229, "height": 60, "width": 60, "photo_title": "Forrest on Sahara desert", "latitude": 17.899688, "owner_url": "http://www.panoramio.com/user/1190143", "photo_url": "http://www.panoramio.com/photo/8286680", "photo_file_url": "http://mw2.google.com/mw-panoramio/photos/square/8286680.jpg", "owner_id": 1190143}, {"upload_date": "04 February 2008", "owner_name": "gabolde", "photo_id": 7580054, "longitude": -16.225305, "height": 60, "width": 60, "photo_title": "La gare de Louga", "latitude": 15.624731, "owner_url": "http://www.panoramio.com/user/1308747", "photo_url": "http://www.panoramio.com/photo/7580054", "photo_file_url": "http://mw2.google.com/mw-panoramio/photos/square/7580054.jpg", "owner_id": 1308747}, {"upload_date": "04 March 2008", "owner_name": "Michal.Hugo.Kostal", "photo_id": 8286610, "longitude": -15.305328, "height": 60, "width": 60, "photo_title": "Incredible clouds over Sahara", "latitude": 18.033586, "owner_url": "http://www.panoramio.com/user/1190143", "photo_url": "http://www.panoramio.com/photo/8286610", "photo_file_url": "http://mw2.google.com/mw-panoramio/photos/square/8286610.jpg", "owner_id": 1190143}, {"upload_date": "19 January 2009", "owner_name": "Giraudon Francis", "photo_id": 17986425, "longitude": -14.276133, "height": 60, "width": 60, "photo_title": "Bogh\u00e9 Le March\u00e9 .fg", "latitude": 16.590174, "owner_url": "http://www.panoramio.com/user/2502173", "photo_url": "http://www.panoramio.com/photo/17986425", "photo_file_url": "http://mw2.google.com/mw-panoramio/photos/square/17986425.jpg", "owner_id": 2502173}, {"upload_date": "04 February 2008", "owner_name": "gabolde", "photo_id": 7580647, "longitude": -13.254662, "height": 60, "width": 60, "photo_title": "Au coeur de Matam", "latitude": 15.659652, "owner_url": "http://www.panoramio.com/user/1308747", "photo_url": "http://www.panoramio.com/photo/7580647", "photo_file_url": "http://mw2.google.com/mw-panoramio/photos/square/7580647.jpg", "owner_id": 1308747}, {"upload_date": "04 March 2008", "owner_name": "Michal.Hugo.Kostal", "photo_id": 8286818, "longitude": -12.184525000000008, "height": 60, "width": 60, "photo_title": "Sahara ", "latitude": 17.166706, "owner_url": "http://www.panoramio.com/user/1190143", "photo_url": "http://www.panoramio.com/photo/8286818", "photo_file_url": "http://mw2.google.com/mw-panoramio/photos/square/8286818.jpg", "owner_id": 1190143}, {"upload_date": "12 February 2008", "owner_name": "maremagna", "photo_id": 7771557, "longitude": -16.221689, "height": 60, "width": 60, "photo_title": "Diourbel - moschea - esterno", "latitude": 14.658828, "owner_url": "http://www.panoramio.com/user/1270976", "photo_url": "http://www.panoramio.com/photo/7771557", "photo_file_url": "http://mw2.google.com/mw-panoramio/photos/square/7771557.jpg", "owner_id": 1270976}, {"upload_date": "28 February 2008", "owner_name": "gabolde", "photo_id": 8161628, "longitude": -15.995021, "height": 60, "width": 60, "photo_title": "Petite mosqu\u00e9e au sud de Nouakchott", "latitude": 17.700859, "owner_url": "http://www.panoramio.com/user/1308747", "photo_url": "http://www.panoramio.com/photo/8161628", "photo_file_url": "http://mw2.google.com/mw-panoramio/photos/square/8161628.jpg", "owner_id": 1308747}, {"upload_date": "27 November 2008", "owner_name": "Giraudon Francis", "photo_id": 16351886, "longitude": -16.407051, "height": 60, "width": 60, "photo_title": "Bou el Mogdad .fg", "latitude": 16.213356, "owner_url": "http://www.panoramio.com/user/2502173", "photo_url": "http://www.panoramio.com/photo/16351886", "photo_file_url": "http://mw2.google.com/mw-panoramio/photos/square/16351886.jpg", "owner_id": 2502173}, {"upload_date": "20 December 2009", "owner_name": "Jose Cepsa", "photo_id": 30113178, "longitude": -15.466797, "height": 60, "width": 60, "photo_title": "Omou Elkoura", "latitude": 18.010641, "owner_url": "http://www.panoramio.com/user/658215", "photo_url": "http://www.panoramio.com/photo/30113178", "photo_file_url": "http://mw2.google.com/mw-panoramio/photos/square/30113178.jpg", "owner_id": 658215}, {"upload_date": "29 November 2007", "owner_name": "peter7349", "photo_id": 6210868, "longitude": -14.167213, "height": 60, "width": 60, "photo_title": "Dawn at Aram. on the Senegal River", "latitude": 16.33579, "owner_url": "http://www.panoramio.com/user/956758", "photo_url": "http://www.panoramio.com/photo/6210868", "photo_file_url": "http://mw2.google.com/mw-panoramio/photos/square/6210868.jpg", "owner_id": 956758}, {"upload_date": "26 April 2011", "owner_name": "TAHER", "photo_id": 51733587, "longitude": -14.183333000000005, "height": 60, "width": 60, "photo_title": "\u0627\u0644\u0648\u0627\u062f\u064a \u0645\u0646 \u0627\u0644\u0623\u0637\u0640\u0640\u0644\u0627\u0644   \u063a\u0640\u0648\u0641\u064a Les balcons de Ghoufi     FB  lassaad  kara", "latitude": 14.383333, "owner_url": "http://www.panoramio.com/user/5740839", "photo_url": "http://www.panoramio.com/photo/51733587", "photo_file_url": "http://mw2.google.com/mw-panoramio/photos/square/51733587.jpg", "owner_id": 5740839}, {"upload_date": "26 February 2008", "owner_name": "brunoascosta", "photo_id": 8116716, "longitude": -14.80957, "height": 60, "width": 60, "photo_title": "Park - Senegal", "latitude": 16.609874, "owner_url": "http://www.panoramio.com/user/1419108", "photo_url": "http://www.panoramio.com/photo/8116716", "photo_file_url": "http://mw2.google.com/mw-panoramio/photos/square/8116716.jpg", "owner_id": 1419108}, {"upload_date": "22 June 2007", "owner_name": "galoisg", "photo_id": 2887733, "longitude": -15.861683, "height": 60, "width": 60, "photo_title": "Mauritanie - D\u00e9sert \u00e0 la sortie de Nouakchott ", "latitude": 18.058069, "owner_url": "http://www.panoramio.com/user/590147", "photo_url": "http://www.panoramio.com/photo/2887733", "photo_file_url": "http://mw2.google.com/mw-panoramio/photos/square/2887733.jpg", "owner_id": 590147}, {"upload_date": "08 March 2011", "owner_name": "LMCabrita", "photo_id": 49165014, "longitude": -16.260280999999992, "height": 60, "width": 60, "photo_title": "Piste to Diama", "latitude": 16.575655, "owner_url": "http://www.panoramio.com/user/3398999", "photo_url": "http://www.panoramio.com/photo/49165014", "photo_file_url": "http://mw2.google.com/mw-panoramio/photos/square/49165014.jpg", "owner_id": 3398999}, {"upload_date": "13 December 2007", "owner_name": "mercurjo", "photo_id": 6464146, "longitude": -16.336337, "height": 60, "width": 60, "photo_title": "Gu\u00e9oul", "latitude": 15.477804, "owner_url": "http://www.panoramio.com/user/980800", "photo_url": "http://www.panoramio.com/photo/6464146", "photo_file_url": "http://mw2.google.com/mw-panoramio/photos/square/6464146.jpg", "owner_id": 980800}, {"upload_date": "13 September 2011", "owner_name": "DAUMY", "photo_id": 58918182, "longitude": -16.070251, "height": 60, "width": 60, "photo_title": "maison peul", "latitude": 14.490531, "owner_url": "http://www.panoramio.com/user/159477", "photo_url": "http://www.panoramio.com/photo/58918182", "photo_file_url": "http://mw2.google.com/mw-panoramio/photos/square/58918182.jpg", "owner_id": 159477}, {"upload_date": "27 May 2012", "owner_name": "gabolde", "photo_id": 72738605, "longitude": -16.059132, "height": 60, "width": 60, "photo_title": "1973, En route vers Nouakchoot", "latitude": 17.127413, "owner_url": "http://www.panoramio.com/user/1308747", "photo_url": "http://www.panoramio.com/photo/72738605", "photo_file_url": "http://mw2.google.com/mw-panoramio/photos/square/72738605.jpg", "owner_id": 1308747}, {"upload_date": "18 March 2012", "owner_name": "Hans Sterkendries", "photo_id": 68682560, "longitude": -16.172771, "height": 60, "width": 60, "photo_title": "Sagatta Gueth, S\u00e9n\u00e9gal", "latitude": 15.28019, "owner_url": "http://www.panoramio.com/user/68287", "photo_url": "http://www.panoramio.com/photo/68682560", "photo_file_url": "http://mw2.google.com/mw-panoramio/photos/square/68682560.jpg", "owner_id": 68287}, {"upload_date": "17 March 2012", "owner_name": "Hans Sterkendries", "photo_id": 68661914, "longitude": -16.048279, "height": 60, "width": 60, "photo_title": "S\u00e9n\u00e9gal", "latitude": 16.320139, "owner_url": "http://www.panoramio.com/user/68287", "photo_url": "http://www.panoramio.com/photo/68661914", "photo_file_url": "http://mw2.google.com/mw-panoramio/photos/square/68661914.jpg", "owner_id": 68287}, {"upload_date": "17 October 2009", "owner_name": "Natmara", "photo_id": 27929746, "longitude": -16.504276, "height": 60, "width": 60, "photo_title": "Very close to the Eiffel bridge there is the Mermoz's and St Exupery's  bedrooms.", "latitude": 16.026237, "owner_url": "http://www.panoramio.com/user/3327628", "photo_url": "http://www.panoramio.com/photo/27929746", "photo_file_url": "http://mw2.google.com/mw-panoramio/photos/square/27929746.jpg", "owner_id": 3327628}, {"upload_date": "14 January 2007", "owner_name": "michael habla", "photo_id": 423367, "longitude": -16.508422, "height": 60, "width": 60, "photo_title": "fronti\u00e8re mauretanie - s\u00e9n\u00e9gal", "latitude": 16.061826, "owner_url": "http://www.panoramio.com/user/90373", "photo_url": "http://www.panoramio.com/photo/423367", "photo_file_url": "http://mw2.google.com/mw-panoramio/photos/square/423367.jpg", "owner_id": 90373}, {"upload_date": "28 February 2009", "owner_name": "coasis", "photo_id": 19494468, "longitude": -13.862686, "height": 60, "width": 60, "photo_title": "Ecole de Sambowt\u00e9 (School) ", "latitude": 16.118224, "owner_url": "http://www.panoramio.com/user/885618", "photo_url": "http://www.panoramio.com/photo/19494468", "photo_file_url": "http://mw2.google.com/mw-panoramio/photos/square/19494468.jpg", "owner_id": 885618}, {"upload_date": "29 March 2008", "owner_name": "Rui Soares", "photo_id": 8941449, "longitude": -16.510735, "height": 60, "width": 60, "photo_title": "Pelicano, corvos-marinhos e Gar\u00e7as-reais", "latitude": 15.962154, "owner_url": "http://www.panoramio.com/user/286441", "photo_url": "http://www.panoramio.com/photo/8941449", "photo_file_url": "http://mw2.google.com/mw-panoramio/photos/square/8941449.jpg", "owner_id": 286441}, {"upload_date": "10 April 2007", "owner_name": "michael habla", "photo_id": 1719066, "longitude": -15.976481, "height": 60, "width": 60, "photo_title": "maison maure / nouakchott", "latitude": 18.064536, "owner_url": "http://www.panoramio.com/user/90373", "photo_url": "http://www.panoramio.com/photo/1719066", "photo_file_url": "http://mw2.google.com/mw-panoramio/photos/square/1719066.jpg", "owner_id": 90373}, {"upload_date": "10 April 2007", "owner_name": "michael habla", "photo_id": 1719012, "place_id": "7c9ea7bf65db0c2f74b93396458e6799b6058e08", "longitude": -15.974185, "height": 60, "width": 60, "photo_title": "hotel halima, nouakchott", "latitude": 18.099977, "owner_url": "http://www.panoramio.com/user/90373", "photo_url": "http://www.panoramio.com/photo/1719012", "photo_file_url": "http://mw2.google.com/mw-panoramio/photos/square/1719012.jpg", "owner_id": 90373}, {"upload_date": "03 December 2008", "owner_name": "Jose Cepsa", "photo_id": 16544723, "longitude": -16.025019, "height": 60, "width": 60, "photo_title": "barco", "latitude": 18.02114, "owner_url": "http://www.panoramio.com/user/658215", "photo_url": "http://www.panoramio.com/photo/16544723", "photo_file_url": "http://mw2.google.com/mw-panoramio/photos/square/16544723.jpg", "owner_id": 658215}, {"upload_date": "28 February 2008", "owner_name": "gabolde", "photo_id": 8161412, "longitude": -15.972233, "height": 60, "width": 60, "photo_title": " Le cimeti\u00e8re de Nouakchott", "latitude": 18.032403, "owner_url": "http://www.panoramio.com/user/1308747", "photo_url": "http://www.panoramio.com/photo/8161412", "photo_file_url": "http://mw2.google.com/mw-panoramio/photos/square/8161412.jpg", "owner_id": 1308747}, {"upload_date": "15 January 2007", "owner_name": "Philippe Stoop", "photo_id": 441317, "longitude": -16.029224395752, "height": 60, "width": 60, "photo_title": "Plage de Nouakchott", "latitude": 18.139652945705, "owner_url": "http://www.panoramio.com/user/78506", "photo_url": "http://www.panoramio.com/photo/441317", "photo_file_url": "http://mw2.google.com/mw-panoramio/photos/square/441317.jpg", "owner_id": 78506}, {"upload_date": "16 February 2011", "owner_name": "Oliviero Masseroli", "photo_id": 48233991, "longitude": -12.700195, "height": 60, "width": 60, "photo_title": "Sulla via di Cinguetti' - Mauritania", "latitude": 17.224758, "owner_url": "http://www.panoramio.com/user/1707816", "photo_url": "http://www.panoramio.com/photo/48233991", "photo_file_url": "http://mw2.google.com/mw-panoramio/photos/square/48233991.jpg", "owner_id": 1707816}, {"upload_date": "28 February 2008", "owner_name": "gabolde", "photo_id": 8162152, "longitude": -15.987881, "height": 60, "width": 60, "photo_title": "Le long de la digue", "latitude": 16.50577, "owner_url": "http://www.panoramio.com/user/1308747", "photo_url": "http://www.panoramio.com/photo/8162152", "photo_file_url": "http://mw2.google.com/mw-panoramio/photos/square/8162152.jpg", "owner_id": 1308747}, {"upload_date": "28 February 2008", "owner_name": "gabolde", "photo_id": 8162120, "longitude": -16.070144, "height": 60, "width": 60, "photo_title": "En bord de route", "latitude": 16.724721, "owner_url": "http://www.panoramio.com/user/1308747", "photo_url": "http://www.panoramio.com/photo/8162120", "photo_file_url": "http://mw2.google.com/mw-panoramio/photos/square/8162120.jpg", "owner_id": 1308747}, {"upload_date": "08 July 2009", "owner_name": "alainchoquet", "photo_id": 24243385, "longitude": -16.495113, "height": 60, "width": 60, "photo_title": "Oryxs dans la savane du S\u00e9n\u00e9gal ", "latitude": 15.77623, "owner_url": "http://www.panoramio.com/user/2175619", "photo_url": "http://www.panoramio.com/photo/24243385", "photo_file_url": "http://mw2.google.com/mw-panoramio/photos/square/24243385.jpg", "owner_id": 2175619}, {"upload_date": "04 February 2008", "owner_name": "gabolde", "photo_id": 7580332, "longitude": -14.955482, "height": 60, "width": 60, "photo_title": "Une p\u00e9niche qui ne reprendra plus le fleuve", "latitude": 16.653132, "owner_url": "http://www.panoramio.com/user/1308747", "photo_url": "http://www.panoramio.com/photo/7580332", "photo_file_url": "http://mw2.google.com/mw-panoramio/photos/square/7580332.jpg", "owner_id": 1308747}, {"upload_date": "04 February 2008", "owner_name": "gabolde", "photo_id": 7580777, "longitude": -15.700375, "height": 60, "width": 60, "photo_title": "Au bord du fleuve \u00e0 Richard Toll", "latitude": 16.468662, "owner_url": "http://www.panoramio.com/user/1308747", "photo_url": "http://www.panoramio.com/photo/7580777", "photo_file_url": "http://mw2.google.com/mw-panoramio/photos/square/7580777.jpg", "owner_id": 1308747}, {"upload_date": "04 March 2008", "owner_name": "Michal.Hugo.Kostal", "photo_id": 8286628, "longitude": -15.184479, "height": 60, "width": 60, "photo_title": "Mauritania - Desert country", "latitude": 17.966977, "owner_url": "http://www.panoramio.com/user/1190143", "photo_url": "http://www.panoramio.com/photo/8286628", "photo_file_url": "http://mw2.google.com/mw-panoramio/photos/square/8286628.jpg", "owner_id": 1190143}, {"upload_date": "04 February 2008", "owner_name": "gabolde", "photo_id": 7579970, "place_id": "5920ccb7201ae816eb6b9d2be38187ec78821850", "longitude": -16.266975, "height": 60, "width": 60, "photo_title": "Phacoch\u00e8res \u00e0 la queue leu leu", "latitude": 16.387673, "owner_url": "http://www.panoramio.com/user/1308747", "photo_url": "http://www.panoramio.com/photo/7579970", "photo_file_url": "http://mw2.google.com/mw-panoramio/photos/square/7579970.jpg", "owner_id": 1308747}, {"upload_date": "04 February 2008", "owner_name": "gabolde", "photo_id": 7582147, "longitude": -13.324442, "height": 60, "width": 60, "photo_title": "Sur le march\u00e9 de tissu de Matam", "latitude": 15.60667, "owner_url": "http://www.panoramio.com/user/1308747", "photo_url": "http://www.panoramio.com/photo/7582147", "photo_file_url": "http://mw2.google.com/mw-panoramio/photos/square/7582147.jpg", "owner_id": 1308747}, {"upload_date": "03 December 2008", "owner_name": "Jose Cepsa", "photo_id": 16544365, "longitude": -12.322154000000012, "height": 60, "width": 60, "photo_title": "moudjeria", "latitude": 17.886211, "owner_url": "http://www.panoramio.com/user/658215", "photo_url": "http://www.panoramio.com/photo/16544365", "photo_file_url": "http://mw2.google.com/mw-panoramio/photos/square/16544365.jpg", "owner_id": 658215}, {"upload_date": "26 November 2007", "owner_name": "coasis", "photo_id": 6156294, "longitude": -13.9, "height": 60, "width": 60, "photo_title": "Barob\u00e9", "latitude": 16.183333, "owner_url": "http://www.panoramio.com/user/885618", "photo_url": "http://www.panoramio.com/photo/6156294", "photo_file_url": "http://mw2.google.com/mw-panoramio/photos/square/6156294.jpg", "owner_id": 885618}, {"upload_date": "18 May 2008", "owner_name": "gabolde", "photo_id": 10356738, "longitude": -15.958886, "height": 60, "width": 60, "photo_title": "En bord de piste entre Touba et Louga", "latitude": 14.938399, "owner_url": "http://www.panoramio.com/user/1308747", "photo_url": "http://www.panoramio.com/photo/10356738", "photo_file_url": "http://mw2.google.com/mw-panoramio/photos/square/10356738.jpg", "owner_id": 1308747}, {"upload_date": "27 November 2008", "owner_name": "Giraudon Francis", "photo_id": 16352632, "longitude": -15.453558, "height": 60, "width": 60, "photo_title": "Travers\u00e9e avec chevaux .fg", "latitude": 16.591326, "owner_url": "http://www.panoramio.com/user/2502173", "photo_url": "http://www.panoramio.com/photo/16352632", "photo_file_url": "http://mw2.google.com/mw-panoramio/photos/square/16352632.jpg", "owner_id": 2502173}, {"upload_date": "22 August 2008", "owner_name": "Rui Soares", "photo_id": 13374652, "longitude": -16.510134, "height": 60, "width": 60, "photo_title": "Estu\u00e1rio do Rio Senegal", "latitude": 15.886767, "owner_url": "http://www.panoramio.com/user/286441", "photo_url": "http://www.panoramio.com/photo/13374652", "photo_file_url": "http://mw2.google.com/mw-panoramio/photos/square/13374652.jpg", "owner_id": 286441}, {"upload_date": "05 October 2007", "owner_name": "Fouderg", "photo_id": 5114785, "longitude": -12.094488, "height": 60, "width": 60, "photo_title": "Guelta de Matmata", "latitude": 17.88082, "owner_url": "http://www.panoramio.com/user/782549", "photo_url": "http://www.panoramio.com/photo/5114785", "photo_file_url": "http://mw2.google.com/mw-panoramio/photos/square/5114785.jpg", "owner_id": 782549}, {"upload_date": "23 February 2009", "owner_name": "Miguel Jaramillo", "photo_id": 19321709, "longitude": -15.915064, "height": 60, "width": 60, "photo_title": "Nouakchott 01", "latitude": 18.144042, "owner_url": "http://www.panoramio.com/user/1547114", "photo_url": "http://www.panoramio.com/photo/19321709", "photo_file_url": "http://mw2.google.com/mw-panoramio/photos/square/19321709.jpg", "owner_id": 1547114}, {"upload_date": "04 March 2007", "owner_name": "lecleric", "photo_id": 1158937, "longitude": -16.038666, "height": 60, "width": 60, "photo_title": "fishermans", "latitude": 18.273042, "owner_url": "http://www.panoramio.com/user/229739", "photo_url": "http://www.panoramio.com/photo/1158937", "photo_file_url": "http://mw2.google.com/mw-panoramio/photos/square/1158937.jpg", "owner_id": 229739}, {"upload_date": "07 January 2007", "owner_name": "dobrarfronteiras.com", "photo_id": 329218, "longitude": -15.965796, "height": 60, "width": 60, "photo_title": "A \"nossa duna\" ", "latitude": 16.634629, "owner_url": "http://www.panoramio.com/user/12831", "photo_url": "http://www.panoramio.com/photo/329218", "photo_file_url": "http://mw2.google.com/mw-panoramio/photos/square/329218.jpg", "owner_id": 12831}, {"upload_date": "29 April 2008", "owner_name": "gabolde", "photo_id": 9766363, "longitude": -16.50876, "height": 60, "width": 60, "photo_title": "Saint-Louis vu du sud", "latitude": 16.013806, "owner_url": "http://www.panoramio.com/user/1308747", "photo_url": "http://www.panoramio.com/photo/9766363", "photo_file_url": "http://mw2.google.com/mw-panoramio/photos/square/9766363.jpg", "owner_id": 1308747}, {"upload_date": "19 September 2009", "owner_name": "coasis", "photo_id": 26978331, "longitude": -13.926716, "height": 60, "width": 60, "photo_title": "Singe sur grand arbre \u00e0 Diaranguel", "latitude": 16.215622, "owner_url": "http://www.panoramio.com/user/885618", "photo_url": "http://www.panoramio.com/photo/26978331", "photo_file_url": "http://mw2.google.com/mw-panoramio/photos/square/26978331.jpg", "owner_id": 885618}, {"upload_date": "28 February 2008", "owner_name": "gabolde", "photo_id": 8162266, "longitude": -16.306973, "height": 60, "width": 60, "photo_title": "Petit phacoch\u00e8re ", "latitude": 16.469999, "owner_url": "http://www.panoramio.com/user/1308747", "photo_url": "http://www.panoramio.com/photo/8162266", "photo_file_url": "http://mw2.google.com/mw-panoramio/photos/square/8162266.jpg", "owner_id": 1308747}, {"upload_date": "18 May 2008", "owner_name": "gabolde", "photo_id": 10351948, "longitude": -16.27028, "height": 60, "width": 60, "photo_title": "P\u00e9licans en famille sur un ilet du Djoudj", "latitude": 16.417603, "owner_url": "http://www.panoramio.com/user/1308747", "photo_url": "http://www.panoramio.com/photo/10351948", "photo_file_url": "http://mw2.google.com/mw-panoramio/photos/square/10351948.jpg", "owner_id": 1308747}, {"upload_date": "03 October 2011", "owner_name": "alainchoquet", "photo_id": 60001715, "longitude": -15.051962000000003, "height": 60, "width": 60, "photo_title": "Enfants du fleuve", "latitude": 16.627007, "owner_url": "http://www.panoramio.com/user/2175619", "photo_url": "http://www.panoramio.com/photo/60001715", "photo_file_url": "http://mw2.google.com/mw-panoramio/photos/square/60001715.jpg", "owner_id": 2175619}, {"upload_date": "02 March 2011", "owner_name": "Perinic D", "photo_id": 48900243, "longitude": -16.283498, "height": 60, "width": 60, "photo_title": "\"Martine, si on ne le bouffe pas maintenant, il va nous d\u00e9passer aux primaires!\"....\"\u00c9coute, S\u00e9gol\u00e8ne, j'ai peur que le morceau est trop grand pour avaler...\"", "latitude": 16.428915, "owner_url": "http://www.panoramio.com/user/126027", "photo_url": "http://www.panoramio.com/photo/48900243", "photo_file_url": "http://mw2.google.com/mw-panoramio/photos/square/48900243.jpg", "owner_id": 126027}, {"upload_date": "10 August 2007", "owner_name": "Raimundo Maia Junior", "photo_id": 3849942, "longitude": -16.422747, "height": 60, "width": 60, "photo_title": "UNI Gaston Berger", "latitude": 16.061289, "owner_url": "http://www.panoramio.com/user/619202", "photo_url": "http://www.panoramio.com/photo/3849942", "photo_file_url": "http://mw2.google.com/mw-panoramio/photos/square/3849942.jpg", "owner_id": 619202}, {"upload_date": "13 December 2007", "owner_name": "mercurjo", "photo_id": 6463901, "longitude": -16.340972, "height": 60, "width": 60, "photo_title": "Gu\u00e9oul", "latitude": 15.480244, "owner_url": "http://www.panoramio.com/user/980800", "photo_url": "http://www.panoramio.com/photo/6463901", "photo_file_url": "http://mw2.google.com/mw-panoramio/photos/square/6463901.jpg", "owner_id": 980800}, {"upload_date": "08 March 2011", "owner_name": "LMCabrita", "photo_id": 49165003, "longitude": -16.098367, "height": 60, "width": 60, "photo_title": "Taking the piste to Diama", "latitude": 16.791225, "owner_url": "http://www.panoramio.com/user/3398999", "photo_url": "http://www.panoramio.com/photo/49165003", "photo_file_url": "http://mw2.google.com/mw-panoramio/photos/square/49165003.jpg", "owner_id": 3398999}, {"upload_date": "29 April 2008", "owner_name": "gabolde", "photo_id": 9765754, "longitude": -16.505665, "height": 60, "width": 60, "photo_title": "Au nord de N'Dar  (Saint Louis)", "latitude": 16.038121, "owner_url": "http://www.panoramio.com/user/1308747", "photo_url": "http://www.panoramio.com/photo/9765754", "photo_file_url": "http://mw2.google.com/mw-panoramio/photos/square/9765754.jpg", "owner_id": 1308747}, {"upload_date": "04 July 2009", "owner_name": "Jose Cepsa", "photo_id": 24095987, "longitude": -16.037464, "height": 60, "width": 60, "photo_title": "barco Embarracado", "latitude": 18.24215, "owner_url": "http://www.panoramio.com/user/658215", "photo_url": "http://www.panoramio.com/photo/24095987", "photo_file_url": "http://mw2.google.com/mw-panoramio/photos/square/24095987.jpg", "owner_id": 658215}, {"upload_date": "07 May 2008", "owner_name": "\u00a9 aureleiii", "photo_id": 10007556, "longitude": -15.956376, "height": 60, "width": 60, "photo_title": "1400 Dar Na\u00efm - A\u00e9roport", "latitude": 18.087515, "owner_url": "http://www.panoramio.com/user/1649055", "photo_url": "http://www.panoramio.com/photo/10007556", "photo_file_url": "http://mw2.google.com/mw-panoramio/photos/square/10007556.jpg", "owner_id": 1649055}, {"upload_date": "13 April 2011", "owner_name": "Jose Cepsa", "photo_id": 51025677, "longitude": -12.188129, "height": 60, "width": 60, "photo_title": "MOUDJERIA", "latitude": 17.905038, "owner_url": "http://www.panoramio.com/user/658215", "photo_url": "http://www.panoramio.com/photo/51025677", "photo_file_url": "http://mw2.google.com/mw-panoramio/photos/square/51025677.jpg", "owner_id": 658215}, {"upload_date": "07 May 2008", "owner_name": "\u00a9 aureleiii", "photo_id": 10007578, "longitude": -15.988863, "height": 60, "width": 60, "photo_title": "172 El Mina", "latitude": 18.071849, "owner_url": "http://www.panoramio.com/user/1649055", "photo_url": "http://www.panoramio.com/photo/10007578", "photo_file_url": "http://mw2.google.com/mw-panoramio/photos/square/10007578.jpg", "owner_id": 1649055}, {"upload_date": "12 December 2011", "owner_name": "gabolde", "photo_id": 63424888, "place_id": "5920ccb7201ae816eb6b9d2be38187ec78821850", "longitude": -16.22628, "height": 60, "width": 60, "photo_title": "Une bonne dizaine de centim\u00e8tres d'envergure", "latitude": 16.368327, "owner_url": "http://www.panoramio.com/user/1308747", "photo_url": "http://www.panoramio.com/photo/63424888", "photo_file_url": "http://mw2.google.com/mw-panoramio/photos/square/63424888.jpg", "owner_id": 1308747}, {"upload_date": "08 March 2011", "owner_name": "LMCabrita", "photo_id": 49165022, "place_id": "1546097cdf49ad9b04fe0fd2202103804530d9bd", "longitude": -16.341906, "height": 60, "width": 60, "photo_title": "Diama piste - Senegal river on the left, desert on the right", "latitude": 16.361857, "owner_url": "http://www.panoramio.com/user/3398999", "photo_url": "http://www.panoramio.com/photo/49165022", "photo_file_url": "http://mw2.google.com/mw-panoramio/photos/square/49165022.jpg", "owner_id": 3398999}, {"upload_date": "08 March 2011", "owner_name": "LMCabrita", "photo_id": 49165009, "longitude": -16.188697999999988, "height": 60, "width": 60, "photo_title": "Piste to Diama", "latitude": 16.673689, "owner_url": "http://www.panoramio.com/user/3398999", "photo_url": "http://www.panoramio.com/photo/49165009", "photo_file_url": "http://mw2.google.com/mw-panoramio/photos/square/49165009.jpg", "owner_id": 3398999}, {"upload_date": "18 February 2007", "owner_name": "mintaka", "photo_id": 881010, "longitude": -15.869837, "height": 60, "width": 60, "photo_title": "Road from Nouakchott to Boutilimit", "latitude": 18.049133, "owner_url": "http://www.panoramio.com/user/164189", "photo_url": "http://www.panoramio.com/photo/881010", "photo_file_url": "http://mw2.google.com/mw-panoramio/photos/square/881010.jpg", "owner_id": 164189}, {"upload_date": "05 March 2007", "owner_name": "mintaka", "photo_id": 1176327, "longitude": -15.77774, "height": 60, "width": 60, "photo_title": "Rosso Airport", "latitude": 16.518926, "owner_url": "http://www.panoramio.com/user/164189", "photo_url": "http://www.panoramio.com/photo/1176327", "photo_file_url": "http://mw2.google.com/mw-panoramio/photos/square/1176327.jpg", "owner_id": 164189}, {"upload_date": "21 April 2007", "owner_name": "Patrick Demeyer", "photo_id": 1864338, "longitude": -16.511437, "height": 60, "width": 60, "photo_title": "Langue de Barbarie. Cases de Baye Fall en bord de plage.", "latitude": 15.990003, "owner_url": "http://www.panoramio.com/user/352470", "photo_url": "http://www.panoramio.com/photo/1864338", "photo_file_url": "http://mw2.google.com/mw-panoramio/photos/square/1864338.jpg", "owner_id": 352470}, {"upload_date": "02 October 2011", "owner_name": "alainchoquet", "photo_id": 59954479, "longitude": -16.426513, "height": 60, "width": 60, "photo_title": "Troupeau \u00e0 Ndiayene", "latitude": 15.756778, "owner_url": "http://www.panoramio.com/user/2175619", "photo_url": "http://www.panoramio.com/photo/59954479", "photo_file_url": "http://mw2.google.com/mw-panoramio/photos/square/59954479.jpg", "owner_id": 2175619}, {"upload_date": "14 November 2009", "owner_name": "Jose Cepsa", "photo_id": 28874429, "longitude": -12.142639, "height": 60, "width": 60, "photo_title": "Matmata", "latitude": 17.893481, "owner_url": "http://www.panoramio.com/user/658215", "photo_url": "http://www.panoramio.com/photo/28874429", "photo_file_url": "http://mw2.google.com/mw-panoramio/photos/square/28874429.jpg", "owner_id": 658215}, {"upload_date": "14 September 2011", "owner_name": "DAUMY", "photo_id": 58952802, "longitude": -16.34491, "height": 60, "width": 60, "photo_title": "lake st louis", "latitude": 16.332001, "owner_url": "http://www.panoramio.com/user/159477", "photo_url": "http://www.panoramio.com/photo/58952802", "photo_file_url": "http://mw2.google.com/mw-panoramio/photos/square/58952802.jpg", "owner_id": 159477}, {"upload_date": "08 March 2011", "owner_name": "LMCabrita", "photo_id": 49165027, "place_id": "1546097cdf49ad9b04fe0fd2202103804530d9bd", "longitude": -16.419325, "height": 60, "width": 60, "photo_title": "Donkeys on the Diama piste", "latitude": 16.248627, "owner_url": "http://www.panoramio.com/user/3398999", "photo_url": "http://www.panoramio.com/photo/49165027", "photo_file_url": "http://mw2.google.com/mw-panoramio/photos/square/49165027.jpg", "owner_id": 3398999}, {"upload_date": "07 May 2008", "owner_name": "\u00a9 aureleiii", "photo_id": 10007631, "longitude": -15.990552, "height": 60, "width": 60, "photo_title": "231 El Mina - Kebba Mendes", "latitude": 18.05508, "owner_url": "http://www.panoramio.com/user/1649055", "photo_url": "http://www.panoramio.com/photo/10007631", "photo_file_url": "http://mw2.google.com/mw-panoramio/photos/square/10007631.jpg", "owner_id": 1649055}, {"upload_date": "14 January 2012", "owner_name": "Hans Sterkendries", "photo_id": 64902041, "longitude": -16.449108, "height": 60, "width": 60, "photo_title": "S\u00e9n\u00e9gal", "latitude": 15.374681, "owner_url": "http://www.panoramio.com/user/68287", "photo_url": "http://www.panoramio.com/photo/64902041", "photo_file_url": "http://mw2.google.com/mw-panoramio/photos/square/64902041.jpg", "owner_id": 68287}, {"upload_date": "18 March 2012", "owner_name": "Hans Sterkendries", "photo_id": 68682861, "place_id": "d93aa2b780451633006c62263496adc3d2b2342d", "longitude": -16.274343, "height": 60, "width": 60, "photo_title": "Parc National des Oiseaux du Djoudj, S\u00e9n\u00e9gal", "latitude": 16.35943, "owner_url": "http://www.panoramio.com/user/68287", "photo_url": "http://www.panoramio.com/photo/68682861", "photo_file_url": "http://mw2.google.com/mw-panoramio/photos/square/68682861.jpg", "owner_id": 68287}, {"upload_date": "07 May 2008", "owner_name": "\u00a9 aureleiii", "photo_id": 10008172, "longitude": -15.972008, "height": 60, "width": 60, "photo_title": "1057 Ksar - F Nord", "latitude": 18.112005, "owner_url": "http://www.panoramio.com/user/1649055", "photo_url": "http://www.panoramio.com/photo/10008172", "photo_file_url": "http://mw2.google.com/mw-panoramio/photos/square/10008172.jpg", "owner_id": 1649055}, {"upload_date": "16 May 2009", "owner_name": "Rafape", "photo_id": 22410548, "longitude": -16.287231, "height": 60, "width": 60, "photo_title": "Tormenta de arena", "latitude": 15.923696, "owner_url": "http://www.panoramio.com/user/543475", "photo_url": "http://www.panoramio.com/photo/22410548", "photo_file_url": "http://mw2.google.com/mw-panoramio/photos/square/22410548.jpg", "owner_id": 543475}, {"upload_date": "10 January 2010", "owner_name": "Susanne Bommeli", "photo_id": 30900269, "longitude": -16.378683999999993, "height": 60, "width": 60, "photo_title": "Fleuve du Senegal", "latitude": 16.323311, "owner_url": "http://www.panoramio.com/user/3684412", "photo_url": "http://www.panoramio.com/photo/30900269", "photo_file_url": "http://mw2.google.com/mw-panoramio/photos/square/30900269.jpg", "owner_id": 3684412}, {"upload_date": "02 July 2013", "owner_name": "Nicola e Pina Senegal 2013", "photo_id": 92576424, "longitude": -16.34393, "height": 60, "width": 60, "photo_title": "Village near the Senegal River in Senegal.", "latitude": 16.252235, "owner_url": "http://www.panoramio.com/user/7602326", "photo_url": "http://www.panoramio.com/photo/92576424", "photo_file_url": "http://mw2.google.com/mw-panoramio/photos/square/92576424.jpg", "owner_id": 7602326}, {"upload_date": "03 February 2007", "owner_name": "parmingeon", "photo_id": 669452, "longitude": -15.990525, "height": 60, "width": 60, "photo_title": "050117-130000-041015-114436", "latitude": 18.102517, "owner_url": "http://www.panoramio.com/user/17495", "photo_url": "http://www.panoramio.com/photo/669452", "photo_file_url": "http://mw2.google.com/mw-panoramio/photos/square/669452.jpg", "owner_id": 17495}, {"upload_date": "03 October 2011", "owner_name": "alainchoquet", "photo_id": 59980269, "longitude": -16.442971, "height": 60, "width": 60, "photo_title": "P\u00eacheurs ", "latitude": 16.200622, "owner_url": "http://www.panoramio.com/user/2175619", "photo_url": "http://www.panoramio.com/photo/59980269", "photo_file_url": "http://mw2.google.com/mw-panoramio/photos/square/59980269.jpg", "owner_id": 2175619}, {"upload_date": "14 January 2012", "owner_name": "Hans Sterkendries", "photo_id": 64902024, "longitude": -16.514381, "height": 60, "width": 60, "photo_title": "S\u00e9n\u00e9gal", "latitude": 15.304324, "owner_url": "http://www.panoramio.com/user/68287", "photo_url": "http://www.panoramio.com/photo/64902024", "photo_file_url": "http://mw2.google.com/mw-panoramio/photos/square/64902024.jpg", "owner_id": 68287}, {"upload_date": "28 December 2009", "owner_name": "Royon", "photo_id": 30354084, "longitude": -15.854441, "height": 60, "width": 60, "photo_title": "case de berger et chasseur peulh", "latitude": 16.418354, "owner_url": "http://www.panoramio.com/user/2942713", "photo_url": "http://www.panoramio.com/photo/30354084", "photo_file_url": "http://mw2.google.com/mw-panoramio/photos/square/30354084.jpg", "owner_id": 2942713}, {"upload_date": "09 February 2010", "owner_name": "Vadym Gavrykov", "photo_id": 32004714, "longitude": -16.259766, "height": 60, "width": 60, "photo_title": "\u0420\u041a\u0422\u0421 \u0432\u0434\u0430\u043b\u0438", "latitude": 17.811456, "owner_url": "http://www.panoramio.com/user/2975751", "photo_url": "http://www.panoramio.com/photo/32004714", "photo_file_url": "http://mw2.google.com/mw-panoramio/photos/square/32004714.jpg", "owner_id": 2975751}, {"upload_date": "01 July 2008", "owner_name": "damien9162", "photo_id": 11699259, "longitude": -13.368452, "height": 60, "width": 60, "photo_title": "Temp\u00eate de sable dans le Gorgol", "latitude": 16.261585, "owner_url": "http://www.panoramio.com/user/1922299", "photo_url": "http://www.panoramio.com/photo/11699259", "photo_file_url": "http://mw2.google.com/mw-panoramio/photos/square/11699259.jpg", "owner_id": 1922299}, {"upload_date": "24 June 2007", "owner_name": "ChrisManu", "photo_id": 2914912, "longitude": -16.10321, "height": 60, "width": 60, "photo_title": "Route entre Nouakchott et Rosso", "latitude": 16.967487, "owner_url": "http://www.panoramio.com/user/397333", "photo_url": "http://www.panoramio.com/photo/2914912", "photo_file_url": "http://mw2.google.com/mw-panoramio/photos/square/2914912.jpg", "owner_id": 397333}, {"upload_date": "09 November 2007", "owner_name": "DLASG", "photo_id": 5801556, "longitude": -13.117332458496, "height": 60, "width": 60, "photo_title": "Magata Lahjar - Dusk in the Sahara", "latitude": 17.494769882319, "owner_url": "http://www.panoramio.com/user/1083248", "photo_url": "http://www.panoramio.com/photo/5801556", "photo_file_url": "http://mw2.google.com/mw-panoramio/photos/square/5801556.jpg", "owner_id": 1083248}, {"upload_date": "24 June 2007", "owner_name": "ChrisManu", "photo_id": 2914958, "longitude": -15.970001, "height": 60, "width": 60, "photo_title": "Paysage sah\u00e9lien", "latitude": 16.63356, "owner_url": "http://www.panoramio.com/user/397333", "photo_url": "http://www.panoramio.com/photo/2914958", "photo_file_url": "http://mw2.google.com/mw-panoramio/photos/square/2914958.jpg", "owner_id": 397333}, {"upload_date": "13 November 2009", "owner_name": "Marcoafrika2", "photo_id": 28824071, "longitude": -13.961901000000012, "height": 60, "width": 60, "photo_title": "Vendre le mutton", "latitude": 15.298379, "owner_url": "http://www.panoramio.com/user/2195644", "photo_url": "http://www.panoramio.com/photo/28824071", "photo_file_url": "http://mw2.google.com/mw-panoramio/photos/square/28824071.jpg", "owner_id": 2195644}, {"upload_date": "29 August 2007", "owner_name": "komou", "photo_id": 4293685, "longitude": -12.45591, "height": 60, "width": 60, "photo_title": "Bakel, Senegal", "latitude": 14.897216, "owner_url": "http://www.panoramio.com/user/840932", "photo_url": "http://www.panoramio.com/photo/4293685", "photo_file_url": "http://mw2.google.com/mw-panoramio/photos/square/4293685.jpg", "owner_id": 840932}, {"upload_date": "19 June 2010", "owner_name": "dgianni", "photo_id": 36916452, "longitude": -12.2046089, "height": 60, "width": 60, "photo_title": "Mali, Kidira, attraversamento del fiume  in secca. ", "latitude": 14.455127, "owner_url": "http://www.panoramio.com/user/4610825", "photo_url": "http://www.panoramio.com/photo/36916452", "photo_file_url": "http://mw2.google.com/mw-panoramio/photos/square/36916452.jpg", "owner_id": 4610825}, {"upload_date": "13 July 2007", "owner_name": "lemine", "photo_id": 3279468, "longitude": -15.042058999999995, "height": 60, "width": 60, "photo_title": "noubaghiya", "latitude": 17.56913, "owner_url": "http://www.panoramio.com/user/664022", "photo_url": "http://www.panoramio.com/photo/3279468", "photo_file_url": "http://mw2.google.com/mw-panoramio/photos/square/3279468.jpg", "owner_id": 664022}, {"upload_date": "10 April 2010", "owner_name": "pierre manicacci", "photo_id": 34201646, "longitude": -15.664101, "height": 60, "width": 60, "photo_title": "dromaidaires sur la route de touba", "latitude": 15.126567, "owner_url": "http://www.panoramio.com/user/3602577", "photo_url": "http://www.panoramio.com/photo/34201646", "photo_file_url": "http://mw2.google.com/mw-panoramio/photos/square/34201646.jpg", "owner_id": 3602577}, {"upload_date": "26 February 2011", "owner_name": "maix", "photo_id": 48712013, "longitude": -15.48999599999999, "height": 60, "width": 60, "photo_title": "COUCHER DE SOLEIL A KOBA (SENEGAL)", "latitude": 15.112973, "owner_url": "http://www.panoramio.com/user/45684", "photo_url": "http://www.panoramio.com/photo/48712013", "photo_file_url": "http://mw2.google.com/mw-panoramio/photos/square/48712013.jpg", "owner_id": 45684}, {"upload_date": "10 January 2010", "owner_name": "Susanne Bommeli", "photo_id": 30900343, "longitude": -16.315183999999988, "height": 60, "width": 60, "photo_title": "Saint-Louis to Nouakchott", "latitude": 16.924177, "owner_url": "http://www.panoramio.com/user/3684412", "photo_url": "http://www.panoramio.com/photo/30900343", "photo_file_url": "http://mw2.google.com/mw-panoramio/photos/square/30900343.jpg", "owner_id": 3684412}, {"upload_date": "10 November 2007", "owner_name": "DLASG", "photo_id": 5825801, "longitude": -13.783333, "height": 60, "width": 60, "photo_title": "Mbagne -- Flooding along the Senegal River", "latitude": 16.15, "owner_url": "http://www.panoramio.com/user/1083248", "photo_url": "http://www.panoramio.com/photo/5825801", "photo_file_url": "http://mw2.google.com/mw-panoramio/photos/square/5825801.jpg", "owner_id": 1083248}, {"upload_date": "09 December 2008", "owner_name": "RCalado", "photo_id": 16713027, "longitude": -12.575269, "height": 60, "width": 60, "photo_title": "Pont pr\u00e9s Mbout", "latitude": 16.008433, "owner_url": "http://www.panoramio.com/user/2550181", "photo_url": "http://www.panoramio.com/photo/16713027", "photo_file_url": "http://mw2.google.com/mw-panoramio/photos/square/16713027.jpg", "owner_id": 2550181}, {"upload_date": "24 June 2008", "owner_name": "damien9162", "photo_id": 11495920, "longitude": -13.377314, "height": 60, "width": 60, "photo_title": "Mosqu\u00e9e \u00e0 Djeol", "latitude": 16.064604, "owner_url": "http://www.panoramio.com/user/1922299", "photo_url": "http://www.panoramio.com/photo/11495920", "photo_file_url": "http://mw2.google.com/mw-panoramio/photos/square/11495920.jpg", "owner_id": 1922299}, {"upload_date": "24 June 2008", "owner_name": "damien9162", "photo_id": 11495729, "longitude": -13.531691, "height": 60, "width": 60, "photo_title": "Pimpediel", "latitude": 16.149838, "owner_url": "http://www.panoramio.com/user/1922299", "photo_url": "http://www.panoramio.com/photo/11495729", "photo_file_url": "http://mw2.google.com/mw-panoramio/photos/square/11495729.jpg", "owner_id": 1922299}, {"upload_date": "19 October 2007", "owner_name": "xcogels", "photo_id": 5403849, "longitude": -15.954895, "height": 60, "width": 60, "photo_title": "Lac de Guiers", "latitude": 15.958688, "owner_url": "http://www.panoramio.com/user/1007759", "photo_url": "http://www.panoramio.com/photo/5403849", "photo_file_url": "http://mw2.google.com/mw-panoramio/photos/square/5403849.jpg", "owner_id": 1007759}, {"upload_date": "06 June 2008", "owner_name": "Pasaporte", "photo_id": 10953431, "longitude": -14.452362, "height": 60, "width": 60, "photo_title": "Lago Rosa", "latitude": 14.497401, "owner_url": "http://www.panoramio.com/user/1849276", "photo_url": "http://www.panoramio.com/photo/10953431", "photo_file_url": "http://mw2.google.com/mw-panoramio/photos/square/10953431.jpg", "owner_id": 1849276}, {"upload_date": "09 December 2008", "owner_name": "RCalado", "photo_id": 16712640, "longitude": -12.665348, "height": 60, "width": 60, "photo_title": "Barrage de Foum Gleita", "latitude": 16.158211, "owner_url": "http://www.panoramio.com/user/2550181", "photo_url": "http://www.panoramio.com/photo/16712640", "photo_file_url": "http://mw2.google.com/mw-panoramio/photos/square/16712640.jpg", "owner_id": 2550181}, {"upload_date": "17 March 2012", "owner_name": "Wolfgang Hofmeier", "photo_id": 68648317, "longitude": -12.586228, "height": 60, "width": 60, "photo_title": "Sunrise over the Senegal river", "latitude": 15.054488, "owner_url": "http://www.panoramio.com/user/3162012", "photo_url": "http://www.panoramio.com/photo/68648317", "photo_file_url": "http://mw2.google.com/mw-panoramio/photos/square/68648317.jpg", "owner_id": 3162012}, {"upload_date": "01 March 2007", "owner_name": "james700", "photo_id": 1110524, "longitude": -15.814819, "height": 60, "width": 60, "photo_title": "DSC_0079", "latitude": 15.771109, "owner_url": "http://www.panoramio.com/user/230539", "photo_url": "http://www.panoramio.com/photo/1110524", "photo_file_url": "http://mw2.google.com/mw-panoramio/photos/square/1110524.jpg", "owner_id": 230539}, {"upload_date": "08 June 2008", "owner_name": "msalas24", "photo_id": 11013150, "longitude": -14.522552, "height": 60, "width": 60, "photo_title": "Tormenta d'arena cam\u00ed d'Aleg", "latitude": 17.429597, "owner_url": "http://www.panoramio.com/user/1853562", "photo_url": "http://www.panoramio.com/photo/11013150", "photo_file_url": "http://mw2.google.com/mw-panoramio/photos/square/11013150.jpg", "owner_id": 1853562}, {"upload_date": "14 July 2007", "owner_name": "arnaudlaverne", "photo_id": 3302072, "longitude": -15.660839, "height": 60, "width": 60, "photo_title": "La Cit\u00e9 C.S.S.", "latitude": 16.452878, "owner_url": "http://www.panoramio.com/user/661762", "photo_url": "http://www.panoramio.com/photo/3302072", "photo_file_url": "http://mw2.google.com/mw-panoramio/photos/square/3302072.jpg", "owner_id": 661762}, {"upload_date": "30 September 2008", "owner_name": "kkanem", "photo_id": 14579295, "longitude": -13.359375, "height": 60, "width": 60, "photo_title": "Desert Traps, Mauritania", "latitude": 17.14079, "owner_url": "http://www.panoramio.com/user/1929160", "photo_url": "http://www.panoramio.com/photo/14579295", "photo_file_url": "http://mw2.google.com/mw-panoramio/photos/square/14579295.jpg", "owner_id": 1929160}, {"upload_date": "13 November 2009", "owner_name": "Marcoafrika2", "photo_id": 28823753, "longitude": -13.733382000000006, "height": 60, "width": 60, "photo_title": "Route a Ran\u00e9rou4", "latitude": 15.361584, "owner_url": "http://www.panoramio.com/user/2195644", "photo_url": "http://www.panoramio.com/photo/28823753", "photo_file_url": "http://mw2.google.com/mw-panoramio/photos/square/28823753.jpg", "owner_id": 2195644}, {"upload_date": "09 December 2008", "owner_name": "RCalado", "photo_id": 16714325, "longitude": -13.137374, "height": 60, "width": 60, "photo_title": "Pont sur le Gorgol", "latitude": 16.220032, "owner_url": "http://www.panoramio.com/user/2550181", "photo_url": "http://www.panoramio.com/photo/16714325", "photo_file_url": "http://mw2.google.com/mw-panoramio/photos/square/16714325.jpg", "owner_id": 2550181}, {"upload_date": "22 April 2007", "owner_name": "Alain FORGERONT", "photo_id": 1884177, "longitude": -16.224736, "height": 60, "width": 60, "photo_title": "L'aube sur un village Peul", "latitude": 16.006015, "owner_url": "http://www.panoramio.com/user/390203", "photo_url": "http://www.panoramio.com/photo/1884177", "photo_file_url": "http://mw2.google.com/mw-panoramio/photos/square/1884177.jpg", "owner_id": 390203}, {"upload_date": "26 April 2008", "owner_name": "thomjacq", "photo_id": 9693063, "longitude": -12.946733, "height": 60, "width": 60, "photo_title": "ecole Ainoumady", "latitude": 15.261219, "owner_url": "http://www.panoramio.com/user/576611", "photo_url": "http://www.panoramio.com/photo/9693063", "photo_file_url": "http://mw2.google.com/mw-panoramio/photos/square/9693063.jpg", "owner_id": 576611}, {"upload_date": "19 October 2007", "owner_name": "xcogels", "photo_id": 5403962, "longitude": -15.869751, "height": 60, "width": 60, "photo_title": "peul au lac de Guiers", "latitude": 16.267414, "owner_url": "http://www.panoramio.com/user/1007759", "photo_url": "http://www.panoramio.com/photo/5403962", "photo_file_url": "http://mw2.google.com/mw-panoramio/photos/square/5403962.jpg", "owner_id": 1007759}, {"upload_date": "09 December 2008", "owner_name": "RCalado", "photo_id": 16713417, "longitude": -12.273788, "height": 60, "width": 60, "photo_title": "Forage", "latitude": 15.511251, "owner_url": "http://www.panoramio.com/user/2550181", "photo_url": "http://www.panoramio.com/photo/16713417", "photo_file_url": "http://mw2.google.com/mw-panoramio/photos/square/16713417.jpg", "owner_id": 2550181}, {"upload_date": "06 December 2011", "owner_name": "R.G\u00e1lvez", "photo_id": 63167241, "longitude": -12.330834, "height": 60, "width": 60, "photo_title": "Diaclasas", "latitude": 18.287142, "owner_url": "http://www.panoramio.com/user/3372880", "photo_url": "http://www.panoramio.com/photo/63167241", "photo_file_url": "http://mw2.google.com/mw-panoramio/photos/square/63167241.jpg", "owner_id": 3372880}, {"upload_date": "11 January 2008", "owner_name": "Adama Sow", "photo_id": 7040805, "longitude": -15.542446, "height": 60, "width": 60, "photo_title": "Abreuvoir forage de Niassant\u00e9", "latitude": 16.19833, "owner_url": "http://www.panoramio.com/user/1271231", "photo_url": "http://www.panoramio.com/photo/7040805", "photo_file_url": "http://mw2.google.com/mw-panoramio/photos/square/7040805.jpg", "owner_id": 1271231}, {"upload_date": "20 December 2006", "owner_name": "Isidor Fernandez", "photo_id": 193289, "longitude": -16.031558, "height": 60, "width": 60, "photo_title": "052_mauritania_2002", "latitude": 17.930207, "owner_url": "http://www.panoramio.com/user/25402", "photo_url": "http://www.panoramio.com/photo/193289", "photo_file_url": "http://mw2.google.com/mw-panoramio/photos/square/193289.jpg", "owner_id": 25402}, {"upload_date": "04 March 2011", "owner_name": "smbgueye", "photo_id": 48979061, "longitude": -15.650195999999994, "height": 60, "width": 60, "photo_title": "Mosqu\u00e9e de Taif, S\u00e9n\u00e9gal", "latitude": 14.78787, "owner_url": "http://www.panoramio.com/user/5625132", "photo_url": "http://www.panoramio.com/photo/48979061", "photo_file_url": "http://mw2.google.com/mw-panoramio/photos/square/48979061.jpg", "owner_id": 5625132}, {"upload_date": "25 August 2013", "owner_name": "Nicola e Pina Senegal 2013", "photo_id": 95177372, "longitude": -16.038601, "height": 60, "width": 60, "photo_title": "Darou Mousty in Senegal.", "latitude": 15.036177, "owner_url": "http://www.panoramio.com/user/7602326", "photo_url": "http://www.panoramio.com/photo/95177372", "photo_file_url": "http://mw2.google.com/mw-panoramio/photos/square/95177372.jpg", "owner_id": 7602326}, {"upload_date": "12 February 2014", "owner_name": "jeanlucjulien.free.fr", "photo_id": 103097100, "longitude": -13.666478333333334, "height": 60, "width": 60, "photo_title": "le village de Kirikou", "latitude": 15.990045, "owner_url": "http://www.panoramio.com/user/1630244", "photo_url": "http://www.panoramio.com/photo/103097100", "photo_file_url": "http://mw2.google.com/mw-panoramio/photos/square/103097100.jpg", "owner_id": 1630244}, {"upload_date": "13 October 2007", "owner_name": "Youssou_Fall", "photo_id": 5277790, "longitude": -16.454821, "height": 60, "width": 60, "photo_title": "Puit de Bambey", "latitude": 14.693789, "owner_url": "http://www.panoramio.com/user/961610", "photo_url": "http://www.panoramio.com/photo/5277790", "photo_file_url": "http://mw2.google.com/mw-panoramio/photos/square/5277790.jpg", "owner_id": 961610}, {"upload_date": "04 May 2008", "owner_name": "yali_2", "photo_id": 9929089, "longitude": -15.330048, "height": 60, "width": 60, "photo_title": "Sur la route", "latitude": 15.997305, "owner_url": "http://www.panoramio.com/user/1689106", "photo_url": "http://www.panoramio.com/photo/9929089", "photo_file_url": "http://mw2.google.com/mw-panoramio/photos/square/9929089.jpg", "owner_id": 1689106}, {"upload_date": "14 September 2009", "owner_name": "mdeya", "photo_id": 26819527, "longitude": -11.845858, "height": 60, "width": 60, "photo_title": "Guerou vue en direction nort", "latitude": 16.819161, "owner_url": "http://www.panoramio.com/user/2040878", "photo_url": "http://www.panoramio.com/photo/26819527", "photo_file_url": "http://mw2.google.com/mw-panoramio/photos/square/26819527.jpg", "owner_id": 2040878}, {"upload_date": "09 November 2008", "owner_name": "Mohamedou", "photo_id": 15820581, "longitude": -13.414451, "height": 60, "width": 60, "photo_title": "Jakka Taiba", "latitude": 15.690879, "owner_url": "http://www.panoramio.com/user/2379768", "photo_url": "http://www.panoramio.com/photo/15820581", "photo_file_url": "http://mw2.google.com/mw-panoramio/photos/square/15820581.jpg", "owner_id": 2379768}, {"upload_date": "31 October 2008", "owner_name": "FitoGomez", "photo_id": 15524539, "longitude": -15.6212255, "height": 60, "width": 60, "photo_title": "Mauritania - Mezcla Dunas Blancas y Rosas", "latitude": 17.9890652, "owner_url": "http://www.panoramio.com/user/1821584", "photo_url": "http://www.panoramio.com/photo/15524539", "photo_file_url": "http://mw2.google.com/mw-panoramio/photos/square/15524539.jpg", "owner_id": 1821584}, {"upload_date": "14 February 2011", "owner_name": "alain56700", "photo_id": 48101728, "longitude": -16.312594, "height": 60, "width": 60, "photo_title": "Parc National de DJOUDJ : Marais", "latitude": 16.309946, "owner_url": "http://www.panoramio.com/user/1907677", "photo_url": "http://www.panoramio.com/photo/48101728", "photo_file_url": "http://mw2.google.com/mw-panoramio/photos/square/48101728.jpg", "owner_id": 1907677}, {"upload_date": "14 December 2011", "owner_name": "gabolde", "photo_id": 63503424, "longitude": -16.385679, "height": 60, "width": 60, "photo_title": "La richesse d'un Peulh", "latitude": 16.141541, "owner_url": "http://www.panoramio.com/user/1308747", "photo_url": "http://www.panoramio.com/photo/63503424", "photo_file_url": "http://mw2.google.com/mw-panoramio/photos/square/63503424.jpg", "owner_id": 1308747}, {"upload_date": "31 January 2012", "owner_name": "Hans Sterkendries", "photo_id": 65910932, "longitude": -16.295906, "height": 60, "width": 60, "photo_title": "Parc National des Oiseaux du Djoudj, S\u00e9n\u00e9gal", "latitude": 16.158903, "owner_url": "http://www.panoramio.com/user/68287", "photo_url": "http://www.panoramio.com/photo/65910932", "photo_file_url": "http://mw2.google.com/mw-panoramio/photos/square/65910932.jpg", "owner_id": 68287}, {"upload_date": "31 May 2013", "owner_name": "pasha195", "photo_id": 91108838, "longitude": -16.033371, "height": 60, "width": 60, "photo_title": "\u041d\u0443\u0430\u043a\u0448\u043e\u0442. \u041f\u043e\u0440\u0442", "latitude": 17.99184, "owner_url": "http://www.panoramio.com/user/3960839", "photo_url": "http://www.panoramio.com/photo/91108838", "photo_file_url": "http://mw2.google.com/mw-panoramio/photos/square/91108838.jpg", "owner_id": 3960839}, {"upload_date": "02 July 2012", "owner_name": "Hans Sterkendries", "photo_id": 74718241, "longitude": -15.896959, "height": 60, "width": 60, "photo_title": "S\u00e9n\u00e9gal", "latitude": 14.77397, "owner_url": "http://www.panoramio.com/user/68287", "photo_url": "http://www.panoramio.com/photo/74718241", "photo_file_url": "http://mw2.google.com/mw-panoramio/photos/square/74718241.jpg", "owner_id": 68287}, {"upload_date": "13 June 2010", "owner_name": "Royon", "photo_id": 36695554, "longitude": -16.269379, "height": 60, "width": 60, "photo_title": "Djoudj : Phacocheres", "latitude": 16.465061, "owner_url": "http://www.panoramio.com/user/2942713", "photo_url": "http://www.panoramio.com/photo/36695554", "photo_file_url": "http://mw2.google.com/mw-panoramio/photos/square/36695554.jpg", "owner_id": 2942713}, {"upload_date": "24 June 2013", "owner_name": "CarmelH", "photo_id": 92193960, "longitude": -15.386353, "height": 60, "width": 60, "photo_title": "Matamaulana Desert", "latitude": 18.091033, "owner_url": "http://www.panoramio.com/user/979188", "photo_url": "http://www.panoramio.com/photo/92193960", "photo_file_url": "http://mw2.google.com/mw-panoramio/photos/square/92193960.jpg", "owner_id": 979188}, {"upload_date": "14 February 2011", "owner_name": "alain56700", "photo_id": 48098987, "longitude": -16.40002899999999, "height": 60, "width": 60, "photo_title": "Parc National du DJOUDJ : 30 kms de Piste d'acc\u00e8s ", "latitude": 16.096098, "owner_url": "http://www.panoramio.com/user/1907677", "photo_url": "http://www.panoramio.com/photo/48098987", "photo_file_url": "http://mw2.google.com/mw-panoramio/photos/square/48098987.jpg", "owner_id": 1907677}, {"upload_date": "15 January 2012", "owner_name": "Hans Sterkendries", "photo_id": 64984477, "longitude": -16.418209, "height": 60, "width": 60, "photo_title": "S\u00e9n\u00e9gal", "latitude": 15.40801, "owner_url": "http://www.panoramio.com/user/68287", "photo_url": "http://www.panoramio.com/photo/64984477", "photo_file_url": "http://mw2.google.com/mw-panoramio/photos/square/64984477.jpg", "owner_id": 68287}, {"upload_date": "15 June 2008", "owner_name": "Veronique.bauer92", "photo_id": 11226716, "longitude": -15.807266, "height": 60, "width": 60, "photo_title": "Suivez le guide", "latitude": 18.060354, "owner_url": "http://www.panoramio.com/user/1502219", "photo_url": "http://www.panoramio.com/photo/11226716", "photo_file_url": "http://mw2.google.com/mw-panoramio/photos/square/11226716.jpg", "owner_id": 1502219}, {"upload_date": "19 February 2012", "owner_name": "Kirikou", "photo_id": 67085761, "longitude": -16.42410799999999, "height": 60, "width": 60, "photo_title": "Village S\u00e9r\u00e8re", "latitude": 14.391077, "owner_url": "http://www.panoramio.com/user/5863581", "photo_url": "http://www.panoramio.com/photo/67085761", "photo_file_url": "http://mw2.google.com/mw-panoramio/photos/square/67085761.jpg", "owner_id": 5863581}, {"upload_date": "02 July 2012", "owner_name": "Hans Sterkendries", "photo_id": 74718096, "longitude": -16.089392, "height": 60, "width": 60, "photo_title": "S\u00e9n\u00e9gal", "latitude": 14.744671, "owner_url": "http://www.panoramio.com/user/68287", "photo_url": "http://www.panoramio.com/photo/74718096", "photo_file_url": "http://mw2.google.com/mw-panoramio/photos/square/74718096.jpg", "owner_id": 68287}, {"upload_date": "18 March 2012", "owner_name": "Hans Sterkendries", "photo_id": 68682918, "longitude": -15.940111, "height": 60, "width": 60, "photo_title": "S\u00e9n\u00e9gal", "latitude": 16.373776, "owner_url": "http://www.panoramio.com/user/68287", "photo_url": "http://www.panoramio.com/photo/68682918", "photo_file_url": "http://mw2.google.com/mw-panoramio/photos/square/68682918.jpg", "owner_id": 68287}, {"upload_date": "31 January 2012", "owner_name": "Hans Sterkendries", "photo_id": 65911286, "longitude": -15.731628, "height": 60, "width": 60, "photo_title": "S\u00e9n\u00e9gal", "latitude": 16.476265, "owner_url": "http://www.panoramio.com/user/68287", "photo_url": "http://www.panoramio.com/photo/65911286", "photo_file_url": "http://mw2.google.com/mw-panoramio/photos/square/65911286.jpg", "owner_id": 68287}, {"upload_date": "18 March 2012", "owner_name": "Hans Sterkendries", "photo_id": 68682924, "longitude": -15.891767, "height": 60, "width": 60, "photo_title": "S\u00e9n\u00e9gal", "latitude": 16.392243, "owner_url": "http://www.panoramio.com/user/68287", "photo_url": "http://www.panoramio.com/photo/68682924", "photo_file_url": "http://mw2.google.com/mw-panoramio/photos/square/68682924.jpg", "owner_id": 68287}, {"upload_date": "18 March 2012", "owner_name": "Hans Sterkendries", "photo_id": 68682911, "longitude": -16.002746, "height": 60, "width": 60, "photo_title": "S\u00e9n\u00e9gal", "latitude": 16.345736, "owner_url": "http://www.panoramio.com/user/68287", "photo_url": "http://www.panoramio.com/photo/68682911", "photo_file_url": "http://mw2.google.com/mw-panoramio/photos/square/68682911.jpg", "owner_id": 68287}, {"upload_date": "23 April 2008", "owner_name": "Robert Stoff", "photo_id": 9642645, "longitude": -13.498399, "height": 60, "width": 60, "photo_title": "Senegalfluss bei Kaeidi", "latitude": 16.140043, "owner_url": "http://www.panoramio.com/user/1124762", "photo_url": "http://www.panoramio.com/photo/9642645", "photo_file_url": "http://mw2.google.com/mw-panoramio/photos/square/9642645.jpg", "owner_id": 1124762}, {"upload_date": "12 July 2007", "owner_name": "martinaigle", "photo_id": 3259278, "longitude": -15.982962, "height": 60, "width": 60, "photo_title": "Direction de l'Hydraulique", "latitude": 18.087994, "owner_url": "http://www.panoramio.com/user/657464", "photo_url": "http://www.panoramio.com/photo/3259278", "photo_file_url": "http://mw2.google.com/mw-panoramio/photos/square/3259278.jpg", "owner_id": 657464}, {"upload_date": "28 October 2012", "owner_name": "Kirikou", "photo_id": 81252736, "longitude": -16.313385, "height": 60, "width": 60, "photo_title": "Dibiterie", "latitude": 14.445319, "owner_url": "http://www.panoramio.com/user/5863581", "photo_url": "http://www.panoramio.com/photo/81252736", "photo_file_url": "http://mw2.google.com/mw-panoramio/photos/square/81252736.jpg", "owner_id": 5863581}, {"upload_date": "28 October 2012", "owner_name": "Kirikou", "photo_id": 81252382, "longitude": -16.251587, "height": 60, "width": 60, "photo_title": "Village peulh", "latitude": 14.732386, "owner_url": "http://www.panoramio.com/user/5863581", "photo_url": "http://www.panoramio.com/photo/81252382", "photo_file_url": "http://mw2.google.com/mw-panoramio/photos/square/81252382.jpg", "owner_id": 5863581}, {"upload_date": "09 June 2008", "owner_name": "Ioanna Vasileiadou, \u0399\u03c9\u03ac\u03bd\u03bd\u03b1 \u0392\u03b1\u03c3\u03b9\u03bb\u03b5\u03b9\u03ac\u03b4\u03bf\u03c5", "photo_id": 11050594, "longitude": -16.393361, "height": 60, "width": 60, "photo_title": "Saint Louis-Senegal", "latitude": 16.175317, "owner_url": "http://www.panoramio.com/user/1857885", "photo_url": "http://www.panoramio.com/photo/11050594", "photo_file_url": "http://mw2.google.com/mw-panoramio/photos/square/11050594.jpg", "owner_id": 1857885}, {"upload_date": "26 September 2012", "owner_name": "Carmen Molina", "photo_id": 79561249, "longitude": -14.827233, "height": 60, "width": 60, "photo_title": "Podor. Senegal", "latitude": 16.541338, "owner_url": "http://www.panoramio.com/user/2473877", "photo_url": "http://www.panoramio.com/photo/79561249", "photo_file_url": "http://mw2.google.com/mw-panoramio/photos/square/79561249.jpg", "owner_id": 2473877}, {"upload_date": "25 February 2013", "owner_name": "inivag", "photo_id": 86614769, "longitude": -12.055, "height": 60, "width": 60, "photo_title": "route de l' espoir     4", "latitude": 17.090833, "owner_url": "http://www.panoramio.com/user/341885", "photo_url": "http://www.panoramio.com/photo/86614769", "photo_file_url": "http://mw2.google.com/mw-panoramio/photos/square/86614769.jpg", "owner_id": 341885}, {"upload_date": "17 February 2008", "owner_name": "Andre Luis Acosta", "photo_id": 7899845, "longitude": -15.630455, "height": 60, "width": 60, "photo_title": "Bel\u00edssimo Rio Senegal", "latitude": 16.509997, "owner_url": "http://www.panoramio.com/user/27819", "photo_url": "http://www.panoramio.com/photo/7899845", "photo_file_url": "http://mw2.google.com/mw-panoramio/photos/square/7899845.jpg", "owner_id": 27819}, {"upload_date": "26 January 2007", "owner_name": "Yair.fuchs", "photo_id": 573557, "longitude": -16.45134, "height": 60, "width": 60, "photo_title": "Reserve de la Langue de Barbarie", "latitude": 15.876149, "owner_url": "http://www.panoramio.com/user/123023", "photo_url": "http://www.panoramio.com/photo/573557", "photo_file_url": "http://mw2.google.com/mw-panoramio/photos/square/573557.jpg", "owner_id": 123023}, {"upload_date": "07 February 2008", "owner_name": "lefghih", "photo_id": 7645212, "longitude": -16.272962, "height": 60, "width": 60, "photo_title": "Prise d'Eau brute du Fleuve S\u00e9n\u00e9gal pour l'Approvisionnement de la Ville de Nouakchott en Eau potable Projet Aftout Essahli", "latitude": 16.521904, "owner_url": "http://www.panoramio.com/user/1126561", "photo_url": "http://www.panoramio.com/photo/7645212", "photo_file_url": "http://mw2.google.com/mw-panoramio/photos/square/7645212.jpg", "owner_id": 1126561}, {"upload_date": "23 December 2007", "owner_name": "Up in the sky", "photo_id": 6635497, "longitude": -16.459322, "height": 60, "width": 60, "photo_title": "Saint Louis Airport ", "latitude": 16.036121, "owner_url": "http://www.panoramio.com/user/1212900", "photo_url": "http://www.panoramio.com/photo/6635497", "photo_file_url": "http://mw2.google.com/mw-panoramio/photos/square/6635497.jpg", "owner_id": 1212900}, {"upload_date": "05 April 2007", "owner_name": "woo15", "photo_id": 1646436, "longitude": -16.387224, "height": 60, "width": 60, "photo_title": "huts in senegal", "latitude": 15.899593, "owner_url": "http://www.panoramio.com/user/347728", "photo_url": "http://www.panoramio.com/photo/1646436", "photo_file_url": "http://mw2.google.com/mw-panoramio/photos/square/1646436.jpg", "owner_id": 347728}, {"upload_date": "26 February 2011", "owner_name": "maix", "photo_id": 48711963, "longitude": -16.228082999999998, "height": 60, "width": 60, "photo_title": "PELICANS AU PARC DU DJOUDJ (SENEGAL)", "latitude": 16.435406, "owner_url": "http://www.panoramio.com/user/45684", "photo_url": "http://www.panoramio.com/photo/48711963", "photo_file_url": "http://mw2.google.com/mw-panoramio/photos/square/48711963.jpg", "owner_id": 45684}, {"upload_date": "24 June 2013", "owner_name": "CarmelH", "photo_id": 92193957, "longitude": -15.206451, "height": 60, "width": 60, "photo_title": "Matamaulana Desert", "latitude": 18.280214, "owner_url": "http://www.panoramio.com/user/979188", "photo_url": "http://www.panoramio.com/photo/92193957", "photo_file_url": "http://mw2.google.com/mw-panoramio/photos/square/92193957.jpg", "owner_id": 979188}, {"upload_date": "24 June 2013", "owner_name": "CarmelH", "photo_id": 92194335, "longitude": -16.138916, "height": 60, "width": 60, "photo_title": "Keur Macene", "latitude": 16.573023, "owner_url": "http://www.panoramio.com/user/979188", "photo_url": "http://www.panoramio.com/photo/92194335", "photo_file_url": "http://mw2.google.com/mw-panoramio/photos/square/92194335.jpg", "owner_id": 979188}, {"upload_date": "09 January 2008", "owner_name": "rotscher", "photo_id": 7012811, "longitude": -16.371689, "height": 60, "width": 60, "photo_title": "Parc National de Dawling", "latitude": 16.407105, "owner_url": "http://www.panoramio.com/user/965871", "photo_url": "http://www.panoramio.com/photo/7012811", "photo_file_url": "http://mw2.google.com/mw-panoramio/photos/square/7012811.jpg", "owner_id": 965871}, {"upload_date": "06 June 2008", "owner_name": "naglwitz@aon.at", "photo_id": 10969061, "longitude": -16.510525, "height": 60, "width": 60, "photo_title": "On the way to Zebrabar, by Naglwitz", "latitude": 15.867, "owner_url": "http://www.panoramio.com/user/874208", "photo_url": "http://www.panoramio.com/photo/10969061", "photo_file_url": "http://mw2.google.com/mw-panoramio/photos/square/10969061.jpg", "owner_id": 874208}, {"upload_date": "05 January 2010", "owner_name": "Susanne Bommeli", "photo_id": 30676072, "longitude": -15.877646999999996, "height": 60, "width": 60, "photo_title": "Nouakchott", "latitude": 18.119696, "owner_url": "http://www.panoramio.com/user/3684412", "photo_url": "http://www.panoramio.com/photo/30676072", "photo_file_url": "http://mw2.google.com/mw-panoramio/photos/square/30676072.jpg", "owner_id": 3684412}, {"upload_date": "04 January 2010", "owner_name": "Susanne Bommeli", "photo_id": 30653001, "longitude": -15.834045000000003, "height": 60, "width": 60, "photo_title": "Nouakchott", "latitude": 18.181844, "owner_url": "http://www.panoramio.com/user/3684412", "photo_url": "http://www.panoramio.com/photo/30653001", "photo_file_url": "http://mw2.google.com/mw-panoramio/photos/square/30653001.jpg", "owner_id": 3684412}, {"upload_date": "10 June 2008", "owner_name": "Ioanna Vasileiadou, \u0399\u03c9\u03ac\u03bd\u03bd\u03b1 \u0392\u03b1\u03c3\u03b9\u03bb\u03b5\u03b9\u03ac\u03b4\u03bf\u03c5", "photo_id": 11101764, "longitude": -16.303432, "height": 60, "width": 60, "photo_title": "DJOUDJ", "latitude": 16.375373, "owner_url": "http://www.panoramio.com/user/1857885", "photo_url": "http://www.panoramio.com/photo/11101764", "photo_file_url": "http://mw2.google.com/mw-panoramio/photos/square/11101764.jpg", "owner_id": 1857885}, {"upload_date": "03 May 2010", "owner_name": "blackpig design", "photo_id": 35050765, "longitude": -16.484299, "height": 60, "width": 60, "photo_title": "canales", "latitude": 16.008196, "owner_url": "http://www.panoramio.com/user/4444226", "photo_url": "http://www.panoramio.com/photo/35050765", "photo_file_url": "http://mw2.google.com/mw-panoramio/photos/square/35050765.jpg", "owner_id": 4444226}, {"upload_date": "04 August 2013", "owner_name": "Nicola e Pina Senegal 2013", "photo_id": 94124179, "longitude": -16.457023, "height": 60, "width": 60, "photo_title": "Salt evaporation pond on the road from Saint Louis to Thies in Senegal.", "latitude": 15.96566, "owner_url": "http://www.panoramio.com/user/7602326", "photo_url": "http://www.panoramio.com/photo/94124179", "photo_file_url": "http://mw2.google.com/mw-panoramio/photos/square/94124179.jpg", "owner_id": 7602326}, {"upload_date": "10 January 2010", "owner_name": "Susanne Bommeli", "photo_id": 30900230, "longitude": -16.420897999999994, "height": 60, "width": 60, "photo_title": "Fleuve Senegal", "latitude": 16.133258, "owner_url": "http://www.panoramio.com/user/3684412", "photo_url": "http://www.panoramio.com/photo/30900230", "photo_file_url": "http://mw2.google.com/mw-panoramio/photos/square/30900230.jpg", "owner_id": 3684412}, {"upload_date": "25 September 2007", "owner_name": "\u00d6rjan B", "photo_id": 4898724, "longitude": -16.11204, "height": 60, "width": 60, "photo_title": "Tako Bissap", "latitude": 15.638184, "owner_url": "http://www.panoramio.com/user/913995", "photo_url": "http://www.panoramio.com/photo/4898724", "photo_file_url": "http://mw2.google.com/mw-panoramio/photos/square/4898724.jpg", "owner_id": 913995}, {"upload_date": "23 April 2008", "owner_name": "Robert Stoff", "photo_id": 9636355, "longitude": -13.24625, "height": 60, "width": 60, "photo_title": "Strasse von Kaeidi nach Ganki", "latitude": 16.220938, "owner_url": "http://www.panoramio.com/user/1124762", "photo_url": "http://www.panoramio.com/photo/9636355", "photo_file_url": "http://mw2.google.com/mw-panoramio/photos/square/9636355.jpg", "owner_id": 1124762}, {"upload_date": "10 January 2008", "owner_name": "Adama Sow", "photo_id": 7025748, "longitude": -15.717707, "height": 60, "width": 60, "photo_title": "P\u00eache sur le Canal Taouey", "latitude": 16.405083, "owner_url": "http://www.panoramio.com/user/1271231", "photo_url": "http://www.panoramio.com/photo/7025748", "photo_file_url": "http://mw2.google.com/mw-panoramio/photos/square/7025748.jpg", "owner_id": 1271231}, {"upload_date": "13 November 2009", "owner_name": "Marcoafrika2", "photo_id": 28823748, "longitude": -13.398577999999986, "height": 60, "width": 60, "photo_title": "Route a Ran\u00e9rou3", "latitude": 15.53143, "owner_url": "http://www.panoramio.com/user/2195644", "photo_url": "http://www.panoramio.com/photo/28823748", "photo_file_url": "http://mw2.google.com/mw-panoramio/photos/square/28823748.jpg", "owner_id": 2195644}, {"upload_date": "17 August 2013", "owner_name": "Nicola e Pina Senegal 2013", "photo_id": 94770628, "longitude": -16.349253, "height": 60, "width": 60, "photo_title": "On the road from K\u00e9b\u00e9mer to Touba in Senegal.", "latitude": 15.34206, "owner_url": "http://www.panoramio.com/user/7602326", "photo_url": "http://www.panoramio.com/photo/94770628", "photo_file_url": "http://mw2.google.com/mw-panoramio/photos/square/94770628.jpg", "owner_id": 7602326}, {"upload_date": "17 August 2013", "owner_name": "Nicola e Pina Senegal 2013", "photo_id": 94771983, "longitude": -16.232482, "height": 60, "width": 60, "photo_title": "On the road from K\u00e9b\u00e9mer to Touba in Senegal.", "latitude": 15.311811, "owner_url": "http://www.panoramio.com/user/7602326", "photo_url": "http://www.panoramio.com/photo/94771983", "photo_file_url": "http://mw2.google.com/mw-panoramio/photos/square/94771983.jpg", "owner_id": 7602326}, {"upload_date": "26 September 2013", "owner_name": "Nicola e Pina Senegal 2013", "photo_id": 96851934, "longitude": -15.891352, "height": 60, "width": 60, "photo_title": "Touba in Senegal.", "latitude": 14.832535, "owner_url": "http://www.panoramio.com/user/7602326", "photo_url": "http://www.panoramio.com/photo/96851934", "photo_file_url": "http://mw2.google.com/mw-panoramio/photos/square/96851934.jpg", "owner_id": 7602326}, {"upload_date": "25 April 2007", "owner_name": "danilo russo", "photo_id": 1928220, "longitude": -15.984077, "height": 60, "width": 60, "photo_title": "cammelli - dintorni di nouakchott", "latitude": 17.991632, "owner_url": "http://www.panoramio.com/user/408026", "photo_url": "http://www.panoramio.com/photo/1928220", "photo_file_url": "http://mw2.google.com/mw-panoramio/photos/square/1928220.jpg", "owner_id": 408026}, {"upload_date": "25 August 2007", "owner_name": "Ra\u00fal Medina", "photo_id": 4168276, "longitude": -15.762986, "height": 60, "width": 60, "photo_title": "Le village bleu", "latitude": 18.029222, "owner_url": "http://www.panoramio.com/user/783299", "photo_url": "http://www.panoramio.com/photo/4168276", "photo_file_url": "http://mw2.google.com/mw-panoramio/photos/square/4168276.jpg", "owner_id": 783299}, {"upload_date": "25 August 2013", "owner_name": "Nicola e Pina Senegal 2013", "photo_id": 95176464, "longitude": -16.069652, "height": 60, "width": 60, "photo_title": "Mbap Peul in Senegal.", "latitude": 15.140625, "owner_url": "http://www.panoramio.com/user/7602326", "photo_url": "http://www.panoramio.com/photo/95176464", "photo_file_url": "http://mw2.google.com/mw-panoramio/photos/square/95176464.jpg", "owner_id": 7602326}, {"upload_date": "14 September 2013", "owner_name": "Nicola e Pina Senegal 2013", "photo_id": 96269570, "longitude": -15.906698, "height": 60, "width": 60, "photo_title": "Touba in Senegal.", "latitude": 14.895123, "owner_url": "http://www.panoramio.com/user/7602326", "photo_url": "http://www.panoramio.com/photo/96269570", "photo_file_url": "http://mw2.google.com/mw-panoramio/photos/square/96269570.jpg", "owner_id": 7602326}, {"upload_date": "17 August 2013", "owner_name": "Nicola e Pina Senegal 2013", "photo_id": 94770950, "longitude": -16.315985, "height": 60, "width": 60, "photo_title": "On the road from K\u00e9b\u00e9mer to Touba in Senegal.", "latitude": 15.334187, "owner_url": "http://www.panoramio.com/user/7602326", "photo_url": "http://www.panoramio.com/photo/94770950", "photo_file_url": "http://mw2.google.com/mw-panoramio/photos/square/94770950.jpg", "owner_id": 7602326}, {"upload_date": "17 August 2013", "owner_name": "Nicola e Pina Senegal 2013", "photo_id": 94770985, "longitude": -16.280365, "height": 60, "width": 60, "photo_title": "On the road from K\u00e9b\u00e9mer to Touba in Senegal.", "latitude": 15.327813, "owner_url": "http://www.panoramio.com/user/7602326", "photo_url": "http://www.panoramio.com/photo/94770985", "photo_file_url": "http://mw2.google.com/mw-panoramio/photos/square/94770985.jpg", "owner_id": 7602326}, {"upload_date": "25 August 2013", "owner_name": "Nicola e Pina Senegal 2013", "photo_id": 95179354, "longitude": -15.978237, "height": 60, "width": 60, "photo_title": "Baobabs along the road from Darou Mousty to Touba.", "latitude": 14.978543, "owner_url": "http://www.panoramio.com/user/7602326", "photo_url": "http://www.panoramio.com/photo/95179354", "photo_file_url": "http://mw2.google.com/mw-panoramio/photos/square/95179354.jpg", "owner_id": 7602326}, {"upload_date": "17 August 2013", "owner_name": "Nicola e Pina Senegal 2013", "photo_id": 94772671, "longitude": -16.088033, "height": 60, "width": 60, "photo_title": "Bargue in Senegal.", "latitude": 15.211827, "owner_url": "http://www.panoramio.com/user/7602326", "photo_url": "http://www.panoramio.com/photo/94772671", "photo_file_url": "http://mw2.google.com/mw-panoramio/photos/square/94772671.jpg", "owner_id": 7602326}, {"upload_date": "30 December 2006", "owner_name": "Lillian Berthung", "photo_id": 263918, "longitude": -16.287231, "height": 60, "width": 60, "photo_title": "Diourbel", "latitude": 14.599531, "owner_url": "http://www.panoramio.com/user/55206", "photo_url": "http://www.panoramio.com/photo/263918", "photo_file_url": "http://mw2.google.com/mw-panoramio/photos/square/263918.jpg", "owner_id": 55206}, {"upload_date": "02 March 2007", "owner_name": "Peritel", "photo_id": 1116835, "longitude": -16.51022, "height": 60, "width": 60, "photo_title": "Premier arret sur le sol Mauritannien", "latitude": 16.116162, "owner_url": "http://www.panoramio.com/user/204618", "photo_url": "http://www.panoramio.com/photo/1116835", "photo_file_url": "http://mw2.google.com/mw-panoramio/photos/square/1116835.jpg", "owner_id": 204618}, {"upload_date": "09 December 2008", "owner_name": "RCalado", "photo_id": 16713531, "longitude": -14.208412, "height": 60, "width": 60, "photo_title": "Route Bogu\u00e9 - Kaedi", "latitude": 16.574174, "owner_url": "http://www.panoramio.com/user/2550181", "photo_url": "http://www.panoramio.com/photo/16713531", "photo_file_url": "http://mw2.google.com/mw-panoramio/photos/square/16713531.jpg", "owner_id": 2550181}, {"upload_date": "13 November 2009", "owner_name": "Marcoafrika2", "photo_id": 28822368, "longitude": -16.15573900000001, "height": 60, "width": 60, "photo_title": "Pelicans et Cormorans2", "latitude": 16.503579, "owner_url": "http://www.panoramio.com/user/2195644", "photo_url": "http://www.panoramio.com/photo/28822368", "photo_file_url": "http://mw2.google.com/mw-panoramio/photos/square/28822368.jpg", "owner_id": 2195644}, {"upload_date": "23 April 2008", "owner_name": "Robert Stoff", "photo_id": 9642616, "longitude": -13.175182, "height": 60, "width": 60, "photo_title": "Dorf im Januar", "latitude": 16.475102, "owner_url": "http://www.panoramio.com/user/1124762", "photo_url": "http://www.panoramio.com/photo/9642616", "photo_file_url": "http://mw2.google.com/mw-panoramio/photos/square/9642616.jpg", "owner_id": 1124762}, {"upload_date": "28 November 2007", "owner_name": "mednagi", "photo_id": 6180583, "longitude": -15.84227, "height": 60, "width": 60, "photo_title": "Matamoula vu du sud", "latitude": 17.184483, "owner_url": "http://www.panoramio.com/user/236134", "photo_url": "http://www.panoramio.com/photo/6180583", "photo_file_url": "http://mw2.google.com/mw-panoramio/photos/square/6180583.jpg", "owner_id": 236134}, {"upload_date": "12 November 2008", "owner_name": "delolivier", "photo_id": 15915909, "longitude": -14.88699, "height": 60, "width": 60, "photo_title": "Feu de savane \u00e0 Dodji", "latitude": 15.542841, "owner_url": "http://www.panoramio.com/user/176089", "photo_url": "http://www.panoramio.com/photo/15915909", "photo_file_url": "http://mw2.google.com/mw-panoramio/photos/square/15915909.jpg", "owner_id": 176089}, {"upload_date": "15 September 2010", "owner_name": "Khalifa ASA", "photo_id": 40809457, "longitude": -15.193105000000003, "height": 60, "width": 60, "photo_title": "Barayne", "latitude": 17.176684, "owner_url": "http://www.panoramio.com/user/2661686", "photo_url": "http://www.panoramio.com/photo/40809457", "photo_file_url": "http://mw2.google.com/mw-panoramio/photos/square/40809457.jpg", "owner_id": 2661686}, {"upload_date": "23 April 2008", "owner_name": "Robert Stoff", "photo_id": 9643940, "longitude": -13.181019, "height": 60, "width": 60, "photo_title": "Trockene Aecker", "latitude": 16.480699, "owner_url": "http://www.panoramio.com/user/1124762", "photo_url": "http://www.panoramio.com/photo/9643940", "photo_file_url": "http://mw2.google.com/mw-panoramio/photos/square/9643940.jpg", "owner_id": 1124762}, {"upload_date": "07 December 2011", "owner_name": "R.G\u00e1lvez", "photo_id": 63192356, "longitude": -12.982334, "height": 60, "width": 60, "photo_title": "Hasta aqui!", "latitude": 17.989538, "owner_url": "http://www.panoramio.com/user/3372880", "photo_url": "http://www.panoramio.com/photo/63192356", "photo_file_url": "http://mw2.google.com/mw-panoramio/photos/square/63192356.jpg", "owner_id": 3372880}, {"upload_date": "01 March 2010", "owner_name": "taphawane", "photo_id": 32741771, "longitude": -14.01115200000001, "height": 60, "width": 60, "photo_title": "Soubalo Mboumba", "latitude": 16.200344, "owner_url": "http://www.panoramio.com/user/4231428", "photo_url": "http://www.panoramio.com/photo/32741771", "photo_file_url": "http://mw2.google.com/mw-panoramio/photos/square/32741771.jpg", "owner_id": 4231428}, {"upload_date": "02 March 2011", "owner_name": "Antoine Guyonneau", "photo_id": 48892403, "longitude": -13.159561, "height": 60, "width": 60, "photo_title": "Pr\u00e8s de Sinthiou-Bamamb\u00e9", "latitude": 15.286835, "owner_url": "http://www.panoramio.com/user/1213463", "photo_url": "http://www.panoramio.com/photo/48892403", "photo_file_url": "http://mw2.google.com/mw-panoramio/photos/square/48892403.jpg", "owner_id": 1213463}, {"upload_date": "30 August 2009", "owner_name": "kroska", "photo_id": 26245193, "longitude": -15.46875, "height": 60, "width": 60, "photo_title": "DAKAR", "latitude": 14.689881, "owner_url": "http://www.panoramio.com/user/3602006", "photo_url": "http://www.panoramio.com/photo/26245193", "photo_file_url": "http://mw2.google.com/mw-panoramio/photos/square/26245193.jpg", "owner_id": 3602006}, {"upload_date": "17 November 2008", "owner_name": "frumfell", "photo_id": 16055678, "longitude": -12.646, "height": 60, "width": 60, "photo_title": "south sahara town", "latitude": 17.6422, "owner_url": "http://www.panoramio.com/user/2468612", "photo_url": "http://www.panoramio.com/photo/16055678", "photo_file_url": "http://mw2.google.com/mw-panoramio/photos/square/16055678.jpg", "owner_id": 2468612}, {"upload_date": "07 December 2011", "owner_name": "R.G\u00e1lvez", "photo_id": 63193101, "longitude": -12.791607, "height": 60, "width": 60, "photo_title": "Pozos de Temeida", "latitude": 17.817983, "owner_url": "http://www.panoramio.com/user/3372880", "photo_url": "http://www.panoramio.com/photo/63193101", "photo_file_url": "http://mw2.google.com/mw-panoramio/photos/square/63193101.jpg", "owner_id": 3372880}, {"upload_date": "06 December 2011", "owner_name": "R.G\u00e1lvez", "photo_id": 63167273, "longitude": -12.890053, "height": 60, "width": 60, "photo_title": "Traves\u00eda", "latitude": 17.589621, "owner_url": "http://www.panoramio.com/user/3372880", "photo_url": "http://www.panoramio.com/photo/63167273", "photo_file_url": "http://mw2.google.com/mw-panoramio/photos/square/63167273.jpg", "owner_id": 3372880}, {"upload_date": "09 December 2008", "owner_name": "RCalado", "photo_id": 16715674, "longitude": -13.966198, "height": 60, "width": 60, "photo_title": "Chateau dans la Route Bogu\u00e9 - Kaedi", "latitude": 16.361321, "owner_url": "http://www.panoramio.com/user/2550181", "photo_url": "http://www.panoramio.com/photo/16715674", "photo_file_url": "http://mw2.google.com/mw-panoramio/photos/square/16715674.jpg", "owner_id": 2550181}, {"upload_date": "12 October 2008", "owner_name": "AGEPA", "photo_id": 14935361, "longitude": -12.750149, "height": 60, "width": 60, "photo_title": "Ndiagana, Puits 4", "latitude": 14.554176, "owner_url": "http://www.panoramio.com/user/2344959", "photo_url": "http://www.panoramio.com/photo/14935361", "photo_file_url": "http://mw2.google.com/mw-panoramio/photos/square/14935361.jpg", "owner_id": 2344959}, {"upload_date": "17 February 2008", "owner_name": "Andre Luis Acosta", "photo_id": 7898413, "longitude": -11.755371, "height": 60, "width": 60, "photo_title": "Africa", "latitude": 17.109293, "owner_url": "http://www.panoramio.com/user/27819", "photo_url": "http://www.panoramio.com/photo/7898413", "photo_file_url": "http://mw2.google.com/mw-panoramio/photos/square/7898413.jpg", "owner_id": 27819}, {"upload_date": "30 August 2009", "owner_name": "hubert_george", "photo_id": 26273708, "longitude": -15.111378, "height": 60, "width": 60, "photo_title": "Heb\u00e8rgement", "latitude": 15.401105, "owner_url": "http://www.panoramio.com/user/3402378", "photo_url": "http://www.panoramio.com/photo/26273708", "photo_file_url": "http://mw2.google.com/mw-panoramio/photos/square/26273708.jpg", "owner_id": 3402378}, {"upload_date": "16 May 2010", "owner_name": "farabana", "photo_id": 35607361, "longitude": -12.337646000000007, "height": 60, "width": 60, "photo_title": "Mauritanie", "latitude": 17.298199, "owner_url": "http://www.panoramio.com/user/4494193", "photo_url": "http://www.panoramio.com/photo/35607361", "photo_file_url": "http://mw2.google.com/mw-panoramio/photos/square/35607361.jpg", "owner_id": 4494193}, {"upload_date": "13 April 2013", "owner_name": "yellowleader", "photo_id": 88734637, "longitude": -16.146268, "height": 60, "width": 60, "photo_title": "tornado sand ", "latitude": 16.728793, "owner_url": "http://www.panoramio.com/user/7320114", "photo_url": "http://www.panoramio.com/photo/88734637", "photo_file_url": "http://mw2.google.com/mw-panoramio/photos/square/88734637.jpg", "owner_id": 7320114}, {"upload_date": "26 March 2010", "owner_name": "alaimo silvio sj", "photo_id": 33657808, "longitude": -13.842772999999994, "height": 60, "width": 60, "photo_title": "senegal", "latitude": 17.895114, "owner_url": "http://www.panoramio.com/user/4324296", "photo_url": "http://www.panoramio.com/photo/33657808", "photo_file_url": "http://mw2.google.com/mw-panoramio/photos/square/33657808.jpg", "owner_id": 4324296}, {"upload_date": "22 March 2012", "owner_name": "bokiladji", "photo_id": 68937081, "longitude": -12.748056, "height": 60, "width": 60, "photo_title": "College de Bokiladji", "latitude": 15.060816, "owner_url": "http://www.panoramio.com/user/6787093", "photo_url": "http://www.panoramio.com/photo/68937081", "photo_file_url": "http://mw2.google.com/mw-panoramio/photos/square/68937081.jpg", "owner_id": 6787093}, {"upload_date": "10 January 2011", "owner_name": "mdeya", "photo_id": 46367398, "longitude": -14.341021000000012, "height": 60, "width": 60, "photo_title": "megtar ajweir", "latitude": 17.289963, "owner_url": "http://www.panoramio.com/user/2040878", "photo_url": "http://www.panoramio.com/photo/46367398", "photo_file_url": "http://mw2.google.com/mw-panoramio/photos/square/46367398.jpg", "owner_id": 2040878}, {"upload_date": "05 December 2008", "owner_name": "thomjacq", "photo_id": 16596576, "longitude": -12.383995, "height": 60, "width": 60, "photo_title": "Bassin de R\u00e9tention, Sinthiou Fissa", "latitude": 14.396441111111, "owner_url": "http://www.panoramio.com/user/576611", "photo_url": "http://www.panoramio.com/photo/16596576", "photo_file_url": "http://mw2.google.com/mw-panoramio/photos/square/16596576.jpg", "owner_id": 576611}, {"upload_date": "30 August 2007", "owner_name": "Ra\u00fal Medina", "photo_id": 4311291, "longitude": -16.209725, "height": 60, "width": 60, "photo_title": "Rizi\u00e8res entre Rosso et Saint-Louis", "latitude": 16.244336, "owner_url": "http://www.panoramio.com/user/783299", "photo_url": "http://www.panoramio.com/photo/4311291", "photo_file_url": "http://mw2.google.com/mw-panoramio/photos/square/4311291.jpg", "owner_id": 783299}, {"upload_date": "11 April 2014", "owner_name": "\u0639\u0628\u062f \u0627\u0644\u0644\u0647  \u0623\u062d\u0645\u062f", "photo_id": 105517345, "longitude": -14.883451, "height": 60, "width": 60, "photo_title": " \u0642\u0631\u064a\u0629 \u0622\u062c\u0648\u064a\u0631 \u062a\u062c\u0643\u0627\u0646\u062a ", "latitude": 17.195149, "owner_url": "http://www.panoramio.com/user/8247845", "photo_url": "http://www.panoramio.com/photo/105517345", "photo_file_url": "http://mw2.google.com/mw-panoramio/photos/square/105517345.jpg", "owner_id": 8247845}, {"upload_date": "23 July 2007", "owner_name": "REOF", "photo_id": 3490511, "longitude": -13.005066, "height": 60, "width": 60, "photo_title": "Criadero Cold mountain en San Pedro Sac. SM.", "latitude": 14.559327, "owner_url": "http://www.panoramio.com/user/702823", "photo_url": "http://www.panoramio.com/photo/3490511", "photo_file_url": "http://mw2.google.com/mw-panoramio/photos/square/3490511.jpg", "owner_id": 702823}, {"upload_date": "27 September 2007", "owner_name": "ouldah", "photo_id": 4934699, "longitude": -11.89682, "height": 60, "width": 60, "photo_title": "village de tegnent \u0642\u0631\u064a\u0629 \u062a\u0643\u0646\u0646\u062a \u0645\u0646\u0638\u0631 \u062c\u0627\u0646\u0628\u064a ", "latitude": 18.030322, "owner_url": "http://www.panoramio.com/user/635995", "photo_url": "http://www.panoramio.com/photo/4934699", "photo_file_url": "http://mw2.google.com/mw-panoramio/photos/square/4934699.jpg", "owner_id": 635995}, {"upload_date": "26 May 2010", "owner_name": "Khalifa ASA", "photo_id": 35995234, "longitude": -14.114256000000012, "height": 60, "width": 60, "photo_title": "route-aleg", "latitude": 17.158259, "owner_url": "http://www.panoramio.com/user/2661686", "photo_url": "http://www.panoramio.com/photo/35995234", "photo_file_url": "http://mw2.google.com/mw-panoramio/photos/square/35995234.jpg", "owner_id": 2661686}, {"upload_date": "06 May 2008", "owner_name": "Francisco Garcia Jr.", "photo_id": 9991543, "longitude": -13.583333, "height": 60, "width": 60, "photo_title": "Shipwreck", "latitude": 15.766667, "owner_url": "http://www.panoramio.com/user/1687608", "photo_url": "http://www.panoramio.com/photo/9991543", "photo_file_url": "http://mw2.google.com/mw-panoramio/photos/square/9991543.jpg", "owner_id": 1687608}, {"upload_date": "05 February 2013", "owner_name": "ricardomauritania", "photo_id": 85680438, "longitude": -11.837082, "height": 60, "width": 60, "photo_title": "cuvetas inundadas 2012", "latitude": 18.238481, "owner_url": "http://www.panoramio.com/user/6727551", "photo_url": "http://www.panoramio.com/photo/85680438", "photo_file_url": "http://mw2.google.com/mw-panoramio/photos/square/85680438.jpg", "owner_id": 6727551}, {"upload_date": "24 September 2009", "owner_name": "TONIOOO", "photo_id": 27119833, "longitude": -15.303955000000002, "height": 60, "width": 60, "photo_title": "Fromager de brousse (S\u00e9n\u00e9gal by ToNiooo)", "latitude": 14.406306, "owner_url": "http://www.panoramio.com/user/3484038", "photo_url": "http://www.panoramio.com/photo/27119833", "photo_file_url": "http://mw2.google.com/mw-panoramio/photos/square/27119833.jpg", "owner_id": 3484038}, {"upload_date": "05 February 2013", "owner_name": "ricardomauritania", "photo_id": 85679400, "longitude": -12.886963, "height": 60, "width": 60, "photo_title": "mauritania en verde", "latitude": 16.109153, "owner_url": "http://www.panoramio.com/user/6727551", "photo_url": "http://www.panoramio.com/photo/85679400", "photo_file_url": "http://mw2.google.com/mw-panoramio/photos/square/85679400.jpg", "owner_id": 6727551}, {"upload_date": "13 July 2010", "owner_name": "Khalifa ASA", "photo_id": 37858995, "longitude": -14.021772999999996, "height": 60, "width": 60, "photo_title": "tamoure el khadra", "latitude": 16.879317, "owner_url": "http://www.panoramio.com/user/2661686", "photo_url": "http://www.panoramio.com/photo/37858995", "photo_file_url": "http://mw2.google.com/mw-panoramio/photos/square/37858995.jpg", "owner_id": 2661686}, {"upload_date": "27 August 2009", "owner_name": "mbarowai", "photo_id": 26163416, "longitude": -16.242374, "height": 60, "width": 60, "photo_title": "Boof Poupouye Center (Bohof)", "latitude": 14.468872, "owner_url": "http://www.panoramio.com/user/3594622", "photo_url": "http://www.panoramio.com/photo/26163416", "photo_file_url": "http://mw2.google.com/mw-panoramio/photos/square/26163416.jpg", "owner_id": 3594622}, {"upload_date": "19 December 2008", "owner_name": "AGEPA", "photo_id": 16996948, "longitude": -12.927343, "height": 60, "width": 60, "photo_title": "Istiga Amadou", "latitude": 14.952023, "owner_url": "http://www.panoramio.com/user/2344959", "photo_url": "http://www.panoramio.com/photo/16996948", "photo_file_url": "http://mw2.google.com/mw-panoramio/photos/square/16996948.jpg", "owner_id": 2344959}, {"upload_date": "01 July 2013", "owner_name": "purdon", "photo_id": 92503063, "longitude": -15.958581666666666, "height": 60, "width": 60, "photo_title": "Koba", "latitude": 15.23206388888889, "owner_url": "http://www.panoramio.com/user/650461", "photo_url": "http://www.panoramio.com/photo/92503063", "photo_file_url": "http://mw2.google.com/mw-panoramio/photos/square/92503063.jpg", "owner_id": 650461}, {"upload_date": "14 July 2007", "owner_name": "boababman", "photo_id": 3300540, "longitude": -16.218481, "height": 60, "width": 60, "photo_title": "Hut", "latitude": 15.592616, "owner_url": "http://www.panoramio.com/user/668012", "photo_url": "http://www.panoramio.com/photo/3300540", "photo_file_url": "http://mw2.google.com/mw-panoramio/photos/square/3300540.jpg", "owner_id": 668012},