{"count": 475, "has_more": true, "map_location": {"lat": 40.670035999999996, "panoramio_zoom": 8, "lon": 23.435574643117157}, "photos": [{"upload_date": "20 January 2013", "owner_name": "GRIGORIS", "photo_id": 84989416, "longitude": 23.308869, "height": 60, "width": 60, "photo_title": "\u039d\u03a5\u039c\u03a6\u039f\u03a0\u0395\u03a4\u03a1\u0395\u03a3, \u039f\u0399 \u03a0\u0395\u03a4\u03a1\u0395\u03a3 \u03a4\u03a9\u039d \u039d\u03a5\u039c\u03a6\u03a9\u039d  - NYMFOPETRES (PETRIFIED BRIDE)", "latitude": 40.691727, "owner_url": "http://www.panoramio.com/user/4079685", "owner_id": 4079685, "photo_file_url": "http://mw2.google.com/mw-panoramio/photos/square/84989416.jpg", "photo_url": "http://www.panoramio.com/photo/84989416"}, {"upload_date": "28 October 2012", "owner_name": "GRIGORIS", "photo_id": 81254909, "longitude": 23.10495, "height": 60, "width": 60, "photo_title": "\u0398\u0395\u03a3\u03a3\u0391\u039b\u039f\u039d\u0399\u039a\u0397, \u03a7\u039f\u03a1\u03a4\u0399\u0391\u03a4\u0397\u03a3 - THESSALONIKI HORTIATIS", "latitude": 40.605691, "owner_url": "http://www.panoramio.com/user/4079685", "owner_id": 4079685, "photo_file_url": "http://mw2.google.com/mw-panoramio/photos/square/81254909.jpg", "photo_url": "http://www.panoramio.com/photo/81254909"}, {"upload_date": "21 January 2011", "owner_name": "Themida's photos.", "photo_id": 46861808, "longitude": 23.561463000000003, "height": 60, "width": 60, "photo_title": "\u0394\u03b5\u03b9\u03bb\u03b9\u03bd\u03cc \u03c3\u03c4\u03b7\u03bd \u0392\u03cc\u03bb\u03b2\u03b7...\u03bc\u03b9\u03b1 \u03bc\u03b1\u03c4\u03b9\u03ac \u03c4\u03b7\u03c2 \u03b1\u03b4\u03b5\u03bb\u03c6\u03ae\u03c2 \u03bc\u03bf\u03c5.", "latitude": 40.675858, "owner_url": "http://www.panoramio.com/user/2602289", "owner_id": 2602289, "photo_file_url": "http://mw2.google.com/mw-panoramio/photos/square/46861808.jpg", "photo_url": "http://www.panoramio.com/photo/46861808"}, {"upload_date": "24 October 2011", "owner_name": "gor.maja", "photo_id": 61050273, "longitude": 23.610585, "height": 60, "width": 60, "photo_title": "MARIA'S FARM (and don't forget  click  F11 for full screen)", "latitude": 40.660099, "owner_url": "http://www.panoramio.com/user/2136131", "owner_id": 2136131, "photo_file_url": "http://mw2.google.com/mw-panoramio/photos/square/61050273.jpg", "photo_url": "http://www.panoramio.com/photo/61050273"}, {"upload_date": "22 January 2009", "owner_name": "Eleni K.", "photo_id": 18073869, "longitude": 23.585345, "height": 60, "width": 60, "photo_title": "\u03a0\u03bb\u03ac\u03c4\u03b1\u03bd\u03bf\u03c2 \u0392\u03cc\u03bb\u03b2\u03b7", "latitude": 40.670398, "owner_url": "http://www.panoramio.com/user/2354660", "owner_id": 2354660, "photo_file_url": "http://mw2.google.com/mw-panoramio/photos/square/18073869.jpg", "photo_url": "http://www.panoramio.com/photo/18073869"}, {"upload_date": "11 March 2009", "owner_name": "Alex V.", "photo_id": 19935519, "longitude": 23.122101, "height": 60, "width": 60, "photo_title": "Where is the end ?...", "latitude": 40.658764, "owner_url": "http://www.panoramio.com/user/1446642", "owner_id": 1446642, "photo_file_url": "http://mw2.google.com/mw-panoramio/photos/square/19935519.jpg", "photo_url": "http://www.panoramio.com/photo/19935519"}, {"upload_date": "13 December 2008", "owner_name": "Alex V.", "photo_id": 16828902, "longitude": 23.170166, "height": 60, "width": 60, "photo_title": "Lake Koronia", "latitude": 40.65095, "owner_url": "http://www.panoramio.com/user/1446642", "owner_id": 1446642, "photo_file_url": "http://mw2.google.com/mw-panoramio/photos/square/16828902.jpg", "photo_url": "http://www.panoramio.com/photo/16828902"}, {"upload_date": "09 July 2008", "owner_name": "DailyMadness", "photo_id": 11948988, "longitude": 23.105621, "height": 60, "width": 60, "photo_title": "Thistles and lake - Koronia Lake, Greece", "latitude": 40.674389, "owner_url": "http://www.panoramio.com/user/1287666", "owner_id": 1287666, "photo_file_url": "http://mw2.google.com/mw-panoramio/photos/square/11948988.jpg", "photo_url": "http://www.panoramio.com/photo/11948988"}, {"upload_date": "28 March 2009", "owner_name": "olimpos", "photo_id": 20544607, "longitude": 23.062245, "height": 60, "width": 60, "photo_title": "\u03a3\u03c4\u03bf\u03bb\u03af\u03b4\u03b9\u03b1 \u03c4\u03bf\u03c5 \u03b4\u03ac\u03c3\u03bf\u03c5\u03c2", "latitude": 40.600547, "owner_url": "http://www.panoramio.com/user/1555266", "owner_id": 1555266, "photo_file_url": "http://mw2.google.com/mw-panoramio/photos/square/20544607.jpg", "photo_url": "http://www.panoramio.com/photo/20544607"}, {"upload_date": "13 December 2008", "owner_name": "Alex V.", "photo_id": 16828764, "longitude": 23.475208, "height": 60, "width": 60, "photo_title": "Lake Volvi, Fishing boats...", "latitude": 40.66228, "owner_url": "http://www.panoramio.com/user/1446642", "owner_id": 1446642, "photo_file_url": "http://mw2.google.com/mw-panoramio/photos/square/16828764.jpg", "photo_url": "http://www.panoramio.com/photo/16828764"}, {"upload_date": "07 January 2013", "owner_name": "\u2729 George @ \u266b *", "photo_id": 84386018, "longitude": 23.393669, "height": 60, "width": 60, "photo_title": "Lake Volvi Greece Macedonia Amazing Beautiful place Nature mountain \u039b\u03af\u03bc\u03bd\u03b7 \u0392\u03cc\u03bb\u03b2\u03b7, George @ papaki , ", "latitude": 40.690921, "owner_url": "http://www.panoramio.com/user/6814839", "owner_id": 6814839, "photo_file_url": "http://mw2.google.com/mw-panoramio/photos/square/84386018.jpg", "photo_url": "http://www.panoramio.com/photo/84386018"}, {"upload_date": "27 September 2007", "owner_name": "M@nthos", "photo_id": 4948047, "longitude": 23.467977, "height": 60, "width": 60, "photo_title": "Volvi Lake", "latitude": 40.690352, "owner_url": "http://www.panoramio.com/user/947356", "owner_id": 947356, "photo_file_url": "http://mw2.google.com/mw-panoramio/photos/square/4948047.jpg", "photo_url": "http://www.panoramio.com/photo/4948047"}, {"upload_date": "31 December 2010", "owner_name": "Antony B.", "photo_id": 45844207, "longitude": 23.656173, "height": 60, "width": 60, "photo_title": "Vrasna, Halkidiki, Greece", "latitude": 40.704299, "owner_url": "http://www.panoramio.com/user/4742542", "owner_id": 4742542, "photo_file_url": "http://mw2.google.com/mw-panoramio/photos/square/45844207.jpg", "photo_url": "http://www.panoramio.com/photo/45844207"}, {"upload_date": "17 October 2010", "owner_name": "dragansremac", "photo_id": 42329231, "longitude": 23.550224000000014, "height": 60, "width": 60, "photo_title": "Google Earth", "latitude": 40.657219, "owner_url": "http://www.panoramio.com/user/3924244", "owner_id": 3924244, "photo_file_url": "http://mw2.google.com/mw-panoramio/photos/square/42329231.jpg", "photo_url": "http://www.panoramio.com/photo/42329231"}, {"upload_date": "21 February 2009", "owner_name": "pandimis", "photo_id": 19245240, "longitude": 23.201065, "height": 60, "width": 60, "photo_title": "Lake Koronia (Langadas), 800 years old tree", "latitude": 40.63304, "owner_url": "http://www.panoramio.com/user/31721", "owner_id": 31721, "photo_file_url": "http://mw2.google.com/mw-panoramio/photos/square/19245240.jpg", "photo_url": "http://www.panoramio.com/photo/19245240"}, {"upload_date": "28 August 2008", "owner_name": "Mitsos63", "photo_id": 13570322, "longitude": 23.506107, "height": 60, "width": 60, "photo_title": "thessaloniki pros kavala ", "latitude": 40.692614, "owner_url": "http://www.panoramio.com/user/1630427", "owner_id": 1630427, "photo_file_url": "http://mw2.google.com/mw-panoramio/photos/square/13570322.jpg", "photo_url": "http://www.panoramio.com/photo/13570322"}, {"upload_date": "16 May 2007", "owner_name": "kostas_dinas", "photo_id": 2241004, "longitude": 23.458214, "height": 60, "width": 60, "photo_title": "A river near to Nea Appolonia", "latitude": 40.643852, "owner_url": "http://www.panoramio.com/user/362121", "owner_id": 362121, "photo_file_url": "http://mw2.google.com/mw-panoramio/photos/square/2241004.jpg", "photo_url": "http://www.panoramio.com/photo/2241004"}, {"upload_date": "16 May 2007", "owner_name": "kostas_dinas", "photo_id": 2240982, "longitude": 23.243180999999993, "height": 60, "width": 60, "photo_title": "A river near to Langadikia Village", "latitude": 40.634046, "owner_url": "http://www.panoramio.com/user/362121", "owner_id": 362121, "photo_file_url": "http://mw2.google.com/mw-panoramio/photos/square/2240982.jpg", "photo_url": "http://www.panoramio.com/photo/2240982"}, {"upload_date": "16 May 2007", "owner_name": "kostas_dinas", "photo_id": 2241024, "longitude": 23.25016, "height": 60, "width": 60, "photo_title": "Sholari Village - Near to Langadikia Stream", "latitude": 40.656029, "owner_url": "http://www.panoramio.com/user/362121", "owner_id": 362121, "photo_file_url": "http://mw2.google.com/mw-panoramio/photos/square/2241024.jpg", "photo_url": "http://www.panoramio.com/photo/2241024"}, {"upload_date": "14 March 2008", "owner_name": "effieI", "photo_id": 8523192, "longitude": 23.418045, "height": 60, "width": 60, "photo_title": "A nice moment by the lake", "latitude": 40.691833, "owner_url": "http://www.panoramio.com/user/1459788", "owner_id": 1459788, "photo_file_url": "http://mw2.google.com/mw-panoramio/photos/square/8523192.jpg", "photo_url": "http://www.panoramio.com/photo/8523192"}, {"upload_date": "08 June 2007", "owner_name": "stathisalt", "photo_id": 2641152, "longitude": 23.528595, "height": 60, "width": 60, "photo_title": "Rider Chris 12 years old 40Kg wind 6 knots starboard formula sail 9m", "latitude": 40.643136, "owner_url": "http://www.panoramio.com/user/286663", "owner_id": 286663, "photo_file_url": "http://mw2.google.com/mw-panoramio/photos/square/2641152.jpg", "photo_url": "http://www.panoramio.com/photo/2641152"}, {"upload_date": "17 October 2007", "owner_name": "kostas_dinas", "photo_id": 5369988, "longitude": 23.257198, "height": 60, "width": 60, "photo_title": "Sholari village", "latitude": 40.672111, "owner_url": "http://www.panoramio.com/user/362121", "owner_id": 362121, "photo_file_url": "http://mw2.google.com/mw-panoramio/photos/square/5369988.jpg", "photo_url": "http://www.panoramio.com/photo/5369988"}, {"upload_date": "06 February 2013", "owner_name": "\u2729 George @ \u266b *", "photo_id": 85710267, "longitude": 23.388691, "height": 60, "width": 60, "photo_title": "Beautiful place Amazing Landscape fog Nature mountain land lake Greece Macedonia  George @ papaki \u0392\u03bf\u03c5\u03bd\u03cc \u0394\u03ac\u03c3\u03bf\u03c2 \u03c6\u03cd\u03c3\u03b7 \u03cc\u03bc\u03bf\u03c1\u03c6\u03bf \u03c4\u03bf\u03c0\u03af\u03bf \u0395\u03bb\u03bb\u03ac\u03b4\u03b1 \u039c\u03b1\u03ba\u03b5\u03b4\u03bf\u03bd\u03af\u03b1", "latitude": 40.665666, "owner_url": "http://www.panoramio.com/user/6814839", "owner_id": 6814839, "photo_file_url": "http://mw2.google.com/mw-panoramio/photos/square/85710267.jpg", "photo_url": "http://www.panoramio.com/photo/85710267"}, {"upload_date": "13 October 2007", "owner_name": "kostas_dinas", "photo_id": 5271101, "longitude": 23.285244, "height": 60, "width": 60, "photo_title": "Sakis Greenhouses (Dieythyndis)", "latitude": 40.682444, "owner_url": "http://www.panoramio.com/user/362121", "owner_id": 362121, "photo_file_url": "http://mw2.google.com/mw-panoramio/photos/square/5271101.jpg", "photo_url": "http://www.panoramio.com/photo/5271101"}, {"upload_date": "06 November 2010", "owner_name": "AGGELOS V", "photo_id": 43311215, "longitude": 23.368263000000013, "height": 60, "width": 60, "photo_title": "ON THE ROAD,VIA EGNATIA.", "latitude": 40.700943, "owner_url": "http://www.panoramio.com/user/2607168", "owner_id": 2607168, "photo_file_url": "http://mw2.google.com/mw-panoramio/photos/square/43311215.jpg", "photo_url": "http://www.panoramio.com/photo/43311215"}, {"upload_date": "06 February 2013", "owner_name": "\u2729 George @ \u266b *", "photo_id": 85710268, "longitude": 23.365173, "height": 60, "width": 60, "photo_title": "Beautiful place Amazing Landscape fog Nature mountain land lake Greece Macedonia  George @ papaki \u0392\u03bf\u03c5\u03bd\u03cc \u0394\u03ac\u03c3\u03bf\u03c2 \u03c6\u03cd\u03c3\u03b7 \u03cc\u03bc\u03bf\u03c1\u03c6\u03bf \u03c4\u03bf\u03c0\u03af\u03bf \u0395\u03bb\u03bb\u03ac\u03b4\u03b1 \u039c\u03b1\u03ba\u03b5\u03b4\u03bf\u03bd\u03af\u03b1", "latitude": 40.664494, "owner_url": "http://www.panoramio.com/user/6814839", "owner_id": 6814839, "photo_file_url": "http://mw2.google.com/mw-panoramio/photos/square/85710268.jpg", "photo_url": "http://www.panoramio.com/photo/85710268"}, {"upload_date": "26 May 2007", "owner_name": "stathisalt", "photo_id": 2406997, "longitude": 23.535118, "height": 60, "width": 60, "photo_title": "volvi webcamera foto winter3(www.anemos-volvi.gr/live)", "latitude": 40.628415, "owner_url": "http://www.panoramio.com/user/286663", "owner_id": 286663, "photo_file_url": "http://mw2.google.com/mw-panoramio/photos/square/2406997.jpg", "photo_url": "http://www.panoramio.com/photo/2406997"}, {"upload_date": "21 December 2007", "owner_name": "Udo H. Winter", "photo_id": 6596883, "longitude": 23.108282, "height": 60, "width": 60, "photo_title": "Dying Lake Koroneia", "latitude": 40.688709, "owner_url": "http://www.panoramio.com/user/1208526", "owner_id": 1208526, "photo_file_url": "http://mw2.google.com/mw-panoramio/photos/square/6596883.jpg", "photo_url": "http://www.panoramio.com/photo/6596883"}, {"upload_date": "14 December 2010", "owner_name": "Panagiotis Kas", "photo_id": 45022515, "longitude": 23.05071699999999, "height": 60, "width": 60, "photo_title": "Thessaloniki's Harbour and Thermaic Gulf - View from Chortiatis", "latitude": 40.636283, "owner_url": "http://www.panoramio.com/user/873306", "owner_id": 873306, "photo_file_url": "http://mw2.google.com/mw-panoramio/photos/square/45022515.jpg", "photo_url": "http://www.panoramio.com/photo/45022515"}, {"upload_date": "09 August 2010", "owner_name": "spourgitis", "photo_id": 39044344, "longitude": 23.441476999999992, "height": 60, "width": 60, "photo_title": "\u0392\u039f\u039b\u0392\u0397", "latitude": 40.691572, "owner_url": "http://www.panoramio.com/user/4549718", "owner_id": 4549718, "photo_file_url": "http://mw2.google.com/mw-panoramio/photos/square/39044344.jpg", "photo_url": "http://www.panoramio.com/photo/39044344"}, {"upload_date": "11 November 2011", "owner_name": "Prebo", "photo_id": 62001650, "longitude": 23.679228, "height": 60, "width": 60, "photo_title": "Island in the distance", "latitude": 40.71596, "owner_url": "http://www.panoramio.com/user/1417348", "owner_id": 1417348, "photo_file_url": "http://mw2.google.com/mw-panoramio/photos/square/62001650.jpg", "photo_url": "http://www.panoramio.com/photo/62001650"}, {"upload_date": "04 June 2012", "owner_name": "\u2729 George @ \u266b *", "photo_id": 73209667, "longitude": 23.657783, "height": 60, "width": 60, "photo_title": "Windmill \u03b1\u03bd\u03b5\u03bc\u03cc\u03bc\u03c5\u03bb\u03bf\u03c2 Greece Macedonia", "latitude": 40.669283, "owner_url": "http://www.panoramio.com/user/6814839", "owner_id": 6814839, "photo_file_url": "http://mw2.google.com/mw-panoramio/photos/square/73209667.jpg", "photo_url": "http://www.panoramio.com/photo/73209667"}, {"upload_date": "14 July 2010", "owner_name": "spourgitis", "photo_id": 37927246, "longitude": 23.447936, "height": 60, "width": 60, "photo_title": "\u0392\u039f\u039b\u0392\u0397", "latitude": 40.668449, "owner_url": "http://www.panoramio.com/user/4549718", "owner_id": 4549718, "photo_file_url": "http://mw2.google.com/mw-panoramio/photos/square/37927246.jpg", "photo_url": "http://www.panoramio.com/photo/37927246"}, {"upload_date": "06 February 2013", "owner_name": "\u2729 George @ \u266b *", "photo_id": 85710275, "longitude": 23.559837, "height": 60, "width": 60, "photo_title": "Beautiful place Amazing Landscape tree Nature Greece Macedonia  George @ papaki \u0392\u03bf\u03c5\u03bd\u03cc \u0394\u03ac\u03c3\u03bf\u03c2 \u03c6\u03cd\u03c3\u03b7 \u03cc\u03bc\u03bf\u03c1\u03c6\u03bf \u03c4\u03bf\u03c0\u03af\u03bf \u0395\u03bb\u03bb\u03ac\u03b4\u03b1 \u039c\u03b1\u03ba\u03b5\u03b4\u03bf\u03bd\u03af\u03b1", "latitude": 40.613952, "owner_url": "http://www.panoramio.com/user/6814839", "owner_id": 6814839, "photo_file_url": "http://mw2.google.com/mw-panoramio/photos/square/85710275.jpg", "photo_url": "http://www.panoramio.com/photo/85710275"}, {"upload_date": "15 May 2011", "owner_name": "Periklis.Siopis.", "photo_id": 52695364, "longitude": 23.084282, "height": 60, "width": 60, "photo_title": "\u039b\u03bf\u03c5\u03c4\u03c1\u03ac \u039b\u03b1\u03b3\u03ba\u03b1\u03b4\u03ac.", "latitude": 40.734682, "owner_url": "http://www.panoramio.com/user/3633435", "owner_id": 3633435, "photo_file_url": "http://mw2.google.com/mw-panoramio/photos/square/52695364.jpg", "photo_url": "http://www.panoramio.com/photo/52695364"}, {"upload_date": "04 June 2012", "owner_name": "\u2729 George @ \u266b *", "photo_id": 73208020, "longitude": 23.225348, "height": 60, "width": 60, "photo_title": "Amazing Beautiful Sunset  Greece Macedonia", "latitude": 40.599296, "owner_url": "http://www.panoramio.com/user/6814839", "owner_id": 6814839, "photo_file_url": "http://mw2.google.com/mw-panoramio/photos/square/73208020.jpg", "photo_url": "http://www.panoramio.com/photo/73208020"}, {"upload_date": "21 September 2012", "owner_name": "\u25c4Maria \u0397-S\u25ba", "photo_id": 79293003, "longitude": 23.081847, "height": 60, "width": 60, "photo_title": "\u039a\u03b5\u03bd\u03c4\u03c1\u03b9\u03ba\u03ae \u039c\u03b1\u03ba\u03b5\u03b4\u03bf\u03bd\u03af\u03b1 - \u0397 \u039d. \u03a3\u03ac\u03bd\u03c4\u03b1 \u03b1\u03c0\u03cc \u03c4\u03bf \u03a7\u03bf\u03c1\u03c4\u03b9\u03ac\u03c4\u03b7 /\\ Central Makedonia - N. Santa from Hortiatis mt. ", "latitude": 40.650859, "owner_url": "http://www.panoramio.com/user/1698637", "owner_id": 1698637, "photo_file_url": "http://mw2.google.com/mw-panoramio/photos/square/79293003.jpg", "photo_url": "http://www.panoramio.com/photo/79293003"}, {"upload_date": "26 August 2010", "owner_name": "bosko macura", "photo_id": 39846394, "longitude": 23.546233, "height": 60, "width": 60, "photo_title": "\u0421\u0432.\u0413\u0435\u043e\u0440\u0433\u0438\u0458\u0435 - \u041b\u0435\u0444\u043a\u043e\u0443\u0434\u0430", "latitude": 40.73786, "owner_url": "http://www.panoramio.com/user/2434177", "owner_id": 2434177, "photo_file_url": "http://mw2.google.com/mw-panoramio/photos/square/39846394.jpg", "photo_url": "http://www.panoramio.com/photo/39846394"}, {"upload_date": "21 December 2007", "owner_name": "Udo H. Winter", "photo_id": 6597082, "longitude": 23.215313, "height": 60, "width": 60, "photo_title": "Summertime Sunset in Evangelismos", "latitude": 40.695086, "owner_url": "http://www.panoramio.com/user/1208526", "owner_id": 1208526, "photo_file_url": "http://mw2.google.com/mw-panoramio/photos/square/6597082.jpg", "photo_url": "http://www.panoramio.com/photo/6597082"}, {"upload_date": "12 November 2013", "owner_name": "GRIGORIS", "photo_id": 99171789, "longitude": 23.109527, "height": 60, "width": 60, "photo_title": "\u03a3\u03a4\u039f \u0394\u0391\u03a3\u039f\u03a3 \u03a4\u039f\u03a5 \u03a7\u039f\u03a1\u03a4\u0399\u0391\u03a4\u0397 - HORTIATIS MOUNTAIN FOREST", "latitude": 40.598607, "owner_url": "http://www.panoramio.com/user/4079685", "owner_id": 4079685, "photo_file_url": "http://mw2.google.com/mw-panoramio/photos/square/99171789.jpg", "photo_url": "http://www.panoramio.com/photo/99171789"}, {"upload_date": "18 July 2010", "owner_name": "pepeljuga1", "photo_id": 38077640, "longitude": 23.693561999999986, "height": 60, "width": 60, "photo_title": "i.. odjednom ti", "latitude": 40.675561, "owner_url": "http://www.panoramio.com/user/1723043", "owner_id": 1723043, "photo_file_url": "http://mw2.google.com/mw-panoramio/photos/square/38077640.jpg", "photo_url": "http://www.panoramio.com/photo/38077640"}, {"upload_date": "07 January 2013", "owner_name": "\u2665\u266b Katerina @ Greece", "photo_id": 84388904, "longitude": 23.404827, "height": 60, "width": 60, "photo_title": "Where is the sun?..", "latitude": 40.693638, "owner_url": "http://www.panoramio.com/user/6816552", "owner_id": 6816552, "photo_file_url": "http://mw2.google.com/mw-panoramio/photos/square/84388904.jpg", "photo_url": "http://www.panoramio.com/photo/84388904"}, {"upload_date": "19 June 2010", "owner_name": "pepeljuga1", "photo_id": 36936654, "longitude": 23.693561999999986, "height": 60, "width": 60, "photo_title": "c'mon it's time to go", "latitude": 40.670678, "owner_url": "http://www.panoramio.com/user/1723043", "owner_id": 1723043, "photo_file_url": "http://mw2.google.com/mw-panoramio/photos/square/36936654.jpg", "photo_url": "http://www.panoramio.com/photo/36936654"}, {"upload_date": "07 July 2014", "owner_name": "KARANESHEV3112", "photo_id": 109026980, "longitude": 23.673992, "height": 60, "width": 60, "photo_title": "\u03a3\u03c4\u03b1\u03c5\u03c1\u03cc\u03c2", "latitude": 40.66355, "owner_url": "http://www.panoramio.com/user/3794713", "owner_id": 3794713, "photo_file_url": "http://mw2.google.com/mw-panoramio/photos/square/109026980.jpg", "photo_url": "http://www.panoramio.com/photo/109026980"}, {"upload_date": "09 July 2008", "owner_name": "DailyMadness", "photo_id": 11943067, "longitude": 23.101501, "height": 60, "width": 60, "photo_title": "Lake Koronoia - Thessaloni", "latitude": 40.669702, "owner_url": "http://www.panoramio.com/user/1287666", "owner_id": 1287666, "photo_file_url": "http://mw2.google.com/mw-panoramio/photos/square/11943067.jpg", "photo_url": "http://www.panoramio.com/photo/11943067"}, {"upload_date": "31 July 2010", "owner_name": "zoran sremski", "photo_id": 38658834, "longitude": 23.693118, "height": 60, "width": 60, "photo_title": "\u0410\u0441\u043f\u0440\u043e\u0432\u0430\u043b\u0442\u0430 - Asprovalta", "latitude": 40.735643, "owner_url": "http://www.panoramio.com/user/2562037", "owner_id": 2562037, "photo_file_url": "http://mw2.google.com/mw-panoramio/photos/square/38658834.jpg", "photo_url": "http://www.panoramio.com/photo/38658834"}, {"upload_date": "16 October 2007", "owner_name": "aloismilacek", "photo_id": 5347661, "longitude": 23.68927, "height": 60, "width": 60, "photo_title": "Stavros", "latitude": 40.676472, "owner_url": "http://www.panoramio.com/user/651471", "owner_id": 651471, "photo_file_url": "http://mw2.google.com/mw-panoramio/photos/square/5347661.jpg", "photo_url": "http://www.panoramio.com/photo/5347661"}, {"upload_date": "13 December 2008", "owner_name": "Alex V.", "photo_id": 16829777, "longitude": 23.122444, "height": 60, "width": 60, "photo_title": "Lake Koronia 2", "latitude": 40.663712, "owner_url": "http://www.panoramio.com/user/1446642", "owner_id": 1446642, "photo_file_url": "http://mw2.google.com/mw-panoramio/photos/square/16829777.jpg", "photo_url": "http://www.panoramio.com/photo/16829777"}, {"upload_date": "13 December 2008", "owner_name": "Alex V.", "photo_id": 16828806, "longitude": 23.480186, "height": 60, "width": 60, "photo_title": "Lake Volvi, Pelicans...", "latitude": 40.665015, "owner_url": "http://www.panoramio.com/user/1446642", "owner_id": 1446642, "photo_file_url": "http://mw2.google.com/mw-panoramio/photos/square/16828806.jpg", "photo_url": "http://www.panoramio.com/photo/16828806"}, {"upload_date": "04 May 2008", "owner_name": "lorenzogdnz", "photo_id": 9916475, "longitude": 23.409977, "height": 60, "width": 60, "photo_title": "Lake Volvi (2002)", "latitude": 40.659155, "owner_url": "http://www.panoramio.com/user/1666656", "owner_id": 1666656, "photo_file_url": "http://mw2.google.com/mw-panoramio/photos/square/9916475.jpg", "photo_url": "http://www.panoramio.com/photo/9916475"}, {"upload_date": "30 May 2007", "owner_name": "kostas_dinas", "photo_id": 2468916, "longitude": 23.252735, "height": 60, "width": 60, "photo_title": "The big plane-tree near to Sholari Village", "latitude": 40.66853, "owner_url": "http://www.panoramio.com/user/362121", "owner_id": 362121, "photo_file_url": "http://mw2.google.com/mw-panoramio/photos/square/2468916.jpg", "photo_url": "http://www.panoramio.com/photo/2468916"}, {"upload_date": "30 August 2008", "owner_name": "\u25c4Maria \u0397-S\u25ba", "photo_id": 13647056, "longitude": 23.560946, "height": 60, "width": 60, "photo_title": "Rendina -The Macedonian Tempi", "latitude": 40.686495, "owner_url": "http://www.panoramio.com/user/1698637", "owner_id": 1698637, "photo_file_url": "http://mw2.google.com/mw-panoramio/photos/square/13647056.jpg", "photo_url": "http://www.panoramio.com/photo/13647056"}, {"upload_date": "06 February 2013", "owner_name": "\u2729 George @ \u266b *", "photo_id": 85710271, "longitude": 23.458214, "height": 60, "width": 60, "photo_title": "Beautiful place Amazing Landscape fog Nature mountain land lake Greece Macedonia  George @ papaki \u0392\u03bf\u03c5\u03bd\u03cc \u0394\u03ac\u03c3\u03bf\u03c2 \u03c6\u03cd\u03c3\u03b7 \u03cc\u03bc\u03bf\u03c1\u03c6\u03bf \u03c4\u03bf\u03c0\u03af\u03bf \u0395\u03bb\u03bb\u03ac\u03b4\u03b1 \u039c\u03b1\u03ba\u03b5\u03b4\u03bf\u03bd\u03af\u03b1", "latitude": 40.690531, "owner_url": "http://www.panoramio.com/user/6814839", "owner_id": 6814839, "photo_file_url": "http://mw2.google.com/mw-panoramio/photos/square/85710271.jpg", "photo_url": "http://www.panoramio.com/photo/85710271"}, {"upload_date": "13 November 2009", "owner_name": "spurgitis", "photo_id": 28825492, "longitude": 23.56944999999999, "height": 60, "width": 60, "photo_title": "\u039b\u0399\u039c\u039d\u0397 \u0392\u039f\u039b\u0392\u0397", "latitude": 40.675951, "owner_url": "http://www.panoramio.com/user/3459072", "owner_id": 3459072, "photo_file_url": "http://mw2.google.com/mw-panoramio/photos/square/28825492.jpg", "photo_url": "http://www.panoramio.com/photo/28825492"}, {"upload_date": "18 February 2011", "owner_name": "Mirjana Bjelica", "photo_id": 48320854, "longitude": 23.609147000000007, "height": 60, "width": 60, "photo_title": "Crkva Sv. Marija", "latitude": 40.652171, "owner_url": "http://www.panoramio.com/user/5544552", "owner_id": 5544552, "photo_file_url": "http://mw2.google.com/mw-panoramio/photos/square/48320854.jpg", "photo_url": "http://www.panoramio.com/photo/48320854"}, {"upload_date": "16 May 2007", "owner_name": "kostas_dinas", "photo_id": 2240980, "longitude": 23.26046, "height": 60, "width": 60, "photo_title": "View of fields near Langadikia", "latitude": 40.637079, "owner_url": "http://www.panoramio.com/user/362121", "owner_id": 362121, "photo_file_url": "http://mw2.google.com/mw-panoramio/photos/square/2240980.jpg", "photo_url": "http://www.panoramio.com/photo/2240980"}, {"upload_date": "17 October 2007", "owner_name": "kostas_dinas", "photo_id": 5369976, "longitude": 23.1633, "height": 60, "width": 60, "photo_title": "Koronia Lake", "latitude": 40.653295, "owner_url": "http://www.panoramio.com/user/362121", "owner_id": 362121, "photo_file_url": "http://mw2.google.com/mw-panoramio/photos/square/5369976.jpg", "photo_url": "http://www.panoramio.com/photo/5369976"}, {"upload_date": "16 November 2011", "owner_name": "Thomas Esch", "photo_id": 62258579, "longitude": 23.100234999999998, "height": 60, "width": 60, "photo_title": "Teilgetrockneter Staussee 'Limni Koreneias' \u00f6stl. von Thessaloniki", "latitude": 40.631542, "owner_url": "http://www.panoramio.com/user/1178395", "owner_id": 1178395, "photo_file_url": "http://mw2.google.com/mw-panoramio/photos/square/62258579.jpg", "photo_url": "http://www.panoramio.com/photo/62258579"}, {"upload_date": "03 June 2012", "owner_name": "Manousos Nanakis", "photo_id": 73127315, "longitude": 23.580719, "height": 60, "width": 60, "photo_title": "******", "latitude": 40.671264, "owner_url": "http://www.panoramio.com/user/6957436", "owner_id": 6957436, "photo_file_url": "http://mw2.google.com/mw-panoramio/photos/square/73127315.jpg", "photo_url": "http://www.panoramio.com/photo/73127315"}, {"upload_date": "04 June 2007", "owner_name": "stathisalt", "photo_id": 2572385, "longitude": 23.536835, "height": 60, "width": 60, "photo_title": "Naish camp Lake Volvi", "latitude": 40.630956, "owner_url": "http://www.panoramio.com/user/286663", "owner_id": 286663, "photo_file_url": "http://mw2.google.com/mw-panoramio/photos/square/2572385.jpg", "photo_url": "http://www.panoramio.com/photo/2572385"}, {"upload_date": "08 July 2013", "owner_name": "\u0421\u0430\u0448\u0430 - \u0411\u0440\u0430\u0442 \u041c\u0435\u0434\u0430", "photo_id": 92823429, "longitude": 23.693454, "height": 60, "width": 60, "photo_title": "Stavros - u susret zori", "latitude": 40.671867, "owner_url": "http://www.panoramio.com/user/3438470", "owner_id": 3438470, "photo_file_url": "http://mw2.google.com/mw-panoramio/photos/square/92823429.jpg", "photo_url": "http://www.panoramio.com/photo/92823429"}, {"upload_date": "28 January 2012", "owner_name": "selapost", "photo_id": 65682187, "longitude": 23.100781, "height": 60, "width": 60, "photo_title": "\u039f \u03a7\u03bf\u03c1\u03c4\u03b9\u03ac\u03c4\u03b7\u03c2 ( \u03c4\u03bf \u03b2\u03bf\u03c5\u03bd\u03cc \u03c0\u03bf\u03c5 \u03b6\u03ce\u03bd\u03b5\u03b9 \u03c4\u03b7\u03bd \u0398\u03b5\u03c3\u03c3\u03b1\u03bb\u03bf\u03bd\u03af\u03ba\u03b7 \u03bc\u03b1\u03c2 ) \u03bc\u03b5 \u03b5\u03bb\u03b1\u03c6\u03c1\u03cd \u03c7\u03b9\u03bf\u03bd\u03ac\u03ba\u03b9 - \u03c0\u03b1\u03b3\u03c9\u03bc\u03ad\u03bd\u03bf \u03c0\u03bf\u03cd\u03c3\u03b9 - The Hortiatis (the mountain areas Thessaloniki us) with a light chionaki - ice fog.", "latitude": 40.6093789, "owner_url": "http://www.panoramio.com/user/1567382", "owner_id": 1567382, "photo_file_url": "http://mw2.google.com/mw-panoramio/photos/square/65682187.jpg", "photo_url": "http://www.panoramio.com/photo/65682187"}, {"upload_date": "29 February 2008", "owner_name": "vr_caveman", "photo_id": 8181230, "longitude": 23.681719, "height": 60, "width": 60, "photo_title": "No way - Only rivulet", "latitude": 40.646206, "owner_url": "http://www.panoramio.com/user/1447879", "owner_id": 1447879, "photo_file_url": "http://mw2.google.com/mw-panoramio/photos/square/8181230.jpg", "photo_url": "http://www.panoramio.com/photo/8181230"}, {"upload_date": "07 January 2013", "owner_name": "\u2729 George @ \u266b *", "photo_id": 84386013, "longitude": 23.366203, "height": 60, "width": 60, "photo_title": "\u039b\u03af\u03bc\u03bd\u03b7 \u0392\u03cc\u03bb\u03b2\u03b7, limni Lake Volvi, George @ papaki , Lake Volvi Greece Macedonia Amazing Beautiful place Nature mountain \u0395\u03bb\u03bb\u03ac\u03b4\u03b1 \u039c\u03b1\u03ba\u03b5\u03b4\u03bf\u03bd\u03af\u03b1 \u03c6\u03cd\u03c3\u03b7 \u03cc\u03bc\u03bf\u03c1\u03c6\u03bf \u03c4\u03bf\u03c0\u03af\u03bf", "latitude": 40.693525, "owner_url": "http://www.panoramio.com/user/6814839", "owner_id": 6814839, "photo_file_url": "http://mw2.google.com/mw-panoramio/photos/square/84386013.jpg", "photo_url": "http://www.panoramio.com/photo/84386013"}, {"upload_date": "20 March 2010", "owner_name": "lexovitis", "photo_id": 33436802, "longitude": 23.664783, "height": 60, "width": 60, "photo_title": "Greece,Thessaloniki-Vrasna-\u0392\u03c1\u03b1\u03c3\u03bd\u03ac", "latitude": 40.711586, "owner_url": "http://www.panoramio.com/user/1455945", "owner_id": 1455945, "photo_file_url": "http://mw2.google.com/mw-panoramio/photos/square/33436802.jpg", "photo_url": "http://www.panoramio.com/photo/33436802"}, {"upload_date": "04 June 2007", "owner_name": "stathisalt", "photo_id": 2572239, "longitude": 23.527822, "height": 60, "width": 60, "photo_title": "Lake Volvi after 10/2006 storm", "latitude": 40.639749, "owner_url": "http://www.panoramio.com/user/286663", "owner_id": 286663, "photo_file_url": "http://mw2.google.com/mw-panoramio/photos/square/2572239.jpg", "photo_url": "http://www.panoramio.com/photo/2572239"}, {"upload_date": "07 September 2011", "owner_name": "zoran sremski", "photo_id": 58613930, "longitude": 23.651863, "height": 60, "width": 60, "photo_title": "\u0412\u0440\u0430\u0441\u043d\u0430 - Vrasna", "latitude": 40.706439, "owner_url": "http://www.panoramio.com/user/2562037", "owner_id": 2562037, "photo_file_url": "http://mw2.google.com/mw-panoramio/photos/square/58613930.jpg", "photo_url": "http://www.panoramio.com/photo/58613930"}, {"upload_date": "26 August 2007", "owner_name": "Savvikos", "photo_id": 4192744, "longitude": 23.499755859375, "height": 60, "width": 60, "photo_title": "Volvi", "latitude": 40.690140502725, "owner_url": "http://www.panoramio.com/user/32892", "owner_id": 32892, "photo_file_url": "http://mw2.google.com/mw-panoramio/photos/square/4192744.jpg", "photo_url": "http://www.panoramio.com/photo/4192744"}, {"upload_date": "01 October 2013", "owner_name": "\u2729 George @ \u266b *", "photo_id": 97107672, "longitude": 23.48147399999999, "height": 60, "width": 60, "photo_title": "Beautiful place Amazing Landscape fog Nature mountain land lake Greece Macedonia George @", "latitude": 40.6684, "owner_url": "http://www.panoramio.com/user/6814839", "owner_id": 6814839, "photo_file_url": "http://mw2.google.com/mw-panoramio/photos/square/97107672.jpg", "photo_url": "http://www.panoramio.com/photo/97107672"}, {"upload_date": "07 January 2009", "owner_name": "smiles@u", "photo_id": 17574815, "longitude": 23.543250999999998, "height": 60, "width": 60, "photo_title": "\"Nature in love again\" Macedonia Greece", "latitude": 40.627959, "owner_url": "http://www.panoramio.com/user/76921", "owner_id": 76921, "photo_file_url": "http://mw2.google.com/mw-panoramio/photos/square/17574815.jpg", "photo_url": "http://www.panoramio.com/photo/17574815"}, {"upload_date": "07 January 2013", "owner_name": "\u2729 George @ \u266b *", "photo_id": 84386017, "longitude": 23.398476, "height": 60, "width": 60, "photo_title": "\u039b\u03af\u03bc\u03bd\u03b7 \u0392\u03cc\u03bb\u03b2\u03b7, limni Lake Volvi, George @ papaki , Lake Volvi Greece Macedonia Amazing Beautiful place Nature mountain \u0395\u03bb\u03bb\u03ac\u03b4\u03b1 \u039c\u03b1\u03ba\u03b5\u03b4\u03bf\u03bd\u03af\u03b1 \u03c6\u03cd\u03c3\u03b7 \u03cc\u03bc\u03bf\u03c1\u03c6\u03bf \u03c4\u03bf\u03c0\u03af\u03bf", "latitude": 40.691572, "owner_url": "http://www.panoramio.com/user/6814839", "owner_id": 6814839, "photo_file_url": "http://mw2.google.com/mw-panoramio/photos/square/84386017.jpg", "photo_url": "http://www.panoramio.com/photo/84386017"}, {"upload_date": "30 May 2010", "owner_name": "Stylianos Kanakaris / \u03a3\u03c4\u03c5\u03bb\u03b9\u03b1\u03bd\u03bf\u03c2 \u039a\u03b1\u03bd\u03b1\u03ba\u03b1\u03c1\u03b7\u03c2", "photo_id": 36172584, "longitude": 23.543830000000014, "height": 60, "width": 60, "photo_title": "lake volvi", "latitude": 40.680467, "owner_url": "http://www.panoramio.com/user/2130153", "owner_id": 2130153, "photo_file_url": "http://mw2.google.com/mw-panoramio/photos/square/36172584.jpg", "photo_url": "http://www.panoramio.com/photo/36172584"}, {"upload_date": "27 April 2008", "owner_name": "Ji\u0159\u00ed Stach", "photo_id": 9722773, "longitude": 23.668027, "height": 60, "width": 60, "photo_title": "Nea Vrasna,panorama", "latitude": 40.71607, "owner_url": "http://www.panoramio.com/user/570785", "owner_id": 570785, "photo_file_url": "http://mw2.google.com/mw-panoramio/photos/square/9722773.jpg", "photo_url": "http://www.panoramio.com/photo/9722773"}, {"upload_date": "11 November 2011", "owner_name": "Prebo", "photo_id": 62001589, "longitude": 23.676739, "height": 60, "width": 60, "photo_title": "Nea Vrasna from the hill", "latitude": 40.727356, "owner_url": "http://www.panoramio.com/user/1417348", "owner_id": 1417348, "photo_file_url": "http://mw2.google.com/mw-panoramio/photos/square/62001589.jpg", "photo_url": "http://www.panoramio.com/photo/62001589"}, {"upload_date": "29 February 2008", "owner_name": "vr_caveman", "photo_id": 8181337, "longitude": 23.691695, "height": 60, "width": 60, "photo_title": "Coming down from hill", "latitude": 40.65511, "owner_url": "http://www.panoramio.com/user/1447879", "owner_id": 1447879, "photo_file_url": "http://mw2.google.com/mw-panoramio/photos/square/8181337.jpg", "photo_url": "http://www.panoramio.com/photo/8181337"}, {"upload_date": "20 March 2010", "owner_name": "lexovitis", "photo_id": 33436152, "longitude": 23.553314, "height": 60, "width": 60, "photo_title": "Greece,Thessaloniki-Lake Volvi-\u039b\u03af\u03bc\u03bd\u03b7 \u0392\u03cc\u03bb\u03b2\u03b7", "latitude": 40.678555, "owner_url": "http://www.panoramio.com/user/1455945", "owner_id": 1455945, "photo_file_url": "http://mw2.google.com/mw-panoramio/photos/square/33436152.jpg", "photo_url": "http://www.panoramio.com/photo/33436152"}, {"upload_date": "11 November 2011", "owner_name": "Prebo", "photo_id": 61996170, "longitude": 23.685354, "height": 60, "width": 60, "photo_title": "Run to the Hills", "latitude": 40.713263, "owner_url": "http://www.panoramio.com/user/1417348", "owner_id": 1417348, "photo_file_url": "http://mw2.google.com/mw-panoramio/photos/square/61996170.jpg", "photo_url": "http://www.panoramio.com/photo/61996170"}, {"upload_date": "07 January 2013", "owner_name": "\u2729 George @ \u266b *", "photo_id": 84386014, "longitude": 23.433838, "height": 60, "width": 60, "photo_title": "\u039b\u03af\u03bc\u03bd\u03b7 \u0392\u03cc\u03bb\u03b2\u03b7, limni Lake Volvi, George @ papaki , Lake Volvi Greece Macedonia Amazing Beautiful place Nature mountain \u0395\u03bb\u03bb\u03ac\u03b4\u03b1 \u039c\u03b1\u03ba\u03b5\u03b4\u03bf\u03bd\u03af\u03b1 \u03c6\u03cd\u03c3\u03b7 \u03cc\u03bc\u03bf\u03c1\u03c6\u03bf \u03c4\u03bf\u03c0\u03af\u03bf", "latitude": 40.690141, "owner_url": "http://www.panoramio.com/user/6814839", "owner_id": 6814839, "photo_file_url": "http://mw2.google.com/mw-panoramio/photos/square/84386014.jpg", "photo_url": "http://www.panoramio.com/photo/84386014"}, {"upload_date": "09 February 2008", "owner_name": "geodis", "photo_id": 7706122, "longitude": 23.622751, "height": 60, "width": 60, "photo_title": "View from Redina's  Castle", "latitude": 40.656485, "owner_url": "http://www.panoramio.com/user/913681", "owner_id": 913681, "photo_file_url": "http://mw2.google.com/mw-panoramio/photos/square/7706122.jpg", "photo_url": "http://www.panoramio.com/photo/7706122"}, {"upload_date": "25 June 2009", "owner_name": "Topi_2", "photo_id": 23804981, "longitude": 23.689989, "height": 60, "width": 60, "photo_title": "Datolya", "latitude": 40.666862, "owner_url": "http://www.panoramio.com/user/686174", "owner_id": 686174, "photo_file_url": "http://mw2.google.com/mw-panoramio/photos/square/23804981.jpg", "photo_url": "http://www.panoramio.com/photo/23804981"}, {"upload_date": "11 November 2011", "owner_name": "Prebo", "photo_id": 61995428, "longitude": 23.692263, "height": 60, "width": 60, "photo_title": "Church", "latitude": 40.703097, "owner_url": "http://www.panoramio.com/user/1417348", "owner_id": 1417348, "photo_file_url": "http://mw2.google.com/mw-panoramio/photos/square/61995428.jpg", "photo_url": "http://www.panoramio.com/photo/61995428"}, {"upload_date": "06 February 2013", "owner_name": "\u2729 George @ \u266b *", "photo_id": 85710276, "longitude": 23.556747, "height": 60, "width": 60, "photo_title": "Beautiful place Amazing Landscape tree Nature Greece Macedonia  George @ papaki \u0392\u03bf\u03c5\u03bd\u03cc \u0394\u03ac\u03c3\u03bf\u03c2 \u03c6\u03cd\u03c3\u03b7 \u03cc\u03bc\u03bf\u03c1\u03c6\u03bf \u03c4\u03bf\u03c0\u03af\u03bf \u0395\u03bb\u03bb\u03ac\u03b4\u03b1 \u039c\u03b1\u03ba\u03b5\u03b4\u03bf\u03bd\u03af\u03b1", "latitude": 40.62568, "owner_url": "http://www.panoramio.com/user/6814839", "owner_id": 6814839, "photo_file_url": "http://mw2.google.com/mw-panoramio/photos/square/85710276.jpg", "photo_url": "http://www.panoramio.com/photo/85710276"}, {"upload_date": "25 December 2009", "owner_name": "makedon62", "photo_id": 30250315, "longitude": 23.175745, "height": 60, "width": 60, "photo_title": "\u03be\u03b5\u03c1\u03ae \u03bb\u03af\u03bc\u03bd\u03b7", "latitude": 40.648541, "owner_url": "http://www.panoramio.com/user/3292521", "owner_id": 3292521, "photo_file_url": "http://mw2.google.com/mw-panoramio/photos/square/30250315.jpg", "photo_url": "http://www.panoramio.com/photo/30250315"}, {"upload_date": "06 February 2013", "owner_name": "\u2729 George @ \u266b *", "photo_id": 85710269, "longitude": 23.3741, "height": 60, "width": 60, "photo_title": "Beautiful place Amazing Landscape fog Nature mountain land lake Greece Macedonia  George @ papaki \u0392\u03bf\u03c5\u03bd\u03cc \u0394\u03ac\u03c3\u03bf\u03c2 \u03c6\u03cd\u03c3\u03b7 \u03cc\u03bc\u03bf\u03c1\u03c6\u03bf \u03c4\u03bf\u03c0\u03af\u03bf \u0395\u03bb\u03bb\u03ac\u03b4\u03b1 \u039c\u03b1\u03ba\u03b5\u03b4\u03bf\u03bd\u03af\u03b1", "latitude": 40.664233, "owner_url": "http://www.panoramio.com/user/6814839", "owner_id": 6814839, "photo_file_url": "http://mw2.google.com/mw-panoramio/photos/square/85710269.jpg", "photo_url": "http://www.panoramio.com/photo/85710269"}, {"upload_date": "04 June 2012", "owner_name": "\u2665\u266b Katerina @ Greece", "photo_id": 73198768, "longitude": 23.544204, "height": 60, "width": 60, "photo_title": "\u03c4\u03bf \u03c4\u03ad\u03bb\u03bf\u03c2 \u03bc\u03af\u03b1\u03c2 \u03cc\u03bc\u03bf\u03c1\u03c6\u03b7\u03c2 \u03bc\u03ad\u03c1\u03b1\u03c2...", "latitude": 40.624933, "owner_url": "http://www.panoramio.com/user/6816552", "owner_id": 6816552, "photo_file_url": "http://mw2.google.com/mw-panoramio/photos/square/73198768.jpg", "photo_url": "http://www.panoramio.com/photo/73198768"}, {"upload_date": "23 November 2012", "owner_name": "Charli33", "photo_id": 82475396, "longitude": 23.562734, "height": 60, "width": 60, "photo_title": "Wonderfull sunset over the lake", "latitude": 40.630125, "owner_url": "http://www.panoramio.com/user/7139864", "owner_id": 7139864, "photo_file_url": "http://mw2.google.com/mw-panoramio/photos/square/82475396.jpg", "photo_url": "http://www.panoramio.com/photo/82475396"}, {"upload_date": "03 May 2011", "owner_name": "Xenofwn79", "photo_id": 52085885, "longitude": 23.048887, "height": 60, "width": 60, "photo_title": "\u0397\u03bb\u03b9\u03bf\u03b2\u03b1\u03c3\u03af\u03bb\u03b5\u03bc\u03b1 \u03b1\u03c0\u03cc \u03c4\u03bf \u03a0\u03b1\u03bd\u03cc\u03c1\u03b1\u03bc\u03b1", "latitude": 40.60092, "owner_url": "http://www.panoramio.com/user/5825520", "owner_id": 5825520, "photo_file_url": "http://mw2.google.com/mw-panoramio/photos/square/52085885.jpg", "photo_url": "http://www.panoramio.com/photo/52085885"}, {"upload_date": "26 August 2010", "owner_name": "bosko macura", "photo_id": 39846407, "longitude": 23.466624999999993, "height": 60, "width": 60, "photo_title": "\u041a\u0430\u043f\u0435\u043b\u0438\u0446\u0430 - \u0424\u0438\u043b\u0430\u0434\u0435\u043b\u0444\u0438\u043e", "latitude": 40.748297, "owner_url": "http://www.panoramio.com/user/2434177", "owner_id": 2434177, "photo_file_url": "http://mw2.google.com/mw-panoramio/photos/square/39846407.jpg", "photo_url": "http://www.panoramio.com/photo/39846407"}, {"upload_date": "21 September 2012", "owner_name": "\u25c4Maria \u0397-S\u25ba", "photo_id": 79293030, "longitude": 23.083234, "height": 60, "width": 60, "photo_title": "\u039a\u03b5\u03bd\u03c4\u03c1\u03b9\u03ba\u03ae \u039c\u03b1\u03ba\u03b5\u03b4\u03bf\u03bd\u03af\u03b1 - \u0397 \u03bb\u03af\u03bc\u03bd\u03b7 \u0392\u03cc\u03bb\u03b2\u03b7 \u03b1\u03c0\u03cc \u03c4\u03bf \u03a7\u03bf\u03c1\u03c4\u03b9\u03ac\u03c4\u03b7 /\\ Central Makedonia - Volvi lake from Hortiatis mt.", "latitude": 40.63513, "owner_url": "http://www.panoramio.com/user/1698637", "owner_id": 1698637, "photo_file_url": "http://mw2.google.com/mw-panoramio/photos/square/79293030.jpg", "photo_url": "http://www.panoramio.com/photo/79293030"}, {"upload_date": "09 April 2009", "owner_name": "Gregory cy", "photo_id": 21001415, "longitude": 23.142529, "height": 60, "width": 60, "photo_title": "Lake Koronia", "latitude": 40.703708, "owner_url": "http://www.panoramio.com/user/2301383", "owner_id": 2301383, "photo_file_url": "http://mw2.google.com/mw-panoramio/photos/square/21001415.jpg", "photo_url": "http://www.panoramio.com/photo/21001415"}, {"upload_date": "11 November 2011", "owner_name": "Prebo", "photo_id": 62001529, "longitude": 23.653307, "height": 60, "width": 60, "photo_title": "The Hills Have Eyes", "latitude": 40.722595, "owner_url": "http://www.panoramio.com/user/1417348", "owner_id": 1417348, "photo_file_url": "http://mw2.google.com/mw-panoramio/photos/square/62001529.jpg", "photo_url": "http://www.panoramio.com/photo/62001529"}, {"upload_date": "12 August 2008", "owner_name": "Udo H. Winter", "photo_id": 13045924, "longitude": 23.167763, "height": 60, "width": 60, "photo_title": "Dead Lake Koronia 2008", "latitude": 40.668921, "owner_url": "http://www.panoramio.com/user/1208526", "owner_id": 1208526, "photo_file_url": "http://mw2.google.com/mw-panoramio/photos/square/13045924.jpg", "photo_url": "http://www.panoramio.com/photo/13045924"}, {"upload_date": "12 April 2011", "owner_name": "Thodoros", "photo_id": 50940897, "longitude": 23.103154, "height": 60, "width": 60, "photo_title": "\u039b\u03af\u03bc\u03bd\u03b7 \u039a\u03bf\u03c1\u03ce\u03bd\u03b5\u03b9\u03b1 - \u0386\u03b3\u03b9\u03bf\u03c2 \u0392\u03b1\u03c3\u03af\u03bb\u03b5\u03b9\u03bf\u03c2 -2", "latitude": 40.635416, "owner_url": "http://www.panoramio.com/user/990294", "owner_id": 990294, "photo_file_url": "http://mw2.google.com/mw-panoramio/photos/square/50940897.jpg", "photo_url": "http://www.panoramio.com/photo/50940897"}, {"upload_date": "19 March 2009", "owner_name": "nikola kostov", "photo_id": 20217726, "longitude": 23.174629, "height": 60, "width": 60, "photo_title": "solunskoto  ezero", "latitude": 40.708751, "owner_url": "http://www.panoramio.com/user/1855170", "owner_id": 1855170, "photo_file_url": "http://mw2.google.com/mw-panoramio/photos/square/20217726.jpg", "photo_url": "http://www.panoramio.com/photo/20217726"}, {"upload_date": "13 December 2006", "owner_name": "powertaxi", "photo_id": 131285, "longitude": 23.05377999999999, "height": 60, "width": 60, "photo_title": "Volvi", "latitude": 40.68194, "owner_url": "http://www.panoramio.com/user/19674", "owner_id": 19674, "photo_file_url": "http://mw2.google.com/mw-panoramio/photos/square/131285.jpg", "photo_url": "http://www.panoramio.com/photo/131285"}, {"upload_date": "28 May 2012", "owner_name": "Xenofwn79", "photo_id": 72832212, "longitude": 23.267731, "height": 60, "width": 60, "photo_title": "\u0395\u03ba\u03ba\u03bb\u03b7\u03c3\u03ac\u03ba\u03b9", "latitude": 40.640428, "owner_url": "http://www.panoramio.com/user/5825520", "owner_id": 5825520, "photo_file_url": "http://mw2.google.com/mw-panoramio/photos/square/72832212.jpg", "photo_url": "http://www.panoramio.com/photo/72832212"}, {"upload_date": "11 October 2010", "owner_name": "\u039b\u03b1\u03a6\u03c5", "photo_id": 42044312, "longitude": 23.49791, "height": 60, "width": 60, "photo_title": "\u0394\u03ad\u03bb\u03c4\u03b1 \u03c1\u03ad\u03bc\u03b1\u03c4\u03bf\u03c2 \u039a\u03bf\u03ba\u03ba\u03b1\u03bb\u03bf\u03cd\u03c2-\u0391\u03c0\u03bf\u03bb\u03bb\u03c9\u03bd\u03af\u03b1\u03c2", "latitude": 40.658927, "owner_url": "http://www.panoramio.com/user/4502168", "owner_id": 4502168, "photo_file_url": "http://mw2.google.com/mw-panoramio/photos/square/42044312.jpg", "photo_url": "http://www.panoramio.com/photo/42044312"}, {"upload_date": "05 November 2012", "owner_name": "Charli33", "photo_id": 81652944, "longitude": 23.14074, "height": 60, "width": 60, "photo_title": "Jezero Koronia 2", "latitude": 40.720965, "owner_url": "http://www.panoramio.com/user/7139864", "owner_id": 7139864, "photo_file_url": "http://mw2.google.com/mw-panoramio/photos/square/81652944.jpg", "photo_url": "http://www.panoramio.com/photo/81652944"}, {"upload_date": "06 February 2013", "owner_name": "Xenofwn79", "photo_id": 85717629, "longitude": 23.504786, "height": 60, "width": 60, "photo_title": "\u039a\u03b1\u03bb\u03c5\u03b2\u03ac\u03ba\u03b9\u03b1 \u03b3\u03b9\u03b1 \u03c4\u03b9\u03c2 \u03c0\u03bf\u03bc\u03cc\u03bd\u03b5\u03c2", "latitude": 40.634306, "owner_url": "http://www.panoramio.com/user/5825520", "owner_id": 5825520, "photo_file_url": "http://mw2.google.com/mw-panoramio/photos/square/85717629.jpg", "photo_url": "http://www.panoramio.com/photo/85717629"}, {"upload_date": "05 November 2012", "owner_name": "Charli33", "photo_id": 81652928, "longitude": 23.108811, "height": 60, "width": 60, "photo_title": "Jezerro Koronia", "latitude": 40.724218, "owner_url": "http://www.panoramio.com/user/7139864", "owner_id": 7139864, "photo_file_url": "http://mw2.google.com/mw-panoramio/photos/square/81652928.jpg", "photo_url": "http://www.panoramio.com/photo/81652928"}, {"upload_date": "06 February 2013", "owner_name": "Xenofwn79", "photo_id": 85717592, "longitude": 23.437097, "height": 60, "width": 60, "photo_title": "\u039a\u03b1\u03bb\u03c5\u03b2\u03ac\u03ba\u03b9\u03b1", "latitude": 40.648658, "owner_url": "http://www.panoramio.com/user/5825520", "owner_id": 5825520, "photo_file_url": "http://mw2.google.com/mw-panoramio/photos/square/85717592.jpg", "photo_url": "http://www.panoramio.com/photo/85717592"}, {"upload_date": "23 April 2013", "owner_name": "Xenofwn79", "photo_id": 89228481, "longitude": 23.079267, "height": 60, "width": 60, "photo_title": "\u039c\u03b9\u03ba\u03c1\u03ac \u03b4\u03b5\u03bd\u03c4\u03c1\u03ac\u03ba\u03b9\u03b1", "latitude": 40.68027, "owner_url": "http://www.panoramio.com/user/5825520", "owner_id": 5825520, "photo_file_url": "http://mw2.google.com/mw-panoramio/photos/square/89228481.jpg", "photo_url": "http://www.panoramio.com/photo/89228481"}, {"upload_date": "23 April 2013", "owner_name": "Xenofwn79", "photo_id": 89228525, "longitude": 23.335708, "height": 60, "width": 60, "photo_title": "\u039b\u03b9\u03b3\u03bf\u03c3\u03c4\u03ae \u03ba\u03af\u03bd\u03b7\u03c3\u03b7 \u03ad\u03be\u03c9 \u03b1\u03c0\u03cc \u03c4\u03bf\u03bd \u03a0\u03b5\u03c1\u03b9\u03c3\u03c4\u03b5\u03c1\u03ce\u03bd\u03b1", "latitude": 40.660398, "owner_url": "http://www.panoramio.com/user/5825520", "owner_id": 5825520, "photo_file_url": "http://mw2.google.com/mw-panoramio/photos/square/89228525.jpg", "photo_url": "http://www.panoramio.com/photo/89228525"}, {"upload_date": "17 June 2010", "owner_name": "\u039b\u03b1\u03a6\u03c5", "photo_id": 36861346, "longitude": 23.499540999999994, "height": 60, "width": 60, "photo_title": "\u039a\u03bf\u03ba\u03ba\u03b1\u03bb\u03bf\u03cd_\u03c0\u03c1\u03cc\u03c2 \u039c\u03ac\u03b4\u03c5\u03c4\u03bf", "latitude": 40.619588, "owner_url": "http://www.panoramio.com/user/4502168", "owner_id": 4502168, "photo_file_url": "http://mw2.google.com/mw-panoramio/photos/square/36861346.jpg", "photo_url": "http://www.panoramio.com/photo/36861346"}, {"upload_date": "23 April 2013", "owner_name": "Xenofwn79", "photo_id": 89228492, "longitude": 23.146378, "height": 60, "width": 60, "photo_title": "\u039c\u03b5\u03c1\u03b9\u03ba\u03ac \u03b4\u03ad\u03bd\u03c4\u03c1\u03b1 \u03ba\u03b1\u03b9 \u03bf\u03b9 \u03ba\u03b5\u03c1\u03b1\u03af\u03b5\u03c2 \u03c4\u03bf\u03c5 \u03a7\u03bf\u03c1\u03c4\u03b9\u03ac\u03c4\u03b7 \u03c3\u03c4\u03bf \u03cd\u03c8\u03bf\u03c2", "latitude": 40.656643, "owner_url": "http://www.panoramio.com/user/5825520", "owner_id": 5825520, "photo_file_url": "http://mw2.google.com/mw-panoramio/photos/square/89228492.jpg", "photo_url": "http://www.panoramio.com/photo/89228492"}, {"upload_date": "03 May 2011", "owner_name": "Xenofwn79", "photo_id": 52085885, "longitude": 23.048887, "height": 60, "width": 60, "photo_title": "\u0397\u03bb\u03b9\u03bf\u03b2\u03b1\u03c3\u03af\u03bb\u03b5\u03bc\u03b1 \u03b1\u03c0\u03cc \u03c4\u03bf \u03a0\u03b1\u03bd\u03cc\u03c1\u03b1\u03bc\u03b1", "latitude": 40.60092, "owner_url": "http://www.panoramio.com/user/5825520", "owner_id": 5825520, "photo_file_url": "http://mw2.google.com/mw-panoramio/photos/square/52085885.jpg", "photo_url": "http://www.panoramio.com/photo/52085885"}, {"upload_date": "14 July 2010", "owner_name": "spourgitis", "photo_id": 37929810, "longitude": 23.44276400000001, "height": 60, "width": 60, "photo_title": "\u03bb\u03b9\u03bc\u03bd\u03bf\u03b2\u03b1\u03c1\u03ba\u03b1 \u03c3\u03c4\u03b7 \u03b2\u03bf\u03bb\u03b2\u03b7", "latitude": 40.667619, "owner_url": "http://www.panoramio.com/user/4549718", "owner_id": 4549718, "photo_file_url": "http://mw2.google.com/mw-panoramio/photos/square/37929810.jpg", "photo_url": "http://www.panoramio.com/photo/37929810"}, {"upload_date": "07 January 2013", "owner_name": "\u2665\u266b Katerina @ Greece", "photo_id": 84387392, "longitude": 23.411672, "height": 60, "width": 60, "photo_title": "At the edge", "latitude": 40.69424, "owner_url": "http://www.panoramio.com/user/6816552", "owner_id": 6816552, "photo_file_url": "http://mw2.google.com/mw-panoramio/photos/square/84387392.jpg", "photo_url": "http://www.panoramio.com/photo/84387392"}, {"upload_date": "07 October 2010", "owner_name": "\u039b\u03b1\u03a6\u03c5", "photo_id": 41824516, "longitude": 23.47847, "height": 60, "width": 60, "photo_title": "\u03a1\u03ad\u03bc\u03b1 \u039a\u03bf\u03ba\u03ba\u03b1\u03bb\u03bf\u03cd\u03c2 \u039c\u03b5\u03bb\u03b9\u03c3\u03bf\u03c5\u03c1\u03b3\u03bf\u03cd", "latitude": 40.627047, "owner_url": "http://www.panoramio.com/user/4502168", "owner_id": 4502168, "photo_file_url": "http://mw2.google.com/mw-panoramio/photos/square/41824516.jpg", "photo_url": "http://www.panoramio.com/photo/41824516"}, {"upload_date": "11 November 2011", "owner_name": "Prebo", "photo_id": 61994604, "longitude": 23.672361, "height": 60, "width": 60, "photo_title": "Nea Vrasna Panorama", "latitude": 40.715439, "owner_url": "http://www.panoramio.com/user/1417348", "owner_id": 1417348, "photo_file_url": "http://mw2.google.com/mw-panoramio/photos/square/61994604.jpg", "photo_url": "http://www.panoramio.com/photo/61994604"}, {"upload_date": "06 February 2013", "owner_name": "\u2729 George @ \u266b *", "photo_id": 85710274, "longitude": 23.46508, "height": 60, "width": 60, "photo_title": "Green fog Nature Greece Macedonia  George @ papaki  \u03c6\u03cd\u03c3\u03b7 \u0395\u03bb\u03bb\u03ac\u03b4\u03b1 \u039c\u03b1\u03ba\u03b5\u03b4\u03bf\u03bd\u03af\u03b1", "latitude": 40.66814, "owner_url": "http://www.panoramio.com/user/6814839", "owner_id": 6814839, "photo_file_url": "http://mw2.google.com/mw-panoramio/photos/square/85710274.jpg", "photo_url": "http://www.panoramio.com/photo/85710274"}, {"upload_date": "30 May 2011", "owner_name": "Xenofwn79", "photo_id": 53473328, "longitude": 23.357341, "height": 60, "width": 60, "photo_title": "\u0391\u03c7\u03c5\u03c1\u03cc\u03bc\u03c0\u03b1\u03bb\u03b5\u03c2", "latitude": 40.696616, "owner_url": "http://www.panoramio.com/user/5825520", "owner_id": 5825520, "photo_file_url": "http://mw2.google.com/mw-panoramio/photos/square/53473328.jpg", "photo_url": "http://www.panoramio.com/photo/53473328"}, {"upload_date": "06 February 2013", "owner_name": "Xenofwn79", "photo_id": 85717635, "longitude": 23.521634, "height": 60, "width": 60, "photo_title": "\u0393\u03b5\u03c1\u03b1\u03ba\u03af\u03bd\u03b1 \u03b4\u03af\u03c0\u03bb\u03b1 \u03c3\u03c4\u03bf \u03b4\u03c1\u03cc\u03bc\u03bf", "latitude": 40.629731, "owner_url": "http://www.panoramio.com/user/5825520", "owner_id": 5825520, "photo_file_url": "http://mw2.google.com/mw-panoramio/photos/square/85717635.jpg", "photo_url": "http://www.panoramio.com/photo/85717635"}, {"upload_date": "21 September 2012", "owner_name": "\u00a9NikosT", "photo_id": 79289390, "longitude": 23.688262, "height": 60, "width": 60, "photo_title": "\u00a9NikosT      www.nikost.gr   AG. SPIRIDON", "latitude": 40.739255, "owner_url": "http://www.panoramio.com/user/684617", "owner_id": 684617, "photo_file_url": "http://mw2.google.com/mw-panoramio/photos/square/79289390.jpg", "photo_url": "http://www.panoramio.com/photo/79289390"}, {"upload_date": "07 September 2011", "owner_name": "zoran sremski", "photo_id": 58613986, "longitude": 23.655241, "height": 60, "width": 60, "photo_title": "\u0412\u0440\u0430\u0441\u043d\u0430 - Vrasna", "latitude": 40.700495, "owner_url": "http://www.panoramio.com/user/2562037", "owner_id": 2562037, "photo_file_url": "http://mw2.google.com/mw-panoramio/photos/square/58613986.jpg", "photo_url": "http://www.panoramio.com/photo/58613986"}, {"upload_date": "21 December 2007", "owner_name": "Udo H. Winter", "photo_id": 6597240, "longitude": 23.113861, "height": 60, "width": 60, "photo_title": "Dying Lake Koroneia 2", "latitude": 40.683502, "owner_url": "http://www.panoramio.com/user/1208526", "owner_id": 1208526, "photo_file_url": "http://mw2.google.com/mw-panoramio/photos/square/6597240.jpg", "photo_url": "http://www.panoramio.com/photo/6597240"}, {"upload_date": "15 October 2011", "owner_name": "sunmaya", "photo_id": 60629845, "longitude": 23.223633000000007, "height": 60, "width": 60, "photo_title": "evangelismos", "latitude": 40.694932, "owner_url": "http://www.panoramio.com/user/1759167", "owner_id": 1759167, "photo_file_url": "http://mw2.google.com/mw-panoramio/photos/square/60629845.jpg", "photo_url": "http://www.panoramio.com/photo/60629845"}, {"upload_date": "12 September 2008", "owner_name": "stathisalt", "photo_id": 14061067, "longitude": 23.584363, "height": 60, "width": 60, "photo_title": "Sunset Volvi 2", "latitude": 40.650804, "owner_url": "http://www.panoramio.com/user/286663", "owner_id": 286663, "photo_file_url": "http://mw2.google.com/mw-panoramio/photos/square/14061067.jpg", "photo_url": "http://www.panoramio.com/photo/14061067"}, {"upload_date": "07 October 2008", "owner_name": "stathisalt", "photo_id": 14799104, "longitude": 23.173878, "height": 60, "width": 60, "photo_title": "Koronia 5/10/2008", "latitude": 40.65585, "owner_url": "http://www.panoramio.com/user/286663", "owner_id": 286663, "photo_file_url": "http://mw2.google.com/mw-panoramio/photos/square/14799104.jpg", "photo_url": "http://www.panoramio.com/photo/14799104"}, {"upload_date": "05 August 2010", "owner_name": "Amphi-Polys", "photo_id": 38876247, "longitude": 23.375988000000007, "height": 60, "width": 60, "photo_title": "Lake Volvi - Greece", "latitude": 40.700553, "owner_url": "http://www.panoramio.com/user/4093659", "owner_id": 4093659, "photo_file_url": "http://mw2.google.com/mw-panoramio/photos/square/38876247.jpg", "photo_url": "http://www.panoramio.com/photo/38876247"}, {"upload_date": "15 May 2011", "owner_name": "Periklis.Siopis.", "photo_id": 52695351, "longitude": 23.17790199999999, "height": 60, "width": 60, "photo_title": "\u039b\u03af\u03bc\u03bd\u03b7.\u0391\u03b3.\u0392\u03b1\u03c3\u03b9\u03bb\u03b5\u03af\u03bf\u03c5 (\u039a\u03bf\u03c1\u03ce\u03bd\u03b5\u03b9\u03b1)", "latitude": 40.651577, "owner_url": "http://www.panoramio.com/user/3633435", "owner_id": 3633435, "photo_file_url": "http://mw2.google.com/mw-panoramio/photos/square/52695351.jpg", "photo_url": "http://www.panoramio.com/photo/52695351"}, {"upload_date": "30 May 2011", "owner_name": "Xenofwn79", "photo_id": 53473270, "longitude": 23.526696, "height": 60, "width": 60, "photo_title": "\u039a\u03bf\u03bd\u03c4\u03ac \u03c3\u03c4\u03b7\u03bd \u03c0\u03b1\u03c1\u03b1\u03bb\u03af\u03b1 \u039a\u03b1\u03c1\u03ba\u03b1\u03bb\u03bf\u03cd\u03c2", "latitude": 40.630752, "owner_url": "http://www.panoramio.com/user/5825520", "owner_id": 5825520, "photo_file_url": "http://mw2.google.com/mw-panoramio/photos/square/53473270.jpg", "photo_url": "http://www.panoramio.com/photo/53473270"}, {"upload_date": "07 July 2014", "owner_name": "KARANESHEV3112", "photo_id": 109026830, "longitude": 23.674679, "height": 60, "width": 60, "photo_title": "\u03a3\u03c4\u03b1\u03c5\u03c1\u03cc\u03c2", "latitude": 40.658341, "owner_url": "http://www.panoramio.com/user/3794713", "owner_id": 3794713, "photo_file_url": "http://mw2.google.com/mw-panoramio/photos/square/109026830.jpg", "photo_url": "http://www.panoramio.com/photo/109026830"}, {"upload_date": "12 June 2013", "owner_name": "Xenofwn79", "photo_id": 91667244, "longitude": 23.183795, "height": 60, "width": 60, "photo_title": "\u0391\u03c7\u03c5\u03c1\u03cc\u03bc\u03c0\u03b1\u03bb\u03b5\u03c2", "latitude": 40.641507, "owner_url": "http://www.panoramio.com/user/5825520", "owner_id": 5825520, "photo_file_url": "http://mw2.google.com/mw-panoramio/photos/square/91667244.jpg", "photo_url": "http://www.panoramio.com/photo/91667244"}, {"upload_date": "24 April 2013", "owner_name": "Xenofwn79", "photo_id": 89288275, "longitude": 23.602982, "height": 60, "width": 60, "photo_title": "\u039f\u03c5\u03c1\u03ac\u03bd\u03b9\u03bf \u03c4\u03cc\u03be\u03bf, just", "latitude": 40.660587, "owner_url": "http://www.panoramio.com/user/5825520", "owner_id": 5825520, "photo_file_url": "http://mw2.google.com/mw-panoramio/photos/square/89288275.jpg", "photo_url": "http://www.panoramio.com/photo/89288275"}, {"upload_date": "25 October 2011", "owner_name": "sunmaya", "photo_id": 61130302, "longitude": 23.588408000000015, "height": 60, "width": 60, "photo_title": "on the autobahn", "latitude": 40.677209, "owner_url": "http://www.panoramio.com/user/1759167", "owner_id": 1759167, "photo_file_url": "http://mw2.google.com/mw-panoramio/photos/square/61130302.jpg", "photo_url": "http://www.panoramio.com/photo/61130302"}, {"upload_date": "25 October 2011", "owner_name": "sunmaya", "photo_id": 61130255, "longitude": 23.688755000000015, "height": 60, "width": 60, "photo_title": "aeround asprovalta", "latitude": 40.71803, "owner_url": "http://www.panoramio.com/user/1759167", "owner_id": 1759167, "photo_file_url": "http://mw2.google.com/mw-panoramio/photos/square/61130255.jpg", "photo_url": "http://www.panoramio.com/photo/61130255"}, {"upload_date": "25 October 2011", "owner_name": "sunmaya", "photo_id": 61130319, "longitude": 23.547316999999993, "height": 60, "width": 60, "photo_title": "from the highway", "latitude": 40.684747, "owner_url": "http://www.panoramio.com/user/1759167", "owner_id": 1759167, "photo_file_url": "http://mw2.google.com/mw-panoramio/photos/square/61130319.jpg", "photo_url": "http://www.panoramio.com/photo/61130319"}, {"upload_date": "07 April 2012", "owner_name": "anatolitis2003", "photo_id": 69826210, "longitude": 23.580697, "height": 60, "width": 60, "photo_title": "Rendina", "latitude": 40.678842, "owner_url": "http://www.panoramio.com/user/6781423", "owner_id": 6781423, "photo_file_url": "http://mw2.google.com/mw-panoramio/photos/square/69826210.jpg", "photo_url": "http://www.panoramio.com/photo/69826210"}, {"upload_date": "09 April 2009", "owner_name": "Gregory cy", "photo_id": 21001304, "longitude": 23.463192, "height": 60, "width": 60, "photo_title": "Fishing in the lake Volvi", "latitude": 40.691833, "owner_url": "http://www.panoramio.com/user/2301383", "owner_id": 2301383, "photo_file_url": "http://mw2.google.com/mw-panoramio/photos/square/21001304.jpg", "photo_url": "http://www.panoramio.com/photo/21001304"}, {"upload_date": "04 June 2012", "owner_name": "\u2729 George @ \u266b *", "photo_id": 73209710, "longitude": 23.652354, "height": 60, "width": 60, "photo_title": "rentina Greece Macedonia ", "latitude": 40.667997, "owner_url": "http://www.panoramio.com/user/6814839", "owner_id": 6814839, "photo_file_url": "http://mw2.google.com/mw-panoramio/photos/square/73209710.jpg", "photo_url": "http://www.panoramio.com/photo/73209710"}, {"upload_date": "01 July 2007", "owner_name": "Arethousianos", "photo_id": 3046185, "longitude": 23.586595, "height": 60, "width": 60, "photo_title": "Arethousa , \u0391\u03c1\u03ad\u03b8\u03bf\u03c5\u03c3\u03b1", "latitude": 40.744046, "owner_url": "http://www.panoramio.com/user/552805", "owner_id": 552805, "photo_file_url": "http://mw2.google.com/mw-panoramio/photos/square/3046185.jpg", "photo_url": "http://www.panoramio.com/photo/3046185"}, {"upload_date": "04 June 2012", "owner_name": "\u2665\u266b Katerina @ Greece", "photo_id": 73188224, "longitude": 23.61819, "height": 60, "width": 60, "photo_title": "\u0391\u03bd\u03b5\u03bc\u03cc\u03bc\u03c5\u03bb\u03bf\u03c2 \u03c3\u03c4\u03bf \u03b4\u03c1\u03cc\u03bc\u03bf \u03bc\u03b1\u03c2...", "latitude": 40.65919, "owner_url": "http://www.panoramio.com/user/6816552", "owner_id": 6816552, "photo_file_url": "http://mw2.google.com/mw-panoramio/photos/square/73188224.jpg", "photo_url": "http://www.panoramio.com/photo/73188224"}, {"upload_date": "17 June 2010", "owner_name": "\u039b\u03b1\u03a6\u03c5", "photo_id": 36861315, "longitude": 23.477998000000014, "height": 60, "width": 60, "photo_title": "\u039c\u03b5\u03bb\u03bb\u03b9\u03c3\u03bf\u03c5\u03c1\u03b3\u03cc\u03c2 \u03c1\u03ad\u03bc\u03b1", "latitude": 40.601376, "owner_url": "http://www.panoramio.com/user/4502168", "owner_id": 4502168, "photo_file_url": "http://mw2.google.com/mw-panoramio/photos/square/36861315.jpg", "photo_url": "http://www.panoramio.com/photo/36861315"}, {"upload_date": "11 March 2012", "owner_name": "Xenofwn79", "photo_id": 68345158, "longitude": 23.483604, "height": 60, "width": 60, "photo_title": "\u0395\u03b3\u03bd\u03b1\u03c4\u03af\u03b1", "latitude": 40.693909, "owner_url": "http://www.panoramio.com/user/5825520", "owner_id": 5825520, "photo_file_url": "http://mw2.google.com/mw-panoramio/photos/square/68345158.jpg", "photo_url": "http://www.panoramio.com/photo/68345158"}, {"upload_date": "26 October 2010", "owner_name": "Szalkovszky Tibor", "photo_id": 42766064, "longitude": 23.670688, "height": 60, "width": 60, "photo_title": "Mag\u00e1nyosan", "latitude": 40.704097, "owner_url": "http://www.panoramio.com/user/2892545", "owner_id": 2892545, "photo_file_url": "http://mw2.google.com/mw-panoramio/photos/square/42766064.jpg", "photo_url": "http://www.panoramio.com/photo/42766064"}, {"upload_date": "11 March 2012", "owner_name": "Xenofwn79", "photo_id": 68342943, "longitude": 23.151458, "height": 60, "width": 60, "photo_title": "\u03a4\u03bf\u03c0\u03af\u03bf \u03b1\u03c0\u03cc \u03c4\u03b7\u03bd \u0395\u03b3\u03bd\u03b1\u03c4\u03af\u03b1", "latitude": 40.717591, "owner_url": "http://www.panoramio.com/user/5825520", "owner_id": 5825520, "photo_file_url": "http://mw2.google.com/mw-panoramio/photos/square/68342943.jpg", "photo_url": "http://www.panoramio.com/photo/68342943"}, {"upload_date": "14 September 2010", "owner_name": "\u039b\u03b1\u03a6\u03c5", "photo_id": 40783868, "longitude": 23.592024, "height": 60, "width": 60, "photo_title": "\u039b\u03af\u03bc\u03bd\u03b7 \u0392\u03cc\u03bb\u03b2\u03b7 \u0391\u03bd\u03b1\u03c4\u03bf\u03bb\u03b9\u03ba\u03ac", "latitude": 40.649778, "owner_url": "http://www.panoramio.com/user/4502168", "owner_id": 4502168, "photo_file_url": "http://mw2.google.com/mw-panoramio/photos/square/40783868.jpg", "photo_url": "http://www.panoramio.com/photo/40783868"}, {"upload_date": "11 June 2012", "owner_name": "\u2665\u266b Katerina @ Greece", "photo_id": 73598618, "longitude": 23.588945, "height": 60, "width": 60, "photo_title": "\u0391\u03b3\u03af\u03b1 \u039c\u03b1\u03c1\u03af\u03bd\u03b1", "latitude": 40.640402, "owner_url": "http://www.panoramio.com/user/6816552", "owner_id": 6816552, "photo_file_url": "http://mw2.google.com/mw-panoramio/photos/square/73598618.jpg", "photo_url": "http://www.panoramio.com/photo/73598618"}, {"upload_date": "28 October 2010", "owner_name": "Szalkovszky Tibor", "photo_id": 42863490, "longitude": 23.662491, "height": 60, "width": 60, "photo_title": "Szent\u00e9j", "latitude": 40.696388, "owner_url": "http://www.panoramio.com/user/2892545", "owner_id": 2892545, "photo_file_url": "http://mw2.google.com/mw-panoramio/photos/square/42863490.jpg", "photo_url": "http://www.panoramio.com/photo/42863490"}, {"upload_date": "05 November 2012", "owner_name": "Charli33", "photo_id": 81653034, "longitude": 23.565602, "height": 60, "width": 60, "photo_title": "Jezero Volvi 3", "latitude": 40.680622, "owner_url": "http://www.panoramio.com/user/7139864", "owner_id": 7139864, "photo_file_url": "http://mw2.google.com/mw-panoramio/photos/square/81653034.jpg", "photo_url": "http://www.panoramio.com/photo/81653034"}, {"upload_date": "23 July 2012", "owner_name": "Xenofwn79", "photo_id": 75884820, "longitude": 23.493136, "height": 60, "width": 60, "photo_title": "\u039c\u03b5\u03b3\u03ac\u03bb\u03b7 \u0392\u03cc\u03bb\u03b2\u03b7 2", "latitude": 40.694068, "owner_url": "http://www.panoramio.com/user/5825520", "owner_id": 5825520, "photo_file_url": "http://mw2.google.com/mw-panoramio/photos/square/75884820.jpg", "photo_url": "http://www.panoramio.com/photo/75884820"}, {"upload_date": "16 July 2011", "owner_name": "alikoleg", "photo_id": 55817904, "longitude": 23.3294677, "height": 60, "width": 60, "photo_title": "Halkidiki. \u041a\u0430\u043c\u0435\u043d\u044c \u041f\u0435\u0442\u0440\u0430 \u0438 \u041f\u0430\u0432\u043b\u0430", "latitude": 40.6473035, "owner_url": "http://www.panoramio.com/user/5304615", "owner_id": 5304615, "photo_file_url": "http://mw2.google.com/mw-panoramio/photos/square/55817904.jpg", "photo_url": "http://www.panoramio.com/photo/55817904"}, {"upload_date": "12 August 2008", "owner_name": "Udo H. Winter", "photo_id": 13046142, "longitude": 23.165359, "height": 60, "width": 60, "photo_title": "Dead Lake Koronia 2008 (2)", "latitude": 40.661629, "owner_url": "http://www.panoramio.com/user/1208526", "owner_id": 1208526, "photo_file_url": "http://mw2.google.com/mw-panoramio/photos/square/13046142.jpg", "photo_url": "http://www.panoramio.com/photo/13046142"}, {"upload_date": "05 November 2012", "owner_name": "Charli33", "photo_id": 81653041, "longitude": 23.574528, "height": 60, "width": 60, "photo_title": "Jezero Volvi 4", "latitude": 40.679971, "owner_url": "http://www.panoramio.com/user/7139864", "owner_id": 7139864, "photo_file_url": "http://mw2.google.com/mw-panoramio/photos/square/81653041.jpg", "photo_url": "http://www.panoramio.com/photo/81653041"}, {"upload_date": "30 June 2010", "owner_name": "\u039b\u03b1\u03a6\u03c5", "photo_id": 37347823, "longitude": 23.485680000000002, "height": 60, "width": 60, "photo_title": "\u03a1\u03ad\u03bc\u03b1 \u039a\u03bf\u03ba\u03ba\u03b1\u03bb\u03bf\u03cd\u03c2", "latitude": 40.63519, "owner_url": "http://www.panoramio.com/user/4502168", "owner_id": 4502168, "photo_file_url": "http://mw2.google.com/mw-panoramio/photos/square/37347823.jpg", "photo_url": "http://www.panoramio.com/photo/37347823"}, {"upload_date": "05 November 2012", "owner_name": "Charli33", "photo_id": 81652973, "longitude": 23.186745, "height": 60, "width": 60, "photo_title": "Jezero Koronia 3", "latitude": 40.708084, "owner_url": "http://www.panoramio.com/user/7139864", "owner_id": 7139864, "photo_file_url": "http://mw2.google.com/mw-panoramio/photos/square/81652973.jpg", "photo_url": "http://www.panoramio.com/photo/81652973"}, {"upload_date": "28 October 2010", "owner_name": "Szalkovszky Tibor", "photo_id": 42863660, "longitude": 23.687655, "height": 60, "width": 60, "photo_title": "Vagon lak\u00e1s", "latitude": 40.683844, "owner_url": "http://www.panoramio.com/user/2892545", "owner_id": 2892545, "photo_file_url": "http://mw2.google.com/mw-panoramio/photos/square/42863660.jpg", "photo_url": "http://www.panoramio.com/photo/42863660"}, {"upload_date": "15 February 2011", "owner_name": "\u039b\u03b1\u03a6\u03c5", "photo_id": 48172606, "longitude": 23.579836, "height": 60, "width": 60, "photo_title": "\u0397 \u03ba\u03b1\u03c4\u03b1\u03c3\u03c4\u03c1\u03bf\u03c6\u03ae \u03c4\u03bf\u03c5 \u03b4\u03ac\u03c3\u03bf\u03c5\u03c2 \u03c3\u03c4\u03b7 \u03bb\u03af\u03bc\u03bd\u03b7", "latitude": 40.640954, "owner_url": "http://www.panoramio.com/user/4502168", "owner_id": 4502168, "photo_file_url": "http://mw2.google.com/mw-panoramio/photos/square/48172606.jpg", "photo_url": "http://www.panoramio.com/photo/48172606"}, {"upload_date": "10 October 2012", "owner_name": "Xenofwn79", "photo_id": 80344939, "longitude": 23.376195, "height": 60, "width": 60, "photo_title": "\u039c\u03b5\u03b3\u03ac\u03bb\u03b7 \u0392\u03cc\u03bb\u03b2\u03b7", "latitude": 40.724821, "owner_url": "http://www.panoramio.com/user/5825520", "owner_id": 5825520, "photo_file_url": "http://mw2.google.com/mw-panoramio/photos/square/80344939.jpg", "photo_url": "http://www.panoramio.com/photo/80344939"}, {"upload_date": "29 March 2009", "owner_name": "pi_te_r", "photo_id": 20563265, "longitude": 23.28401, "height": 60, "width": 60, "photo_title": "kladema elias", "latitude": 40.695631, "owner_url": "http://www.panoramio.com/user/2169629", "owner_id": 2169629, "photo_file_url": "http://mw2.google.com/mw-panoramio/photos/square/20563265.jpg", "photo_url": "http://www.panoramio.com/photo/20563265"}, {"upload_date": "25 January 2007", "owner_name": "Aris Dinopoulos", "photo_id": 571922, "longitude": 23.05687, "height": 60, "width": 60, "photo_title": "Thessaloniki view from Hortiatis Mt.", "latitude": 40.603527, "owner_url": "http://www.panoramio.com/user/122768", "owner_id": 122768, "photo_file_url": "http://mw2.google.com/mw-panoramio/photos/square/571922.jpg", "photo_url": "http://www.panoramio.com/photo/571922"}, {"upload_date": "10 March 2007", "owner_name": "Stella92", "photo_id": 1260811, "longitude": 23.557262420654, "height": 60, "width": 60, "photo_title": "N. Madytos", "latitude": 40.619816149608, "owner_url": "http://www.panoramio.com/user/63821", "owner_id": 63821, "photo_file_url": "http://mw2.google.com/mw-panoramio/photos/square/1260811.jpg", "photo_url": "http://www.panoramio.com/photo/1260811"}, {"upload_date": "17 June 2010", "owner_name": "\u039b\u03b1\u03a6\u03c5", "photo_id": 36861286, "longitude": 23.572540000000004, "height": 60, "width": 60, "photo_title": "\u03a0\u03c1\u03cc\u03c2 \u03ba\u03c4\u03ae\u03bc\u03b1 \u039c\u03ac\u03ba\u03bf\u03c5", "latitude": 40.639814, "owner_url": "http://www.panoramio.com/user/4502168", "owner_id": 4502168, "photo_file_url": "http://mw2.google.com/mw-panoramio/photos/square/36861286.jpg", "photo_url": "http://www.panoramio.com/photo/36861286"}, {"upload_date": "23 November 2012", "owner_name": "Charli33", "photo_id": 82475364, "longitude": 23.373746, "height": 60, "width": 60, "photo_title": "Volvi lake 2", "latitude": 40.660986, "owner_url": "http://www.panoramio.com/user/7139864", "owner_id": 7139864, "photo_file_url": "http://mw2.google.com/mw-panoramio/photos/square/82475364.jpg", "photo_url": "http://www.panoramio.com/photo/82475364"}, {"upload_date": "20 June 2011", "owner_name": "banedencic", "photo_id": 54502467, "longitude": 23.682055, "height": 60, "width": 60, "photo_title": "Kou.Kou", "latitude": 40.692792, "owner_url": "http://www.panoramio.com/user/1778741", "owner_id": 1778741, "photo_file_url": "http://mw2.google.com/mw-panoramio/photos/square/54502467.jpg", "photo_url": "http://www.panoramio.com/photo/54502467"}, {"upload_date": "23 April 2013", "owner_name": "Xenofwn79", "photo_id": 89228943, "longitude": 23.686812, "height": 60, "width": 60, "photo_title": "\u0394\u03b9\u03b1\u03c3\u03c4\u03b1\u03cd\u03c1\u03c9\u03c3\u03b7 \u03ba\u03b1\u03b8\u03ad\u03c4\u03bf\u03c5 \u03ac\u03be\u03bf\u03bd\u03b1 \u039590 \u03c0\u03c1\u03bf\u03c2 \u0398\u03b5\u03c3/\u03bd\u03af\u03ba\u03b7 \u03ba\u03b1\u03b9 \u039a\u03b1\u03b2\u03ac\u03bb\u03b1", "latitude": 40.707447, "owner_url": "http://www.panoramio.com/user/5825520", "owner_id": 5825520, "photo_file_url": "http://mw2.google.com/mw-panoramio/photos/square/89228943.jpg", "photo_url": "http://www.panoramio.com/photo/89228943"}, {"upload_date": "04 September 2011", "owner_name": "nenko70", "photo_id": 58439238, "longitude": 23.68215395, "height": 60, "width": 60, "photo_title": "Road E-90, Exit 27 Vrasn\u00e0-Asprov\u00e0lta", "latitude": 40.71019694, "owner_url": "http://www.panoramio.com/user/752959", "owner_id": 752959, "photo_file_url": "http://mw2.google.com/mw-panoramio/photos/square/58439238.jpg", "photo_url": "http://www.panoramio.com/photo/58439238"}, {"upload_date": "06 February 2013", "owner_name": "Xenofwn79", "photo_id": 85717607, "longitude": 23.438556, "height": 60, "width": 60, "photo_title": "\u03a3\u03c5\u03c3\u03c4\u03bf\u03b9\u03c7\u03af\u03b5\u03c2 \u03b4\u03ad\u03bd\u03c4\u03c1\u03c9\u03bd", "latitude": 40.648308, "owner_url": "http://www.panoramio.com/user/5825520", "owner_id": 5825520, "photo_file_url": "http://mw2.google.com/mw-panoramio/photos/square/85717607.jpg", "photo_url": "http://www.panoramio.com/photo/85717607"}, {"upload_date": "23 April 2013", "owner_name": "Xenofwn79", "photo_id": 89228515, "longitude": 23.328948, "height": 60, "width": 60, "photo_title": "\u0394\u03bf\u03ba\u03b9\u03bc\u03b1\u03c3\u03c4\u03b9\u03ba\u03ad\u03c2 \u03c0\u03c4\u03ae\u03c3\u03b5\u03b9\u03c2 Canadair \u03c0\u03ac\u03bd\u03c9 \u03b1\u03c0\u03cc \u03c4\u03b7 \u0392\u03cc\u03bb\u03b2\u03b7", "latitude": 40.65921, "owner_url": "http://www.panoramio.com/user/5825520", "owner_id": 5825520, "photo_file_url": "http://mw2.google.com/mw-panoramio/photos/square/89228515.jpg", "photo_url": "http://www.panoramio.com/photo/89228515"}, {"upload_date": "23 April 2013", "owner_name": "Xenofwn79", "photo_id": 89228865, "longitude": 23.430231, "height": 60, "width": 60, "photo_title": "\u03a0\u03c1\u03b1\u03c3\u03b9\u03bd\u03ac\u03b4\u03b1 \u03ba\u03b1\u03b9 \u03ba\u03af\u03c4\u03c1\u03b9\u03bd\u03b1 \u03bb\u03bf\u03c5\u03bb\u03bf\u03cd\u03b4\u03b9\u03b1", "latitude": 40.650262, "owner_url": "http://www.panoramio.com/user/5825520", "owner_id": 5825520, "photo_file_url": "http://mw2.google.com/mw-panoramio/photos/square/89228865.jpg", "photo_url": "http://www.panoramio.com/photo/89228865"}, {"upload_date": "23 April 2013", "owner_name": "Xenofwn79", "photo_id": 89228562, "longitude": 23.388549, "height": 60, "width": 60, "photo_title": "\u03a3\u03c7\u03b5\u03b4\u03cc\u03bd \u03bc\u03cc\u03bd\u03bf\u03c2 \u03c3\u03c4\u03bf\u03bd \u03b4\u03c1\u03cc\u03bc\u03bf \u03b3\u03b9\u03b1 \u039a\u03b1\u03b2\u03ac\u03bb\u03b1", "latitude": 40.657212, "owner_url": "http://www.panoramio.com/user/5825520", "owner_id": 5825520, "photo_file_url": "http://mw2.google.com/mw-panoramio/photos/square/89228562.jpg", "photo_url": "http://www.panoramio.com/photo/89228562"}, {"upload_date": "13 May 2008", "owner_name": "Udo H. Winter", "photo_id": 10180460, "longitude": 23.186646, "height": 60, "width": 60, "photo_title": "Fields around Evangelismos", "latitude": 40.702765, "owner_url": "http://www.panoramio.com/user/1208526", "owner_id": 1208526, "photo_file_url": "http://mw2.google.com/mw-panoramio/photos/square/10180460.jpg", "photo_url": "http://www.panoramio.com/photo/10180460"}, {"upload_date": "12 July 2011", "owner_name": "dux23", "photo_id": 55596308, "longitude": 23.692585000000008, "height": 60, "width": 60, "photo_title": "vila Stratos, Stavros, Gr\u010dka", "latitude": 40.668546, "owner_url": "http://www.panoramio.com/user/4849662", "owner_id": 4849662, "photo_file_url": "http://mw2.google.com/mw-panoramio/photos/square/55596308.jpg", "photo_url": "http://www.panoramio.com/photo/55596308"}, {"upload_date": "16 September 2007", "owner_name": "velonis michalis", "photo_id": 4693144, "longitude": 23.386223, "height": 60, "width": 60, "photo_title": "\u0391\u03c3\u03ba\u03cc\u03c2", "latitude": 40.745079, "owner_url": "http://www.panoramio.com/user/910151", "owner_id": 910151, "photo_file_url": "http://mw2.google.com/mw-panoramio/photos/square/4693144.jpg", "photo_url": "http://www.panoramio.com/photo/4693144"}, {"upload_date": "23 April 2013", "owner_name": "Xenofwn79", "photo_id": 89228501, "longitude": 23.282576, "height": 60, "width": 60, "photo_title": "\u0394\u03ad\u03bd\u03c4\u03c1\u03bf \u03bc\u03cc\u03bd\u03bf \u03c4\u03bf\u03c5 \u03c3\u03c4\u03b9\u03c2 \u03ba\u03b1\u03bb\u03bb\u03b9\u03ad\u03c1\u03b3\u03b5\u03b9\u03b5\u03c2", "latitude": 40.645771, "owner_url": "http://www.panoramio.com/user/5825520", "owner_id": 5825520, "photo_file_url": "http://mw2.google.com/mw-panoramio/photos/square/89228501.jpg", "photo_url": "http://www.panoramio.com/photo/89228501"}, {"upload_date": "23 April 2013", "owner_name": "Xenofwn79", "photo_id": 89228920, "longitude": 23.645814, "height": 60, "width": 60, "photo_title": "\u03a3\u03c4\u03c1\u03bf\u03c6\u03ad\u03c2 \u03c3\u03c4\u03b1 \u03c4\u03ad\u03bc\u03c0\u03b7 \u03a1\u03b5\u03bd\u03c4\u03af\u03bd\u03b1\u03c2", "latitude": 40.666844, "owner_url": "http://www.panoramio.com/user/5825520", "owner_id": 5825520, "photo_file_url": "http://mw2.google.com/mw-panoramio/photos/square/89228920.jpg", "photo_url": "http://www.panoramio.com/photo/89228920"}, {"upload_date": "23 April 2013", "owner_name": "Xenofwn79", "photo_id": 89228567, "longitude": 23.417526, "height": 60, "width": 60, "photo_title": "\u03a7\u03c9\u03bc\u03b1\u03c4\u03cc\u03b4\u03c1\u03bf\u03bc\u03bf\u03c2 \u03c3\u03c4\u03b7 \u03c1\u03ac\u03c7\u03b7 \u03c4\u03bf\u03c5 \u03bb\u03cc\u03c6\u03bf\u03c5", "latitude": 40.653676, "owner_url": "http://www.panoramio.com/user/5825520", "owner_id": 5825520, "photo_file_url": "http://mw2.google.com/mw-panoramio/photos/square/89228567.jpg", "photo_url": "http://www.panoramio.com/photo/89228567"}, {"upload_date": "08 April 2010", "owner_name": "geodis", "photo_id": 34143110, "longitude": 23.372179, "height": 60, "width": 60, "photo_title": "Vaiochori,Egnatia Highway,Volvi lake,Loutra Apollonias", "latitude": 40.728194, "owner_url": "http://www.panoramio.com/user/913681", "owner_id": 913681, "photo_file_url": "http://mw2.google.com/mw-panoramio/photos/square/34143110.jpg", "photo_url": "http://www.panoramio.com/photo/34143110"}, {"upload_date": "23 April 2013", "owner_name": "Xenofwn79", "photo_id": 89228544, "longitude": 23.380717, "height": 60, "width": 60, "photo_title": "\u03a0\u03c1\u03b1\u03c3\u03b9\u03bd\u03ac\u03b4\u03b1", "latitude": 40.659442, "owner_url": "http://www.panoramio.com/user/5825520", "owner_id": 5825520, "photo_file_url": "http://mw2.google.com/mw-panoramio/photos/square/89228544.jpg", "photo_url": "http://www.panoramio.com/photo/89228544"}, {"upload_date": "23 April 2013", "owner_name": "Xenofwn79", "photo_id": 89228471, "longitude": 23.071671, "height": 60, "width": 60, "photo_title": "\u0391\u03bd\u03bf\u03b9\u03be\u03b9\u03ac\u03c4\u03b9\u03ba\u03b1 \u03c7\u03c1\u03ce\u03bc\u03b1\u03c4\u03b1", "latitude": 40.685754, "owner_url": "http://www.panoramio.com/user/5825520", "owner_id": 5825520, "photo_file_url": "http://mw2.google.com/mw-panoramio/photos/square/89228471.jpg", "photo_url": "http://www.panoramio.com/photo/89228471"}, {"upload_date": "13 May 2008", "owner_name": "Udo H. Winter", "photo_id": 10180533, "longitude": 23.202395, "height": 60, "width": 60, "photo_title": "Nearby Evangelismos, Chortiati Mountain in the background", "latitude": 40.697527, "owner_url": "http://www.panoramio.com/user/1208526", "owner_id": 1208526, "photo_file_url": "http://mw2.google.com/mw-panoramio/photos/square/10180533.jpg", "photo_url": "http://www.panoramio.com/photo/10180533"}, {"upload_date": "22 October 2010", "owner_name": "Szalkovszky Tibor", "photo_id": 42581083, "longitude": 23.692102000000006, "height": 60, "width": 60, "photo_title": "Elhagyatva", "latitude": 40.68002, "owner_url": "http://www.panoramio.com/user/2892545", "owner_id": 2892545, "photo_file_url": "http://mw2.google.com/mw-panoramio/photos/square/42581083.jpg", "photo_url": "http://www.panoramio.com/photo/42581083"}, {"upload_date": "04 October 2008", "owner_name": "john indian", "photo_id": 14673089, "longitude": 23.358307, "height": 60, "width": 60, "photo_title": "\u0391\u03bd\u03b1\u03c4\u03bf\u03bb\u03b7 \u03b7\u03bb\u03b9\u03bf\u03c5 \u03c3\u03c4\u03b7\u03bd \u0395\u03b3\u03bd\u03b1\u03c4\u03b9\u03b1", "latitude": 40.702895, "owner_url": "http://www.panoramio.com/user/2179530", "owner_id": 2179530, "photo_file_url": "http://mw2.google.com/mw-panoramio/photos/square/14673089.jpg", "photo_url": "http://www.panoramio.com/photo/14673089"}, {"upload_date": "08 June 2010", "owner_name": "\u039b\u03b1\u03a6\u03c5", "photo_id": 36513958, "longitude": 23.474007, "height": 60, "width": 60, "photo_title": "\u03a1\u03ad\u03bc\u03b1 \u039c\u03b5\u03bb\u03bb\u03b9\u03c3\u03bf\u03c5\u03c1\u03b3\u03bf\u03cd-\u039a\u03bf\u03ba\u03ba\u03b1\u03bb\u03bf\u03cd\u03c2", "latitude": 40.61949, "owner_url": "http://www.panoramio.com/user/4502168", "owner_id": 4502168, "photo_file_url": "http://mw2.google.com/mw-panoramio/photos/square/36513958.jpg", "photo_url": "http://www.panoramio.com/photo/36513958"}, {"upload_date": "19 July 2009", "owner_name": "ziks", "photo_id": 24657725, "longitude": 23.60137900000001, "height": 60, "width": 60, "photo_title": "Jezero nadomak Stavrosa,Nea Vrasne i Asprovalte.", "latitude": 40.675951, "owner_url": "http://www.panoramio.com/user/1387635", "owner_id": 1387635, "photo_file_url": "http://mw2.google.com/mw-panoramio/photos/square/24657725.jpg", "photo_url": "http://www.panoramio.com/photo/24657725"}, {"upload_date": "26 May 2009", "owner_name": "xatalo_85", "photo_id": 22746018, "longitude": 23.476303, "height": 60, "width": 60, "photo_title": "\u038c\u03c4\u03b9 \u03b1\u03c0\u03ad\u03bc\u03b5\u03b9\u03bd\u03b5 \u03b1\u03c0\u03cc \u03c4\u03bf \u03b4\u03ad\u03bd\u03c4\u03c1\u03bf \u03c3\u03c4\u03bf \u03ba\u03b9\u03cc\u03c3\u03ba\u03b9", "latitude": 40.747533, "owner_url": "http://www.panoramio.com/user/3210780", "owner_id": 3210780, "photo_file_url": "http://mw2.google.com/mw-panoramio/photos/square/22746018.jpg", "photo_url": "http://www.panoramio.com/photo/22746018"}, {"upload_date": "04 September 2011", "owner_name": "nenko70", "photo_id": 58439528, "longitude": 23.49398995, "height": 60, "width": 60, "photo_title": "Apollonia, Madytos 57014, \u0413\u044a\u0440\u0446\u0438\u044f", "latitude": 40.63787495, "owner_url": "http://www.panoramio.com/user/752959", "owner_id": 752959, "photo_file_url": "http://mw2.google.com/mw-panoramio/photos/square/58439528.jpg", "photo_url": "http://www.panoramio.com/photo/58439528"}, {"upload_date": "11 October 2010", "owner_name": "\u039b\u03b1\u03a6\u03c5", "photo_id": 42044277, "longitude": 23.49997, "height": 60, "width": 60, "photo_title": "\u0394\u03ad\u03bb\u03c4\u03b1 \u03c1\u03ad\u03bc\u03b1\u03c4\u03bf\u03c2 \u039a\u03bf\u03ba\u03ba\u03b1\u03bb\u03bf\u03cd\u03c2-\u0391\u03c0\u03bf\u03bb\u03bb\u03c9\u03bd\u03af\u03b1\u03c2", "latitude": 40.657527, "owner_url": "http://www.panoramio.com/user/4502168", "owner_id": 4502168, "photo_file_url": "http://mw2.google.com/mw-panoramio/photos/square/42044277.jpg", "photo_url": "http://www.panoramio.com/photo/42044277"}, {"upload_date": "07 April 2012", "owner_name": "anatolitis2003", "photo_id": 69826206, "longitude": 23.524163, "height": 60, "width": 60, "photo_title": "Auf der Autobahn \"Egnatia\" bei Rendina, Nordgriechenland.", "latitude": 40.693244, "owner_url": "http://www.panoramio.com/user/6781423", "owner_id": 6781423, "photo_file_url": "http://mw2.google.com/mw-panoramio/photos/square/69826206.jpg", "photo_url": "http://www.panoramio.com/photo/69826206"}, {"upload_date": "07 April 2012", "owner_name": "anatolitis2003", "photo_id": 69820470, "longitude": 23.614306, "height": 60, "width": 60, "photo_title": "Auf der Autobahn \"Egnatia\" bei Vamvakia in Griechenland. ", "latitude": 40.67951, "owner_url": "http://www.panoramio.com/user/6781423", "owner_id": 6781423, "photo_file_url": "http://mw2.google.com/mw-panoramio/photos/square/69820470.jpg", "photo_url": "http://www.panoramio.com/photo/69820470"}, {"upload_date": "29 April 2008", "owner_name": "Udo H. Winter", "photo_id": 9773103, "longitude": 23.060303, "height": 60, "width": 60, "photo_title": "Nice view nearby Filiro", "latitude": 40.659936, "owner_url": "http://www.panoramio.com/user/1208526", "owner_id": 1208526, "photo_file_url": "http://mw2.google.com/mw-panoramio/photos/square/9773103.jpg", "photo_url": "http://www.panoramio.com/photo/9773103"}, {"upload_date": "26 October 2010", "owner_name": "Szalkovszky Tibor", "photo_id": 42779891, "longitude": 23.658371, "height": 60, "width": 60, "photo_title": "Felh\u0151k", "latitude": 40.68591, "owner_url": "http://www.panoramio.com/user/2892545", "owner_id": 2892545, "photo_file_url": "http://mw2.google.com/mw-panoramio/photos/square/42779891.jpg", "photo_url": "http://www.panoramio.com/photo/42779891"}, {"upload_date": "09 January 2014", "owner_name": "Sofjan Kotorri", "photo_id": 101565628, "longitude": 23.378735, "height": 60, "width": 60, "photo_title": "\u0394\u03b9\u03b1\u03b4\u03c1\u03bf\u03bc\u03ad\u03c2 \u03c3\u03c4\u03b7\u03bd \u0395\u03bb\u03bb\u03ac\u03b4\u03b1!", "latitude": 40.721307, "owner_url": "http://www.panoramio.com/user/6764395", "owner_id": 6764395, "photo_file_url": "http://mw2.google.com/mw-panoramio/photos/square/101565628.jpg", "photo_url": "http://www.panoramio.com/photo/101565628"}, {"upload_date": "09 January 2014", "owner_name": "Sofjan Kotorri", "photo_id": 101561615, "longitude": 23.331581, "height": 60, "width": 60, "photo_title": "\u0395\u03bb\u03bb\u03ac\u03b4\u03b1: \u039d\u03c5\u03bc\u03c6\u03cc\u03c0\u03b5\u03c4\u03c1\u03b1...", "latitude": 40.693419, "owner_url": "http://www.panoramio.com/user/6764395", "owner_id": 6764395, "photo_file_url": "http://mw2.google.com/mw-panoramio/photos/square/101561615.jpg", "photo_url": "http://www.panoramio.com/photo/101561615"}, {"upload_date": "10 February 2014", "owner_name": "Xenofwn79", "photo_id": 102999927, "longitude": 23.636356, "height": 60, "width": 60, "photo_title": "\u039590 \u03a3\u03c4\u03c1\u03c5\u03bc\u03cc\u03bd\u03b1\u03c2 \u03c0\u03c1\u03bf\u03c2 \u0398\u03b5\u03c3/\u03bd\u03af\u03ba\u03b7 12", "latitude": 40.696169, "owner_url": "http://www.panoramio.com/user/5825520", "owner_id": 5825520, "photo_file_url": "http://mw2.google.com/mw-panoramio/photos/square/102999927.jpg", "photo_url": "http://www.panoramio.com/photo/102999927"}, {"upload_date": "09 January 2014", "owner_name": "Sofjan Kotorri", "photo_id": 101566893, "longitude": 23.378756, "height": 60, "width": 60, "photo_title": "\u0395\u03bb\u03bb\u03ac\u03b4\u03b1: \u0391\u03c3\u03ba\u03cc\u03c2...", "latitude": 40.736982, "owner_url": "http://www.panoramio.com/user/6764395", "owner_id": 6764395, "photo_file_url": "http://mw2.google.com/mw-panoramio/photos/square/101566893.jpg", "photo_url": "http://www.panoramio.com/photo/101566893"}, {"upload_date": "20 October 2010", "owner_name": "\u039b\u03b1\u03a6\u03c5", "photo_id": 42491963, "longitude": 23.572475999999995, "height": 60, "width": 60, "photo_title": "\u039a\u03ac\u03bb\u03c5\u03b2\u03b1 \u03c3\u03c4\u03bf \u03ac\u03bb\u03c3\u03bf\u03c2 \u03bc\u03b5 \u03c4\u03b9\u03c2 \u03bb\u03b5\u03cd\u03ba\u03b5\u03c2(\u039d\u03ad\u03b1 \u039c\u03ac\u03b4\u03c5\u03c4\u03bf\u03c2)", "latitude": 40.643217, "owner_url": "http://www.panoramio.com/user/4502168", "owner_id": 4502168, "photo_file_url": "http://mw2.google.com/mw-panoramio/photos/square/42491963.jpg", "photo_url": "http://www.panoramio.com/photo/42491963"}, {"upload_date": "25 May 2009", "owner_name": "xatalo_85", "photo_id": 22719618, "longitude": 23.468041, "height": 60, "width": 60, "photo_title": "Filadelfeia", "latitude": 40.72508, "owner_url": "http://www.panoramio.com/user/3210780", "owner_id": 3210780, "photo_file_url": "http://mw2.google.com/mw-panoramio/photos/square/22719618.jpg", "photo_url": "http://www.panoramio.com/photo/22719618"}, {"upload_date": "22 September 2011", "owner_name": "Ivan Bojovic", "photo_id": 59387827, "longitude": 23.526621, "height": 60, "width": 60, "photo_title": "Egnatia odos", "latitude": 40.692744, "owner_url": "http://www.panoramio.com/user/68274", "owner_id": 68274, "photo_file_url": "http://mw2.google.com/mw-panoramio/photos/square/59387827.jpg", "photo_url": "http://www.panoramio.com/photo/59387827"}, {"upload_date": "03 October 2007", "owner_name": "velonis michalis", "photo_id": 5073882, "longitude": 23.445683, "height": 60, "width": 60, "photo_title": "\u03a4\u03ad\u03bc\u03c0\u03b5\u03bb\u03b7\u03c2", "latitude": 40.739454, "owner_url": "http://www.panoramio.com/user/910151", "owner_id": 910151, "photo_file_url": "http://mw2.google.com/mw-panoramio/photos/square/5073882.jpg", "photo_url": "http://www.panoramio.com/photo/5073882"}, {"upload_date": "31 May 2007", "owner_name": "kyrsos", "photo_id": 2495197, "longitude": 23.54044, "height": 60, "width": 60, "photo_title": "Volvi 1", "latitude": 40.677839, "owner_url": "http://www.panoramio.com/user/519442", "owner_id": 519442, "photo_file_url": "http://mw2.google.com/mw-panoramio/photos/square/2495197.jpg", "photo_url": "http://www.panoramio.com/photo/2495197"}, {"upload_date": "11 June 2013", "owner_name": "Vojtech Dvorak", "photo_id": 91643529, "longitude": 23.159008, "height": 60, "width": 60, "photo_title": "Thessaloniki, Vasilo\u00fadhion, Kilkis, Greece", "latitude": 40.654142, "owner_url": "http://www.panoramio.com/user/2935022", "owner_id": 2935022, "photo_file_url": "http://mw2.google.com/mw-panoramio/photos/square/91643529.jpg", "photo_url": "http://www.panoramio.com/photo/91643529"}, {"upload_date": "29 October 2010", "owner_name": "Szalkovszky Tibor", "photo_id": 42888976, "longitude": 23.649262, "height": 60, "width": 60, "photo_title": "Szeptemberi kr\u00f3kuszok", "latitude": 40.673209, "owner_url": "http://www.panoramio.com/user/2892545", "owner_id": 2892545, "photo_file_url": "http://mw2.google.com/mw-panoramio/photos/square/42888976.jpg", "photo_url": "http://www.panoramio.com/photo/42888976"}, {"upload_date": "07 January 2012", "owner_name": "Dif_Abso", "photo_id": 64568284, "longitude": 23.105106000000006, "height": 60, "width": 60, "photo_title": "sun in the winter/mountain hortiates", "latitude": 40.602093, "owner_url": "http://www.panoramio.com/user/3882110", "owner_id": 3882110, "photo_file_url": "http://mw2.google.com/mw-panoramio/photos/square/64568284.jpg", "photo_url": "http://www.panoramio.com/photo/64568284"}, {"upload_date": "04 September 2011", "owner_name": "nenko70", "photo_id": 58439539, "longitude": 23.48697094, "height": 60, "width": 60, "photo_title": "Apollonia, Madytos 57014, \u0413\u044a\u0440\u0446\u0438\u044f", "latitude": 40.63865698, "owner_url": "http://www.panoramio.com/user/752959", "owner_id": 752959, "photo_file_url": "http://mw2.google.com/mw-panoramio/photos/square/58439539.jpg", "photo_url": "http://www.panoramio.com/photo/58439539"}, {"upload_date": "26 November 2007", "owner_name": "vlaxaros", "photo_id": 6145778, "longitude": 23.560867, "height": 60, "width": 60, "photo_title": "madytos 2004", "latitude": 40.623725, "owner_url": "http://www.panoramio.com/user/847064", "owner_id": 847064, "photo_file_url": "http://mw2.google.com/mw-panoramio/photos/square/6145778.jpg", "photo_url": "http://www.panoramio.com/photo/6145778"}, {"upload_date": "22 June 2007", "owner_name": "lapanos", "photo_id": 2880725, "longitude": 23.059294, "height": 60, "width": 60, "photo_title": "basketball hall", "latitude": 40.747598, "owner_url": "http://www.panoramio.com/user/587665", "owner_id": 587665, "photo_file_url": "http://mw2.google.com/mw-panoramio/photos/square/2880725.jpg", "photo_url": "http://www.panoramio.com/photo/2880725"}, {"upload_date": "26 October 2010", "owner_name": "Szalkovszky Tibor", "photo_id": 42777718, "longitude": 23.650711, "height": 60, "width": 60, "photo_title": "A megk\u00f6zel\u00edthetetlen \u0151rtorony", "latitude": 40.700341, "owner_url": "http://www.panoramio.com/user/2892545", "owner_id": 2892545, "photo_file_url": "http://mw2.google.com/mw-panoramio/photos/square/42777718.jpg", "photo_url": "http://www.panoramio.com/photo/42777718"}, {"upload_date": "24 June 2010", "owner_name": "\u039b\u03b1\u03a6\u03c5", "photo_id": 37140172, "longitude": 23.52344500000001, "height": 60, "width": 60, "photo_title": "\u03a0\u03b1\u03c1\u03b1\u03bb\u03af\u03b1 \u03c3\u03ad\u03c1\u03c6\u03b9\u03bd\u03b3\u03ba(\u03b2\u03bb\u03ad\u03c0\u03bf\u03bd\u03c4\u03b1\u03c2 \u03c0\u03c1\u03cc\u03c2 \u039c\u03ac\u03b4\u03c5\u03c4\u03bf)", "latitude": 40.637144, "owner_url": "http://www.panoramio.com/user/4502168", "owner_id": 4502168, "photo_file_url": "http://mw2.google.com/mw-panoramio/photos/square/37140172.jpg", "photo_url": "http://www.panoramio.com/photo/37140172"}, {"upload_date": "20 June 2011", "owner_name": "banedencic", "photo_id": 54502439, "longitude": 23.689817, "height": 60, "width": 60, "photo_title": "fasada od kamen\u010di\u0107a", "latitude": 40.691536, "owner_url": "http://www.panoramio.com/user/1778741", "owner_id": 1778741, "photo_file_url": "http://mw2.google.com/mw-panoramio/photos/square/54502439.jpg", "photo_url": "http://www.panoramio.com/photo/54502439"}, {"upload_date": "10 May 2009", "owner_name": "Emrashvili Ramazi", "photo_id": 22215627, "longitude": 23.097038, "height": 60, "width": 60, "photo_title": "hortiatis", "latitude": 40.598053, "owner_url": "http://www.panoramio.com/user/3178677", "owner_id": 3178677, "photo_file_url": "http://mw2.google.com/mw-panoramio/photos/square/22215627.jpg", "photo_url": "http://www.panoramio.com/photo/22215627"}, {"upload_date": "23 June 2010", "owner_name": "\u039b\u03b1\u03a6\u03c5", "photo_id": 37079671, "longitude": 23.055153, "height": 60, "width": 60, "photo_title": "\u03a0\u03b1\u03bd\u03cc\u03c1\u03b1\u03bc\u03b1(\u03b2\u03bb\u03ad\u03c0\u03bf\u03bd\u03c4\u03b1\u03c2 \u03c0\u03c1\u03cc\u03c2 \u038c\u03bb\u03c5\u03bc\u03c0\u03bf )", "latitude": 40.610043, "owner_url": "http://www.panoramio.com/user/4502168", "owner_id": 4502168, "photo_file_url": "http://mw2.google.com/mw-panoramio/photos/square/37079671.jpg", "photo_url": "http://www.panoramio.com/photo/37079671"}, {"upload_date": "27 March 2008", "owner_name": "Costas Gilis", "photo_id": 8898354, "longitude": 23.050346, "height": 60, "width": 60, "photo_title": "Mount Hortiatis by night (\u039f \u03a7\u03bf\u03c1\u03c4\u03b9\u03ac\u03c4\u03b7\u03c2 \u03bd\u03cd\u03c7\u03c4\u03b1 \u03b1\u03c0\u03cc \u03c4\u03b7\u03bd \u039a\u03b1\u03bb\u03b1\u03bc\u03b1\u03c1\u03b9\u03ac)", "latitude": 40.618904, "owner_url": "http://www.panoramio.com/user/1535856", "owner_id": 1535856, "photo_file_url": "http://mw2.google.com/mw-panoramio/photos/square/8898354.jpg", "photo_url": "http://www.panoramio.com/photo/8898354"}, {"upload_date": "08 June 2010", "owner_name": "\u039b\u03b1\u03a6\u03c5", "photo_id": 36513575, "longitude": 23.490636, "height": 60, "width": 60, "photo_title": "\u0391\u03c0\u03bf\u03bb\u03bb\u03c9\u03bd\u03af\u03b1..(\u0392\u03ae\u03bc\u03b1 \u0391\u03c0. \u03a0\u03b1\u03cd\u03bb\u03bf\u03c5)", "latitude": 40.643526, "owner_url": "http://www.panoramio.com/user/4502168", "owner_id": 4502168, "photo_file_url": "http://mw2.google.com/mw-panoramio/photos/square/36513575.jpg", "photo_url": "http://www.panoramio.com/photo/36513575"}, {"upload_date": "25 November 2007", "owner_name": "ofroad", "photo_id": 6133400, "longitude": 23.21454, "height": 60, "width": 60, "photo_title": "\u03a7\u0399\u039f\u039d\u0399\u03a3\u039c\u0395\u039d\u0397  \u0393\u0395\u03a1\u0391\u039a\u0391\u03a1\u039f\u03a5   2006", "latitude": 40.628285, "owner_url": "http://www.panoramio.com/user/1135721", "owner_id": 1135721, "photo_file_url": "http://mw2.google.com/mw-panoramio/photos/square/6133400.jpg", "photo_url": "http://www.panoramio.com/photo/6133400"}, {"upload_date": "26 October 2010", "owner_name": "Szalkovszky Tibor", "photo_id": 42780159, "longitude": 23.658220999999998, "height": 60, "width": 60, "photo_title": "Es\u0151 ut\u00e1n", "latitude": 40.68303, "owner_url": "http://www.panoramio.com/user/2892545", "owner_id": 2892545, "photo_file_url": "http://mw2.google.com/mw-panoramio/photos/square/42780159.jpg", "photo_url": "http://www.panoramio.com/photo/42780159"}, {"upload_date": "09 January 2014", "owner_name": "Sofjan Kotorri", "photo_id": 101566237, "longitude": 23.370624, "height": 60, "width": 60, "photo_title": "\u0395\u03bb\u03bb\u03ac\u03b4\u03b1: \u0391\u03c3\u03ba\u03cc\u03c2...", "latitude": 40.735503, "owner_url": "http://www.panoramio.com/user/6764395", "owner_id": 6764395, "photo_file_url": "http://mw2.google.com/mw-panoramio/photos/square/101566237.jpg", "photo_url": "http://www.panoramio.com/photo/101566237"},