{"count": 3049, "has_more": true, "map_location": {"lat": 34.0244615, "panoramio_zoom": 10, "lon": -5.343586360425129}, "photos": [{"upload_date": "26 May 2013", "owner_name": "elakramine", "photo_id": 90858047, "longitude": -5.655556, "height": 60, "width": 60, "photo_title": "Meknes , Ras Jerry  - Paysage", "latitude": 33.800583, "owner_url": "http://www.panoramio.com/user/831427", "photo_url": "http://www.panoramio.com/photo/90858047", "photo_file_url": "http://mw2.google.com/mw-panoramio/photos/square/90858047.jpg", "owner_id": 831427}, {"upload_date": "14 April 2013", "owner_name": "elakramine", "photo_id": 88783366, "longitude": -5.252787, "height": 60, "width": 60, "photo_title": "Lac Afenounir (a)", "latitude": 33.276268, "owner_url": "http://www.panoramio.com/user/831427", "photo_url": "http://www.panoramio.com/photo/88783366", "photo_file_url": "http://mw2.google.com/mw-panoramio/photos/square/88783366.jpg", "owner_id": 831427}, {"upload_date": "25 November 2010", "owner_name": "_MM_", "photo_id": 44173077, "longitude": -5.356522, "height": 60, "width": 60, "photo_title": "Nzala el Ouda\u00efa", "latitude": 34.068587, "owner_url": "http://www.panoramio.com/user/2935893", "photo_url": "http://www.panoramio.com/photo/44173077", "photo_file_url": "http://mw2.google.com/mw-panoramio/photos/square/44173077.jpg", "owner_id": 2935893}, {"upload_date": "15 November 2010", "owner_name": "_MM_", "photo_id": 43720832, "longitude": -5.553465, "height": 60, "width": 60, "photo_title": "Volubilis -UNESCO World Heritage site", "latitude": 34.07535, "owner_url": "http://www.panoramio.com/user/2935893", "photo_url": "http://www.panoramio.com/photo/43720832", "photo_file_url": "http://mw2.google.com/mw-panoramio/photos/square/43720832.jpg", "owner_id": 2935893}, {"upload_date": "14 April 2013", "owner_name": "elakramine", "photo_id": 88784139, "longitude": -4.994446, "height": 60, "width": 60, "photo_title": "Entrance of Royal Palace, El Mellah - F\u00e8s", "latitude": 34.052926, "owner_url": "http://www.panoramio.com/user/831427", "photo_url": "http://www.panoramio.com/photo/88784139", "photo_file_url": "http://mw2.google.com/mw-panoramio/photos/square/88784139.jpg", "owner_id": 831427}, {"upload_date": "30 May 2012", "owner_name": "Martin (WPF)", "photo_id": 72922258, "longitude": -4.687129, "height": 60, "width": 60, "photo_title": "Idriss I Dam", "latitude": 34.142341, "owner_url": "http://www.panoramio.com/user/5465197", "photo_url": "http://www.panoramio.com/photo/72922258", "photo_file_url": "http://mw2.google.com/mw-panoramio/photos/square/72922258.jpg", "owner_id": 5465197}, {"upload_date": "07 February 2013", "owner_name": "elakramine", "photo_id": 85754361, "longitude": -5.976833, "height": 60, "width": 60, "photo_title": "Solitaire et Majestueux    !!!!!!!!", "latitude": 33.787726, "owner_url": "http://www.panoramio.com/user/831427", "photo_url": "http://www.panoramio.com/photo/85754361", "photo_file_url": "http://mw2.google.com/mw-panoramio/photos/square/85754361.jpg", "owner_id": 831427}, {"upload_date": "31 January 2013", "owner_name": "elakramine", "photo_id": 85441543, "longitude": -5.023953, "height": 60, "width": 60, "photo_title": "Aoua Lake", "latitude": 33.65106, "owner_url": "http://www.panoramio.com/user/831427", "photo_url": "http://www.panoramio.com/photo/85441543", "photo_file_url": "http://mw2.google.com/mw-panoramio/photos/square/85441543.jpg", "owner_id": 831427}, {"upload_date": "16 October 2012", "owner_name": "elakramine", "photo_id": 80648500, "longitude": -5.003304, "height": 60, "width": 60, "photo_title": "Kh\u00e9nifra,  Aguelmane Sidi Ali Lake ", "latitude": 33.068887, "owner_url": "http://www.panoramio.com/user/831427", "photo_url": "http://www.panoramio.com/photo/80648500", "photo_file_url": "http://mw2.google.com/mw-panoramio/photos/square/80648500.jpg", "owner_id": 831427}, {"upload_date": "27 January 2013", "owner_name": "elakramine", "photo_id": 85280940, "longitude": -5.368654, "height": 60, "width": 60, "photo_title": "Ain Dhiba lake", "latitude": 33.684829, "owner_url": "http://www.panoramio.com/user/831427", "photo_url": "http://www.panoramio.com/photo/85280940", "photo_file_url": "http://mw2.google.com/mw-panoramio/photos/square/85280940.jpg", "owner_id": 831427}, {"upload_date": "13 November 2012", "owner_name": "elakramine", "photo_id": 82040418, "longitude": -5.106373, "height": 60, "width": 60, "photo_title": "Ifrane , automne 2012 ", "latitude": 33.5181, "owner_url": "http://www.panoramio.com/user/831427", "photo_url": "http://www.panoramio.com/photo/82040418", "photo_file_url": "http://mw2.google.com/mw-panoramio/photos/square/82040418.jpg", "owner_id": 831427}, {"upload_date": "10 September 2012", "owner_name": "elakramine", "photo_id": 78630846, "longitude": -5.193007, "height": 60, "width": 60, "photo_title": "Environs de Moulay Yacoub ", "latitude": 34.083566, "owner_url": "http://www.panoramio.com/user/831427", "photo_url": "http://www.panoramio.com/photo/78630846", "photo_file_url": "http://mw2.google.com/mw-panoramio/photos/square/78630846.jpg", "owner_id": 831427}, {"upload_date": "02 April 2009", "owner_name": "elakramine", "photo_id": 20739633, "longitude": -5.417258, "height": 60, "width": 60, "photo_title": "Cascades Zaouia d'Ifrane  ", "latitude": 33.195981, "owner_url": "http://www.panoramio.com/user/831427", "photo_url": "http://www.panoramio.com/photo/20739633", "photo_file_url": "http://mw2.google.com/mw-panoramio/photos/square/20739633.jpg", "owner_id": 831427}, {"upload_date": "30 October 2010", "owner_name": "kamotos", "photo_id": 42960786, "longitude": -6.582184000000012, "height": 60, "width": 60, "photo_title": "Storks at sun set", "latitude": 34.269134, "owner_url": "http://www.panoramio.com/user/3560758", "photo_url": "http://www.panoramio.com/photo/42960786", "photo_file_url": "http://mw2.google.com/mw-panoramio/photos/square/42960786.jpg", "owner_id": 3560758}, {"upload_date": "06 May 2009", "owner_name": "elakramine", "photo_id": 22060016, "longitude": -6.292892, "height": 60, "width": 60, "photo_title": "Merja Zerga Lagoon ", "latitude": 34.875792, "owner_url": "http://www.panoramio.com/user/831427", "photo_url": "http://www.panoramio.com/photo/22060016", "photo_file_url": "http://mw2.google.com/mw-panoramio/photos/square/22060016.jpg", "owner_id": 831427}, {"upload_date": "15 April 2010", "owner_name": "anaberdi", "photo_id": 34376419, "longitude": -3.9660639999999887, "height": 60, "width": 60, "photo_title": "CAMINO A FES / GOING TO FES", "latitude": 34.207259, "owner_url": "http://www.panoramio.com/user/4287517", "photo_url": "http://www.panoramio.com/photo/34376419", "photo_file_url": "http://mw2.google.com/mw-panoramio/photos/square/34376419.jpg", "owner_id": 4287517}, {"upload_date": "25 November 2007", "owner_name": "Tom\u00e1s Paz", "photo_id": 6118749, "longitude": -4.5819, "height": 60, "width": 60, "photo_title": "Sr.Castillo n\u00ba1", "latitude": 34.915074, "owner_url": "http://www.panoramio.com/user/1116880", "photo_url": "http://www.panoramio.com/photo/6118749", "photo_file_url": "http://mw2.google.com/mw-panoramio/photos/square/6118749.jpg", "owner_id": 1116880}, {"upload_date": "28 May 2008", "owner_name": "Zi\u0119bol", "photo_id": 10703929, "longitude": -4.705582, "height": 60, "width": 60, "photo_title": "A donkey in the Moroccan wastelands is searching for answers to questions never asked.", "latitude": 33.109661, "owner_url": "http://www.panoramio.com/user/12954", "photo_url": "http://www.panoramio.com/photo/10703929", "photo_file_url": "http://mw2.google.com/mw-panoramio/photos/square/10703929.jpg", "owner_id": 12954}, {"upload_date": "25 November 2007", "owner_name": "Tom\u00e1s Paz", "photo_id": 6118188, "longitude": -3.964863, "height": 60, "width": 60, "photo_title": "Camello (Interminable)", "latitude": 33.096431, "owner_url": "http://www.panoramio.com/user/1116880", "photo_url": "http://www.panoramio.com/photo/6118188", "photo_file_url": "http://mw2.google.com/mw-panoramio/photos/square/6118188.jpg", "owner_id": 1116880}, {"upload_date": "25 October 2010", "owner_name": "etterla", "photo_id": 42718749, "longitude": -6.738035999999994, "height": 60, "width": 60, "photo_title": "La Plage des Nations, 1976", "latitude": 34.146783, "owner_url": "http://www.panoramio.com/user/4605083", "photo_url": "http://www.panoramio.com/photo/42718749", "photo_file_url": "http://mw2.google.com/mw-panoramio/photos/square/42718749.jpg", "owner_id": 4605083}, {"upload_date": "16 August 2010", "owner_name": "kamotos", "photo_id": 39393090, "longitude": -4.887886, "height": 60, "width": 60, "photo_title": "chardons du rif", "latitude": 34.99766, "owner_url": "http://www.panoramio.com/user/3560758", "photo_url": "http://www.panoramio.com/photo/39393090", "photo_file_url": "http://mw2.google.com/mw-panoramio/photos/square/39393090.jpg", "owner_id": 3560758}, {"upload_date": "27 February 2013", "owner_name": "elakramine", "photo_id": 86675528, "longitude": -5.293826, "height": 60, "width": 60, "photo_title": "B\u00e9lv\u00e8dere d'Ito", "latitude": 33.478528, "owner_url": "http://www.panoramio.com/user/831427", "photo_url": "http://www.panoramio.com/photo/86675528", "photo_file_url": "http://mw2.google.com/mw-panoramio/photos/square/86675528.jpg", "owner_id": 831427}, {"upload_date": "15 June 2013", "owner_name": "elakramine", "photo_id": 91816530, "longitude": -5.560101, "height": 60, "width": 60, "photo_title": "The old city of Meknes viewed from the Transatlantic Hotel", "latitude": 33.904387, "owner_url": "http://www.panoramio.com/user/831427", "photo_url": "http://www.panoramio.com/photo/91816530", "photo_file_url": "http://mw2.google.com/mw-panoramio/photos/square/91816530.jpg", "owner_id": 831427}, {"upload_date": "09 December 2010", "owner_name": "_MM_", "photo_id": 44807619, "longitude": -5.573845000000006, "height": 60, "width": 60, "photo_title": "Bab Lakhmis/ Kelet kapuja", "latitude": 33.891436, "owner_url": "http://www.panoramio.com/user/2935893", "photo_url": "http://www.panoramio.com/photo/44807619", "photo_file_url": "http://mw2.google.com/mw-panoramio/photos/square/44807619.jpg", "owner_id": 2935893}, {"upload_date": "04 January 2013", "owner_name": "elakramine", "photo_id": 84237551, "longitude": -5.481491, "height": 60, "width": 60, "photo_title": "R\u00e9gion de Moulay Idriss Zerhoune", "latitude": 34.116807, "owner_url": "http://www.panoramio.com/user/831427", "photo_url": "http://www.panoramio.com/photo/84237551", "photo_file_url": "http://mw2.google.com/mw-panoramio/photos/square/84237551.jpg", "owner_id": 831427}, {"upload_date": "13 November 2012", "owner_name": "elakramine", "photo_id": 82040486, "longitude": -5.479378, "height": 60, "width": 60, "photo_title": "Mekn\u00e8s, Complexe touristique Aladdin , piscine", "latitude": 33.897904, "owner_url": "http://www.panoramio.com/user/831427", "photo_url": "http://www.panoramio.com/photo/82040486", "photo_file_url": "http://mw2.google.com/mw-panoramio/photos/square/82040486.jpg", "owner_id": 831427}, {"upload_date": "19 March 2013", "owner_name": "elakramine", "photo_id": 87564053, "longitude": -5.548233, "height": 60, "width": 60, "photo_title": "Spring Landscape", "latitude": 33.88797, "owner_url": "http://www.panoramio.com/user/831427", "photo_url": "http://www.panoramio.com/photo/87564053", "photo_file_url": "http://mw2.google.com/mw-panoramio/photos/square/87564053.jpg", "owner_id": 831427}, {"upload_date": "28 February 2013", "owner_name": "elakramine", "photo_id": 86717746, "longitude": -5.226424, "height": 60, "width": 60, "photo_title": "Azrou, Mekn\u00e8s-Tafilelt", "latitude": 33.440138, "owner_url": "http://www.panoramio.com/user/831427", "photo_url": "http://www.panoramio.com/photo/86717746", "photo_file_url": "http://mw2.google.com/mw-panoramio/photos/square/86717746.jpg", "owner_id": 831427}, {"upload_date": "28 October 2013", "owner_name": "elakramine", "photo_id": 98420819, "longitude": -4.884263, "height": 60, "width": 60, "photo_title": "Station thermale  de Sidi Harazem ", "latitude": 34.027367, "owner_url": "http://www.panoramio.com/user/831427", "photo_url": "http://www.panoramio.com/photo/98420819", "photo_file_url": "http://mw2.google.com/mw-panoramio/photos/square/98420819.jpg", "owner_id": 831427}, {"upload_date": "13 November 2012", "owner_name": "elakramine", "photo_id": 82038431, "longitude": -5.10602, "height": 60, "width": 60, "photo_title": "Ifrane lake - (2)", "latitude": 33.530902, "owner_url": "http://www.panoramio.com/user/831427", "photo_url": "http://www.panoramio.com/photo/82038431", "photo_file_url": "http://mw2.google.com/mw-panoramio/photos/square/82038431.jpg", "owner_id": 831427}, {"upload_date": "25 November 2010", "owner_name": "_MM_", "photo_id": 44173088, "longitude": -5.308113, "height": 60, "width": 60, "photo_title": "Rural area close to Meknes", "latitude": 34.056642, "owner_url": "http://www.panoramio.com/user/2935893", "photo_url": "http://www.panoramio.com/photo/44173088", "photo_file_url": "http://mw2.google.com/mw-panoramio/photos/square/44173088.jpg", "owner_id": 2935893}, {"upload_date": "07 October 2013", "owner_name": "elakramine", "photo_id": 97406981, "longitude": -5.538995, "height": 60, "width": 60, "photo_title": "Ksar Ayam Zamane  swimming pool - Hybrid GPS", "latitude": 33.867677, "owner_url": "http://www.panoramio.com/user/831427", "photo_url": "http://www.panoramio.com/photo/97406981", "photo_file_url": "http://mw2.google.com/mw-panoramio/photos/square/97406981.jpg", "owner_id": 831427}, {"upload_date": "23 January 2013", "owner_name": "elakramine", "photo_id": 85099169, "longitude": -5.490878, "height": 60, "width": 60, "photo_title": "Jeux de lumi\u00e8res entre soleil  et nuages", "latitude": 33.924838, "owner_url": "http://www.panoramio.com/user/831427", "photo_url": "http://www.panoramio.com/photo/85099169", "photo_file_url": "http://mw2.google.com/mw-panoramio/photos/square/85099169.jpg", "owner_id": 831427}, {"upload_date": "25 March 2012", "owner_name": "elakramine", "photo_id": 69102018, "longitude": -6.67906, "height": 60, "width": 60, "photo_title": "Mehdia beach and Camels", "latitude": 34.253643, "owner_url": "http://www.panoramio.com/user/831427", "photo_url": "http://www.panoramio.com/photo/69102018", "photo_file_url": "http://mw2.google.com/mw-panoramio/photos/square/69102018.jpg", "owner_id": 831427}, {"upload_date": "04 April 2009", "owner_name": "ssSUH", "photo_id": 20783504, "longitude": -5.129929000000004, "height": 60, "width": 60, "photo_title": "Meditation of Rif Highland", "latitude": 33.319627, "owner_url": "http://www.panoramio.com/user/478232", "photo_url": "http://www.panoramio.com/photo/20783504", "photo_file_url": "http://mw2.google.com/mw-panoramio/photos/square/20783504.jpg", "owner_id": 478232}, {"upload_date": "14 January 2013", "owner_name": "elakramine", "photo_id": 84714731, "longitude": -6.709916, "height": 60, "width": 60, "photo_title": "Rabat, For\u00eat de la M\u00e2amora ", "latitude": 34.048736, "owner_url": "http://www.panoramio.com/user/831427", "photo_url": "http://www.panoramio.com/photo/84714731", "photo_file_url": "http://mw2.google.com/mw-panoramio/photos/square/84714731.jpg", "owner_id": 831427}, {"upload_date": "21 November 2013", "owner_name": "elakramine", "photo_id": 99583692, "longitude": -5.130229, "height": 60, "width": 60, "photo_title": "Jbel Hebri - Ifrane - Les premi\u00e8res chutes de neige de la saison", "latitude": 33.361402, "owner_url": "http://www.panoramio.com/user/831427", "photo_url": "http://www.panoramio.com/photo/99583692", "photo_file_url": "http://mw2.google.com/mw-panoramio/photos/square/99583692.jpg", "owner_id": 831427}, {"upload_date": "13 August 2012", "owner_name": "elakramine", "photo_id": 76969673, "longitude": -5.953563, "height": 60, "width": 60, "photo_title": " R\u00e9gion de Khemisset,  apr\u00e8s la moisson du bl\u00e9", "latitude": 33.873477, "owner_url": "http://www.panoramio.com/user/831427", "photo_url": "http://www.panoramio.com/photo/76969673", "photo_file_url": "http://mw2.google.com/mw-panoramio/photos/square/76969673.jpg", "owner_id": 831427}, {"upload_date": "27 January 2013", "owner_name": "elakramine", "photo_id": 85281017, "longitude": -5.942985, "height": 60, "width": 60, "photo_title": "Beht river -  Hybrid GPS", "latitude": 33.779797, "owner_url": "http://www.panoramio.com/user/831427", "photo_url": "http://www.panoramio.com/photo/85281017", "photo_file_url": "http://mw2.google.com/mw-panoramio/photos/square/85281017.jpg", "owner_id": 831427}, {"upload_date": "13 August 2012", "owner_name": "elakramine", "photo_id": 76969250, "longitude": -5.747557, "height": 60, "width": 60, "photo_title": "Pr\u00e8s de Ain El Orma", "latitude": 33.89726, "owner_url": "http://www.panoramio.com/user/831427", "photo_url": "http://www.panoramio.com/photo/76969250", "photo_file_url": "http://mw2.google.com/mw-panoramio/photos/square/76969250.jpg", "owner_id": 831427}, {"upload_date": "21 November 2012", "owner_name": "elakramine", "photo_id": 82393810, "longitude": -5.52593, "height": 60, "width": 60, "photo_title": "Moulay Idriss Zerhoun", "latitude": 34.056393, "owner_url": "http://www.panoramio.com/user/831427", "photo_url": "http://www.panoramio.com/photo/82393810", "photo_file_url": "http://mw2.google.com/mw-panoramio/photos/square/82393810.jpg", "owner_id": 831427}, {"upload_date": "29 October 2010", "owner_name": "Alexandru Ioan", "photo_id": 42906526, "longitude": -5.253525, "height": 60, "width": 60, "photo_title": "A fertile valley", "latitude": 33.92399, "owner_url": "http://www.panoramio.com/user/1490671", "photo_url": "http://www.panoramio.com/photo/42906526", "photo_file_url": "http://mw2.google.com/mw-panoramio/photos/square/42906526.jpg", "owner_id": 1490671}, {"upload_date": "13 August 2012", "owner_name": "elakramine", "photo_id": 76969307, "longitude": -5.605431, "height": 60, "width": 60, "photo_title": "Mekn\u00e8s-El Menzeh, le printemps est l\u00e0", "latitude": 33.883506, "owner_url": "http://www.panoramio.com/user/831427", "photo_url": "http://www.panoramio.com/photo/76969307", "photo_file_url": "http://mw2.google.com/mw-panoramio/photos/square/76969307.jpg", "owner_id": 831427}, {"upload_date": "13 August 2012", "owner_name": "elakramine", "photo_id": 76969032, "longitude": -5.798032, "height": 60, "width": 60, "photo_title": "Sfassif, paysage de printemps", "latitude": 33.894397, "owner_url": "http://www.panoramio.com/user/831427", "photo_url": "http://www.panoramio.com/photo/76969032", "photo_file_url": "http://mw2.google.com/mw-panoramio/photos/square/76969032.jpg", "owner_id": 831427}, {"upload_date": "21 September 2012", "owner_name": "elakramine", "photo_id": 79264521, "longitude": -5.121861, "height": 60, "width": 60, "photo_title": "Ifrane, Zaouia de moulay Abdessalam (1)", "latitude": 33.57293, "owner_url": "http://www.panoramio.com/user/831427", "photo_url": "http://www.panoramio.com/photo/79264521", "photo_file_url": "http://mw2.google.com/mw-panoramio/photos/square/79264521.jpg", "owner_id": 831427}, {"upload_date": "26 November 2011", "owner_name": "Olivier Faugeras", "photo_id": 62732952, "longitude": -4.97285172005, "height": 60, "width": 60, "photo_title": "Medersa Attarine II", "latitude": 34.0650843499, "owner_url": "http://www.panoramio.com/user/629243", "photo_url": "http://www.panoramio.com/photo/62732952", "photo_file_url": "http://mw2.google.com/mw-panoramio/photos/square/62732952.jpg", "owner_id": 629243}, {"upload_date": "04 July 2012", "owner_name": "elakramine", "photo_id": 74857180, "longitude": -5.063903, "height": 60, "width": 60, "photo_title": "Reflections", "latitude": 33.15208, "owner_url": "http://www.panoramio.com/user/831427", "photo_url": "http://www.panoramio.com/photo/74857180", "photo_file_url": "http://mw2.google.com/mw-panoramio/photos/square/74857180.jpg", "owner_id": 831427}, {"upload_date": "12 March 2007", "owner_name": "@mabut", "photo_id": 1289212, "longitude": -5.300903, "height": 60, "width": 60, "photo_title": "Pastures of heaven", "latitude": 33.25936, "owner_url": "http://www.panoramio.com/user/232099", "photo_url": "http://www.panoramio.com/photo/1289212", "photo_file_url": "http://mw2.google.com/mw-panoramio/photos/square/1289212.jpg", "owner_id": 232099}, {"upload_date": "21 September 2012", "owner_name": "elakramine", "photo_id": 79264706, "longitude": -5.19504, "height": 60, "width": 60, "photo_title": "Azrou , Khadija bent hamid Mosque (2)", "latitude": 33.442777, "owner_url": "http://www.panoramio.com/user/831427", "photo_url": "http://www.panoramio.com/photo/79264706", "photo_file_url": "http://mw2.google.com/mw-panoramio/photos/square/79264706.jpg", "owner_id": 831427}, {"upload_date": "05 September 2007", "owner_name": "elakramine", "photo_id": 4433438, "longitude": -5.026932, "height": 60, "width": 60, "photo_title": "Michlifen", "latitude": 33.439177, "owner_url": "http://www.panoramio.com/user/831427", "photo_url": "http://www.panoramio.com/photo/4433438", "photo_file_url": "http://mw2.google.com/mw-panoramio/photos/square/4433438.jpg", "owner_id": 831427}, {"upload_date": "10 September 2012", "owner_name": "elakramine", "photo_id": 78631065, "longitude": -5.123534, "height": 60, "width": 60, "photo_title": "Ifrane, Rass el Maa ", "latitude": 33.470098, "owner_url": "http://www.panoramio.com/user/831427", "photo_url": "http://www.panoramio.com/photo/78631065", "photo_file_url": "http://mw2.google.com/mw-panoramio/photos/square/78631065.jpg", "owner_id": 831427}, {"upload_date": "02 January 2008", "owner_name": "elakramine", "photo_id": 6845753, "longitude": -5.411024, "height": 60, "width": 60, "photo_title": "Sources of  the Oum-Er-Rbiaa River  ", "latitude": 33.051263, "owner_url": "http://www.panoramio.com/user/831427", "photo_url": "http://www.panoramio.com/photo/6845753", "photo_file_url": "http://mw2.google.com/mw-panoramio/photos/square/6845753.jpg", "owner_id": 831427}, {"upload_date": "25 November 2007", "owner_name": "elakramine", "photo_id": 6135101, "longitude": -5.345213000000001, "height": 60, "width": 60, "photo_title": "Lac Ouiane", "latitude": 33.133886, "owner_url": "http://www.panoramio.com/user/831427", "photo_url": "http://www.panoramio.com/photo/6135101", "photo_file_url": "http://mw2.google.com/mw-panoramio/photos/square/6135101.jpg", "owner_id": 831427}, {"upload_date": "16 May 2010", "owner_name": "Abdallah BOUHAMIDI", "photo_id": 35601993, "longitude": -4.970133000000004, "height": 60, "width": 60, "photo_title": "Douze si\u00e8cles et des paraboles 1", "latitude": 34.054179, "owner_url": "http://www.panoramio.com/user/76914", "photo_url": "http://www.panoramio.com/photo/35601993", "photo_file_url": "http://mw2.google.com/mw-panoramio/photos/square/35601993.jpg", "owner_id": 76914}, {"upload_date": "26 November 2007", "owner_name": "elakramine", "photo_id": 6149931, "longitude": -5.561056, "height": 60, "width": 60, "photo_title": "Bassin Souani", "latitude": 33.881505, "owner_url": "http://www.panoramio.com/user/831427", "photo_url": "http://www.panoramio.com/photo/6149931", "photo_file_url": "http://mw2.google.com/mw-panoramio/photos/square/6149931.jpg", "owner_id": 831427}, {"upload_date": "27 September 2007", "owner_name": "elakramine", "photo_id": 4938585, "place_id": "2cfff4dcb582a140ea5194edea208db970ad0fff", "longitude": -5.546604, "height": 60, "width": 60, "photo_title": "Lyc\u00e9e Moulay Ismail", "latitude": 33.903984, "owner_url": "http://www.panoramio.com/user/831427", "photo_url": "http://www.panoramio.com/photo/4938585", "photo_file_url": "http://mw2.google.com/mw-panoramio/photos/square/4938585.jpg", "owner_id": 831427}, {"upload_date": "30 July 2012", "owner_name": "elakramine", "photo_id": 76247004, "longitude": -4.921875, "height": 60, "width": 60, "photo_title": "C\u00e8dre ", "latitude": 33.66883, "owner_url": "http://www.panoramio.com/user/831427", "photo_url": "http://www.panoramio.com/photo/76247004", "photo_file_url": "http://mw2.google.com/mw-panoramio/photos/square/76247004.jpg", "owner_id": 831427}, {"upload_date": "09 March 2008", "owner_name": "elakramine", "photo_id": 8398296, "longitude": -5.487043, "height": 60, "width": 60, "photo_title": "Baladiate Boufekrane", "latitude": 33.760975, "owner_url": "http://www.panoramio.com/user/831427", "photo_url": "http://www.panoramio.com/photo/8398296", "photo_file_url": "http://mw2.google.com/mw-panoramio/photos/square/8398296.jpg", "owner_id": 831427}, {"upload_date": "14 June 2012", "owner_name": "elakramine", "photo_id": 73732618, "longitude": -5.118503, "height": 60, "width": 60, "photo_title": "Drive  through a cool tunnel of trees,  Ifrane", "latitude": 33.49762, "owner_url": "http://www.panoramio.com/user/831427", "photo_url": "http://www.panoramio.com/photo/73732618", "photo_file_url": "http://mw2.google.com/mw-panoramio/photos/square/73732618.jpg", "owner_id": 831427}, {"upload_date": "12 February 2008", "owner_name": "elakramine", "photo_id": 7778890, "longitude": -5.078061, "height": 60, "width": 60, "photo_title": "Michlifen sans Neige.", "latitude": 33.413467, "owner_url": "http://www.panoramio.com/user/831427", "photo_url": "http://www.panoramio.com/photo/7778890", "photo_file_url": "http://mw2.google.com/mw-panoramio/photos/square/7778890.jpg", "owner_id": 831427}, {"upload_date": "09 January 2012", "owner_name": "elakramine", "photo_id": 64662810, "longitude": -6.1862680000000125, "height": 60, "width": 60, "photo_title": "Dait Erroumi  Lake", "latitude": 33.744629, "owner_url": "http://www.panoramio.com/user/831427", "photo_url": "http://www.panoramio.com/photo/64662810", "photo_file_url": "http://mw2.google.com/mw-panoramio/photos/square/64662810.jpg", "owner_id": 831427}, {"upload_date": "14 August 2007", "owner_name": "A.T.S.", "photo_id": 3931336, "longitude": -5.059547, "height": 60, "width": 60, "photo_title": "Marruecos, Assillah", "latitude": 33.988634, "owner_url": "http://www.panoramio.com/user/628106", "photo_url": "http://www.panoramio.com/photo/3931336", "photo_file_url": "http://mw2.google.com/mw-panoramio/photos/square/3931336.jpg", "owner_id": 628106}, {"upload_date": "04 March 2012", "owner_name": "elakramine", "photo_id": 67920871, "longitude": -6.512208, "height": 60, "width": 60, "photo_title": "Landscape", "latitude": 34.168973, "owner_url": "http://www.panoramio.com/user/831427", "photo_url": "http://www.panoramio.com/photo/67920871", "photo_file_url": "http://mw2.google.com/mw-panoramio/photos/square/67920871.jpg", "owner_id": 831427}, {"upload_date": "06 July 2010", "owner_name": "MAPP HUDRANS", "photo_id": 37570159, "longitude": -5.178557000000012, "height": 60, "width": 60, "photo_title": "Cedrov\u00fd les (Cedar forest), 2", "latitude": 33.421256, "owner_url": "http://www.panoramio.com/user/3325569", "photo_url": "http://www.panoramio.com/photo/37570159", "photo_file_url": "http://mw2.google.com/mw-panoramio/photos/square/37570159.jpg", "owner_id": 3325569}, {"upload_date": "04 April 2008", "owner_name": "elakramine", "photo_id": 9086882, "longitude": -5.2143, "height": 60, "width": 60, "photo_title": "Azrou-montagne", "latitude": 33.448846, "owner_url": "http://www.panoramio.com/user/831427", "photo_url": "http://www.panoramio.com/photo/9086882", "photo_file_url": "http://mw2.google.com/mw-panoramio/photos/square/9086882.jpg", "owner_id": 831427}, {"upload_date": "13 November 2011", "owner_name": "Olivier Faugeras", "photo_id": 62098032, "longitude": -4.98628019999, "height": 60, "width": 60, "photo_title": "Cimeti\u00e8re de Bab Chorfa", "latitude": 34.06303236, "owner_url": "http://www.panoramio.com/user/629243", "photo_url": "http://www.panoramio.com/photo/62098032", "photo_file_url": "http://mw2.google.com/mw-panoramio/photos/square/62098032.jpg", "owner_id": 629243}, {"upload_date": "09 March 2008", "owner_name": "elakramine", "photo_id": 8398173, "longitude": -5.010667, "height": 60, "width": 60, "photo_title": "Imouz\u00e8r Village", "latitude": 33.721651, "owner_url": "http://www.panoramio.com/user/831427", "photo_url": "http://www.panoramio.com/photo/8398173", "photo_file_url": "http://mw2.google.com/mw-panoramio/photos/square/8398173.jpg", "owner_id": 831427}, {"upload_date": "05 February 2011", "owner_name": "stardustdew", "photo_id": 47596978, "longitude": -4.997476000000006, "height": 60, "width": 60, "photo_title": "Fes framed", "latitude": 34.032052, "owner_url": "http://www.panoramio.com/user/5517580", "photo_url": "http://www.panoramio.com/photo/47596978", "photo_file_url": "http://mw2.google.com/mw-panoramio/photos/square/47596978.jpg", "owner_id": 5517580}, {"upload_date": "21 February 2010", "owner_name": "juanluys", "photo_id": 32451708, "longitude": -4.994059, "height": 60, "width": 60, "photo_title": "Curtidores", "latitude": 34.021506, "owner_url": "http://www.panoramio.com/user/2853816", "photo_url": "http://www.panoramio.com/photo/32451708", "photo_file_url": "http://mw2.google.com/mw-panoramio/photos/square/32451708.jpg", "owner_id": 2853816}, {"upload_date": "08 April 2009", "owner_name": "elakramine", "photo_id": 20967916, "longitude": -5.53403, "height": 60, "width": 60, "photo_title": "Route de Chaouen  -(31)", "latitude": 34.937259, "owner_url": "http://www.panoramio.com/user/831427", "photo_url": "http://www.panoramio.com/photo/20967916", "photo_file_url": "http://mw2.google.com/mw-panoramio/photos/square/20967916.jpg", "owner_id": 831427}, {"upload_date": "24 December 2007", "owner_name": "Ben de Graaf Bierbrauwer", "photo_id": 6660308, "longitude": -5.264168, "height": 60, "width": 60, "photo_title": "Marokko - In de cederbossen bij Azrou", "latitude": 33.371825, "owner_url": "http://www.panoramio.com/user/1138231", "photo_url": "http://www.panoramio.com/photo/6660308", "photo_file_url": "http://mw2.google.com/mw-panoramio/photos/square/6660308.jpg", "owner_id": 1138231}, {"upload_date": "05 January 2007", "owner_name": "thomas k", "photo_id": 306543, "longitude": -4.970112, "height": 60, "width": 60, "photo_title": "Tannerie, F\u00e8s", "latitude": 34.012187, "owner_url": "http://www.panoramio.com/user/65099", "photo_url": "http://www.panoramio.com/photo/306543", "photo_file_url": "http://mw2.google.com/mw-panoramio/photos/square/306543.jpg", "owner_id": 65099}, {"upload_date": "20 March 2008", "owner_name": "elakramine", "photo_id": 8692954, "longitude": -5.554889, "height": 60, "width": 60, "photo_title": "Marjane 1", "latitude": 33.861375, "owner_url": "http://www.panoramio.com/user/831427", "photo_url": "http://www.panoramio.com/photo/8692954", "photo_file_url": "http://mw2.google.com/mw-panoramio/photos/square/8692954.jpg", "owner_id": 831427}, {"upload_date": "04 July 2012", "owner_name": "elakramine", "photo_id": 74857434, "longitude": -5.163347, "height": 60, "width": 60, "photo_title": "Azrou, tall cedar tree ", "latitude": 33.420057, "owner_url": "http://www.panoramio.com/user/831427", "photo_url": "http://www.panoramio.com/photo/74857434", "photo_file_url": "http://mw2.google.com/mw-panoramio/photos/square/74857434.jpg", "owner_id": 831427}, {"upload_date": "25 April 2011", "owner_name": "elakramine", "photo_id": 51670813, "longitude": -5.7097149999999885, "height": 60, "width": 60, "photo_title": " Ait Yazem - (1yzm)", "latitude": 33.781644, "owner_url": "http://www.panoramio.com/user/831427", "photo_url": "http://www.panoramio.com/photo/51670813", "photo_file_url": "http://mw2.google.com/mw-panoramio/photos/square/51670813.jpg", "owner_id": 831427}, {"upload_date": "13 June 2008", "owner_name": "Patrick Flament", "photo_id": 11170345, "longitude": -5.3403, "height": 60, "width": 60, "photo_title": "A\u00efn Leuh", "latitude": 33.2909, "owner_url": "http://www.panoramio.com/user/11971", "photo_url": "http://www.panoramio.com/photo/11170345", "photo_file_url": "http://mw2.google.com/mw-panoramio/photos/square/11170345.jpg", "owner_id": 11971}, {"upload_date": "23 October 2007", "owner_name": "Erika R.", "photo_id": 5498881, "longitude": -5.044441, "height": 60, "width": 60, "photo_title": "Dayet Aoua", "latitude": 33.654352, "owner_url": "http://www.panoramio.com/user/268771", "photo_url": "http://www.panoramio.com/photo/5498881", "photo_file_url": "http://mw2.google.com/mw-panoramio/photos/square/5498881.jpg", "owner_id": 268771}, {"upload_date": "02 December 2007", "owner_name": "Tom\u00e1s Paz", "photo_id": 6253449, "longitude": -4.549734999999998, "height": 60, "width": 60, "photo_title": "Palmeras", "latitude": 34.107538, "owner_url": "http://www.panoramio.com/user/1116880", "photo_url": "http://www.panoramio.com/photo/6253449", "photo_file_url": "http://mw2.google.com/mw-panoramio/photos/square/6253449.jpg", "owner_id": 1116880}, {"upload_date": "12 October 2007", "owner_name": "Franciscovies", "photo_id": 5245168, "longitude": -4.023056, "height": 60, "width": 60, "photo_title": "Fez", "latitude": 34.12289, "owner_url": "http://www.panoramio.com/user/942696", "photo_url": "http://www.panoramio.com/photo/5245168", "photo_file_url": "http://mw2.google.com/mw-panoramio/photos/square/5245168.jpg", "owner_id": 942696}, {"upload_date": "30 July 2012", "owner_name": "elakramine", "photo_id": 76246920, "longitude": -6.673106, "height": 60, "width": 60, "photo_title": "Parc national, Sidi Boughaba", "latitude": 34.236028, "owner_url": "http://www.panoramio.com/user/831427", "photo_url": "http://www.panoramio.com/photo/76246920", "photo_file_url": "http://mw2.google.com/mw-panoramio/photos/square/76246920.jpg", "owner_id": 831427}, {"upload_date": "25 October 2010", "owner_name": "etterla", "photo_id": 42718749, "longitude": -6.738035999999994, "height": 60, "width": 60, "photo_title": "La Plage des Nations, 1976", "latitude": 34.146783, "owner_url": "http://www.panoramio.com/user/4605083", "photo_url": "http://www.panoramio.com/photo/42718749", "photo_file_url": "http://mw2.google.com/mw-panoramio/photos/square/42718749.jpg", "owner_id": 4605083}, {"upload_date": "16 August 2010", "owner_name": "kamotos", "photo_id": 39393090, "longitude": -4.887886, "height": 60, "width": 60, "photo_title": "chardons du rif", "latitude": 34.99766, "owner_url": "http://www.panoramio.com/user/3560758", "photo_url": "http://www.panoramio.com/photo/39393090", "photo_file_url": "http://mw2.google.com/mw-panoramio/photos/square/39393090.jpg", "owner_id": 3560758}, {"upload_date": "29 May 2010", "owner_name": "Tom\u00e1s Paz", "photo_id": 36122638, "longitude": -4.083604000000008, "height": 60, "width": 60, "photo_title": "cruce a Targuiste", "latitude": 34.889466, "owner_url": "http://www.panoramio.com/user/1116880", "photo_url": "http://www.panoramio.com/photo/36122638", "photo_file_url": "http://mw2.google.com/mw-panoramio/photos/square/36122638.jpg", "owner_id": 1116880}, {"upload_date": "24 February 2007", "owner_name": "hierbajos", "photo_id": 1005695, "longitude": -4.124508, "height": 60, "width": 60, "photo_title": "PB260070", "latitude": 34.070009, "owner_url": "http://www.panoramio.com/user/38637", "photo_url": "http://www.panoramio.com/photo/1005695", "photo_file_url": "http://mw2.google.com/mw-panoramio/photos/square/1005695.jpg", "owner_id": 38637}, {"upload_date": "03 April 2009", "owner_name": "elakramine", "photo_id": 20760109, "longitude": -4.851834, "height": 60, "width": 60, "photo_title": "Sefrou -(7)", "latitude": 33.827753, "owner_url": "http://www.panoramio.com/user/831427", "photo_url": "http://www.panoramio.com/photo/20760109", "photo_file_url": "http://mw2.google.com/mw-panoramio/photos/square/20760109.jpg", "owner_id": 831427}, {"upload_date": "25 December 2007", "owner_name": "Ben de Graaf Bierbrauwer", "photo_id": 6670358, "longitude": -5.659332, "height": 60, "width": 60, "photo_title": "marokko", "latitude": 34.245865, "owner_url": "http://www.panoramio.com/user/1138231", "photo_url": "http://www.panoramio.com/photo/6670358", "photo_file_url": "http://mw2.google.com/mw-panoramio/photos/square/6670358.jpg", "owner_id": 1138231}, {"upload_date": "16 May 2007", "owner_name": "f.alvarez", "photo_id": 2244844, "longitude": -4.675369, "height": 60, "width": 60, "photo_title": "04.07 tissa", "latitude": 34.28729, "owner_url": "http://www.panoramio.com/user/142434", "photo_url": "http://www.panoramio.com/photo/2244844", "photo_file_url": "http://mw2.google.com/mw-panoramio/photos/square/2244844.jpg", "owner_id": 142434}, {"upload_date": "14 January 2009", "owner_name": "alto83", "photo_id": 17847309, "longitude": -5.151901, "height": 60, "width": 60, "photo_title": "Barrage de Al Wahda", "latitude": 34.568351, "owner_url": "http://www.panoramio.com/user/1592311", "photo_url": "http://www.panoramio.com/photo/17847309", "photo_file_url": "http://mw2.google.com/mw-panoramio/photos/square/17847309.jpg", "owner_id": 1592311}, {"upload_date": "11 April 2008", "owner_name": "Boumlik M.", "photo_id": 9286370, "longitude": -4.147339, "height": 60, "width": 60, "photo_title": "Sur la route de Taza...", "latitude": 34.207827, "owner_url": "http://www.panoramio.com/user/1341563", "photo_url": "http://www.panoramio.com/photo/9286370", "photo_file_url": "http://mw2.google.com/mw-panoramio/photos/square/9286370.jpg", "owner_id": 1341563}, {"upload_date": "16 May 2007", "owner_name": "f.alvarez", "photo_id": 2245111, "longitude": -4.957237, "height": 60, "width": 60, "photo_title": "04.07 ourtzarh", "latitude": 34.537389, "owner_url": "http://www.panoramio.com/user/142434", "photo_url": "http://www.panoramio.com/photo/2245111", "photo_file_url": "http://mw2.google.com/mw-panoramio/photos/square/2245111.jpg", "owner_id": 142434}, {"upload_date": "16 May 2007", "owner_name": "f.alvarez", "photo_id": 2245075, "longitude": -4.505081, "height": 60, "width": 60, "photo_title": "04.07 sidi-abdallah-des-rhiata", "latitude": 34.162102, "owner_url": "http://www.panoramio.com/user/142434", "photo_url": "http://www.panoramio.com/photo/2245075", "photo_file_url": "http://mw2.google.com/mw-panoramio/photos/square/2245075.jpg", "owner_id": 142434}, {"upload_date": "03 February 2007", "owner_name": "hierbajos", "photo_id": 675252, "longitude": -4.317541000000006, "height": 60, "width": 60, "photo_title": "P1100389", "latitude": 34.1048, "owner_url": "http://www.panoramio.com/user/38637", "photo_url": "http://www.panoramio.com/photo/675252", "photo_file_url": "http://mw2.google.com/mw-panoramio/photos/square/675252.jpg", "owner_id": 38637}, {"upload_date": "02 June 2007", "owner_name": "Antonio Aviles Gonz\u00e1lez", "photo_id": 2535150, "longitude": -5.065384, "height": 60, "width": 60, "photo_title": "Por el Rif...", "latitude": 35.080022, "owner_url": "http://www.panoramio.com/user/251760", "photo_url": "http://www.panoramio.com/photo/2535150", "photo_file_url": "http://mw2.google.com/mw-panoramio/photos/square/2535150.jpg", "owner_id": 251760}, {"upload_date": "16 May 2007", "owner_name": "f.alvarez", "photo_id": 2244691, "longitude": -5.314636, "height": 60, "width": 60, "photo_title": "04.07 chehabene", "latitude": 34.638716, "owner_url": "http://www.panoramio.com/user/142434", "photo_url": "http://www.panoramio.com/photo/2244691", "photo_file_url": "http://mw2.google.com/mw-panoramio/photos/square/2244691.jpg", "owner_id": 142434}, {"upload_date": "01 May 2011", "owner_name": "elakramine", "photo_id": 51969464, "longitude": -6.048274, "height": 60, "width": 60, "photo_title": "Colonia Lulia Valentia,  Banasa", "latitude": 34.58258, "owner_url": "http://www.panoramio.com/user/831427", "photo_url": "http://www.panoramio.com/photo/51969464", "photo_file_url": "http://mw2.google.com/mw-panoramio/photos/square/51969464.jpg", "owner_id": 831427}, {"upload_date": "02 July 2008", "owner_name": "IPAAT", "photo_id": 11724801, "longitude": -6.209829, "height": 60, "width": 60, "photo_title": "Road A2", "latitude": 33.822904, "owner_url": "http://www.panoramio.com/user/472658", "photo_url": "http://www.panoramio.com/photo/11724801", "photo_file_url": "http://mw2.google.com/mw-panoramio/photos/square/11724801.jpg", "owner_id": 472658}, {"upload_date": "27 September 2008", "owner_name": "C.'s Augenweide", "photo_id": 14469427, "longitude": -5.064526, "height": 60, "width": 60, "photo_title": "Evening in the Middle Atlas ", "latitude": 33.196179, "owner_url": "http://www.panoramio.com/user/584355", "photo_url": "http://www.panoramio.com/photo/14469427", "photo_file_url": "http://mw2.google.com/mw-panoramio/photos/square/14469427.jpg", "owner_id": 584355}, {"upload_date": "05 April 2009", "owner_name": "elakramine", "photo_id": 20828072, "longitude": -5.539616, "height": 60, "width": 60, "photo_title": "Route de Chaouen -(5)", "latitude": 34.91639, "owner_url": "http://www.panoramio.com/user/831427", "photo_url": "http://www.panoramio.com/photo/20828072", "photo_file_url": "http://mw2.google.com/mw-panoramio/photos/square/20828072.jpg", "owner_id": 831427}, {"upload_date": "09 August 2007", "owner_name": "Martin Parker", "photo_id": 3822743, "longitude": -5.071564, "height": 60, "width": 60, "photo_title": "Good view", "latitude": 34.214925, "owner_url": "http://www.panoramio.com/user/90742", "photo_url": "http://www.panoramio.com/photo/3822743", "photo_file_url": "http://mw2.google.com/mw-panoramio/photos/square/3822743.jpg", "owner_id": 90742}, {"upload_date": "08 May 2011", "owner_name": "Tomas Espuche", "photo_id": 52333755, "longitude": -5.890217000000007, "height": 60, "width": 60, "photo_title": "Kasar El Kebir", "latitude": 35.007151, "owner_url": "http://www.panoramio.com/user/5433536", "photo_url": "http://www.panoramio.com/photo/52333755", "photo_file_url": "http://mw2.google.com/mw-panoramio/photos/square/52333755.jpg", "owner_id": 5433536}, {"upload_date": "26 March 2008", "owner_name": "ALBERTO MART\u00cdNEZ", "photo_id": 8857299, "longitude": -4.86969, "height": 60, "width": 60, "photo_title": "VIDA DURA", "latitude": 33.627199, "owner_url": "http://www.panoramio.com/user/125341", "photo_url": "http://www.panoramio.com/photo/8857299", "photo_file_url": "http://mw2.google.com/mw-panoramio/photos/square/8857299.jpg", "owner_id": 125341}, {"upload_date": "19 February 2011", "owner_name": "elakramine", "photo_id": 48365426, "longitude": -6.606914, "height": 60, "width": 60, "photo_title": "Mosqu\u00e9e Rommani - (1mr)", "latitude": 33.533167, "owner_url": "http://www.panoramio.com/user/831427", "photo_url": "http://www.panoramio.com/photo/48365426", "photo_file_url": "http://mw2.google.com/mw-panoramio/photos/square/48365426.jpg", "owner_id": 831427}, {"upload_date": "05 April 2009", "owner_name": "elakramine", "photo_id": 20828101, "longitude": -5.361629, "height": 60, "width": 60, "photo_title": "Route de Chaouen -(7)", "latitude": 35.036128, "owner_url": "http://www.panoramio.com/user/831427", "photo_url": "http://www.panoramio.com/photo/20828101", "photo_file_url": "http://mw2.google.com/mw-panoramio/photos/square/20828101.jpg", "owner_id": 831427}, {"upload_date": "23 February 2011", "owner_name": "elakramine", "photo_id": 48541893, "longitude": -6.537638, "height": 60, "width": 60, "photo_title": "Commune Ezhiliga -(3cez)", "latitude": 33.298252, "owner_url": "http://www.panoramio.com/user/831427", "photo_url": "http://www.panoramio.com/photo/48541893", "photo_file_url": "http://mw2.google.com/mw-panoramio/photos/square/48541893.jpg", "owner_id": 831427}, {"upload_date": "30 July 2012", "owner_name": "elakramine", "photo_id": 76246920, "longitude": -6.673106, "height": 60, "width": 60, "photo_title": "Parc national, Sidi Boughaba", "latitude": 34.236028, "owner_url": "http://www.panoramio.com/user/831427", "photo_url": "http://www.panoramio.com/photo/76246920", "photo_file_url": "http://mw2.google.com/mw-panoramio/photos/square/76246920.jpg", "owner_id": 831427}, {"upload_date": "24 October 2007", "owner_name": "Erika R.", "photo_id": 5518441, "longitude": -5.3043480000000045, "height": 60, "width": 60, "photo_title": "Colours in the desert", "latitude": 33.507899, "owner_url": "http://www.panoramio.com/user/268771", "photo_url": "http://www.panoramio.com/photo/5518441", "photo_file_url": "http://mw2.google.com/mw-panoramio/photos/square/5518441.jpg", "owner_id": 268771}, {"upload_date": "16 May 2007", "owner_name": "f.alvarez", "photo_id": 2244997, "longitude": -4.580526, "height": 60, "width": 60, "photo_title": "04.07 sidi-abdallah-des-rhiata", "latitude": 34.229474, "owner_url": "http://www.panoramio.com/user/142434", "photo_url": "http://www.panoramio.com/photo/2244997", "photo_file_url": "http://mw2.google.com/mw-panoramio/photos/square/2244997.jpg", "owner_id": 142434}, {"upload_date": "08 January 2008", "owner_name": "\u00a9galilaeus", "photo_id": 6994739, "longitude": -5.5607472222222, "height": 60, "width": 60, "photo_title": "Marocco - vicino a Volubilis", "latitude": 33.918819444444, "owner_url": "http://www.panoramio.com/user/98449", "photo_url": "http://www.panoramio.com/photo/6994739", "photo_file_url": "http://mw2.google.com/mw-panoramio/photos/square/6994739.jpg", "owner_id": 98449}, {"upload_date": "03 February 2007", "owner_name": "hierbajos", "photo_id": 675289, "longitude": -4.174461, "height": 60, "width": 60, "photo_title": "P1100422", "latitude": 34.075412, "owner_url": "http://www.panoramio.com/user/38637", "photo_url": "http://www.panoramio.com/photo/675289", "photo_file_url": "http://mw2.google.com/mw-panoramio/photos/square/675289.jpg", "owner_id": 38637}, {"upload_date": "31 May 2007", "owner_name": "esquer01", "photo_id": 2494147, "longitude": -5.574875, "height": 60, "width": 60, "photo_title": "MEZQUITA", "latitude": 33.873266, "owner_url": "http://www.panoramio.com/user/356448", "photo_url": "http://www.panoramio.com/photo/2494147", "photo_file_url": "http://mw2.google.com/mw-panoramio/photos/square/2494147.jpg", "owner_id": 356448}, {"upload_date": "10 January 2007", "owner_name": "hierbajos", "photo_id": 368296, "longitude": -5.25, "height": 60, "width": 60, "photo_title": "2006-03-19 IFRANE-MEKINES # 211", "latitude": 33.333333, "owner_url": "http://www.panoramio.com/user/38637", "photo_url": "http://www.panoramio.com/photo/368296", "photo_file_url": "http://mw2.google.com/mw-panoramio/photos/square/368296.jpg", "owner_id": 38637}, {"upload_date": "09 May 2007", "owner_name": "Juanlu Gonzalez", "photo_id": 2152679, "longitude": -5.1085934109158, "height": 60, "width": 60, "photo_title": "Paeonia coriacea var. maroccana", "latitude": 35.129346381293, "owner_url": "http://www.panoramio.com/user/473", "photo_url": "http://www.panoramio.com/photo/2152679", "photo_file_url": "http://mw2.google.com/mw-panoramio/photos/square/2152679.jpg", "owner_id": 473}, {"upload_date": "30 June 2009", "owner_name": "alainchoquet", "photo_id": 23978187, "longitude": -4.653997, "height": 60, "width": 60, "photo_title": "Village construit sur un m\u00e9andre", "latitude": 33.475142, "owner_url": "http://www.panoramio.com/user/2175619", "photo_url": "http://www.panoramio.com/photo/23978187", "photo_file_url": "http://mw2.google.com/mw-panoramio/photos/square/23978187.jpg", "owner_id": 2175619}, {"upload_date": "02 December 2007", "owner_name": "Tom\u00e1s Paz", "photo_id": 6253356, "longitude": -4.644384, "height": 60, "width": 60, "photo_title": "Barca", "latitude": 34.108536, "owner_url": "http://www.panoramio.com/user/1116880", "photo_url": "http://www.panoramio.com/photo/6253356", "photo_file_url": "http://mw2.google.com/mw-panoramio/photos/square/6253356.jpg", "owner_id": 1116880}, {"upload_date": "02 December 2007", "owner_name": "Tom\u00e1s Paz", "photo_id": 6254033, "longitude": -4.827118, "height": 60, "width": 60, "photo_title": "Accidente", "latitude": 34.99091, "owner_url": "http://www.panoramio.com/user/1116880", "photo_url": "http://www.panoramio.com/photo/6254033", "photo_file_url": "http://mw2.google.com/mw-panoramio/photos/square/6254033.jpg", "owner_id": 1116880}, {"upload_date": "04 April 2009", "owner_name": "elakramine", "photo_id": 20802719, "longitude": -4.992213, "height": 60, "width": 60, "photo_title": "Aguelmane Sidi Ali  -(22)", "latitude": 33.079532, "owner_url": "http://www.panoramio.com/user/831427", "photo_url": "http://www.panoramio.com/photo/20802719", "photo_file_url": "http://mw2.google.com/mw-panoramio/photos/square/20802719.jpg", "owner_id": 831427}, {"upload_date": "27 June 2008", "owner_name": "IPAAT", "photo_id": 11565909, "longitude": -5.886526, "height": 60, "width": 60, "photo_title": "Road A2 in Morocco", "latitude": 33.7937, "owner_url": "http://www.panoramio.com/user/472658", "photo_url": "http://www.panoramio.com/photo/11565909", "photo_file_url": "http://mw2.google.com/mw-panoramio/photos/square/11565909.jpg", "owner_id": 472658}, {"upload_date": "06 February 2007", "owner_name": "gatunegru", "photo_id": 721507, "longitude": -5.227432, "height": 60, "width": 60, "photo_title": "Lago de camino a Fez", "latitude": 34.586867, "owner_url": "http://www.panoramio.com/user/125224", "photo_url": "http://www.panoramio.com/photo/721507", "photo_file_url": "http://mw2.google.com/mw-panoramio/photos/square/721507.jpg", "owner_id": 125224}, {"upload_date": "05 February 2007", "owner_name": "gatunegru", "photo_id": 700222, "longitude": -4.073986, "height": 60, "width": 60, "photo_title": "camion cerca de Missour", "latitude": 33.034607, "owner_url": "http://www.panoramio.com/user/125224", "photo_url": "http://www.panoramio.com/photo/700222", "photo_file_url": "http://mw2.google.com/mw-panoramio/photos/square/700222.jpg", "owner_id": 125224}, {"upload_date": "24 June 2008", "owner_name": "Angel PC & Susana SF", "photo_id": 11485255, "longitude": -5.561319, "height": 60, "width": 60, "photo_title": "Mezquita N\u00e9jjarine (Mequ\u00ednez)", "latitude": 33.892901, "owner_url": "http://www.panoramio.com/user/410036", "photo_url": "http://www.panoramio.com/photo/11485255", "photo_file_url": "http://mw2.google.com/mw-panoramio/photos/square/11485255.jpg", "owner_id": 410036}, {"upload_date": "26 April 2008", "owner_name": "Juanlu Gonzalez", "photo_id": 9699312, "longitude": -5.0619499376085, "height": 60, "width": 60, "photo_title": "Pinar cerca de Azilane", "latitude": 35.127627970378, "owner_url": "http://www.panoramio.com/user/473", "photo_url": "http://www.panoramio.com/photo/9699312", "photo_file_url": "http://mw2.google.com/mw-panoramio/photos/square/9699312.jpg", "owner_id": 473}, {"upload_date": "23 December 2008", "owner_name": "Javier A. Rivera", "photo_id": 17089027, "longitude": -6.095138, "height": 60, "width": 60, "photo_title": "Paprika nursery / Semillero paprika", "latitude": 35.077072, "owner_url": "http://www.panoramio.com/user/6492", "photo_url": "http://www.panoramio.com/photo/17089027", "photo_file_url": "http://mw2.google.com/mw-panoramio/photos/square/17089027.jpg", "owner_id": 6492}, {"upload_date": "21 February 2007", "owner_name": "f.alvarez", "photo_id": 931626, "longitude": -5.484581, "height": 60, "width": 60, "photo_title": "G.A.M. sources de i\u00b4oum-er-rbia", "latitude": 33.080611, "owner_url": "http://www.panoramio.com/user/142434", "photo_url": "http://www.panoramio.com/photo/931626", "photo_file_url": "http://mw2.google.com/mw-panoramio/photos/square/931626.jpg", "owner_id": 142434}, {"upload_date": "21 February 2008", "owner_name": "maremagna", "photo_id": 7987472, "longitude": -5.037398, "height": 60, "width": 60, "photo_title": "Verso Ifrane", "latitude": 33.669426, "owner_url": "http://www.panoramio.com/user/1270976", "photo_url": "http://www.panoramio.com/photo/7987472", "photo_file_url": "http://mw2.google.com/mw-panoramio/photos/square/7987472.jpg", "owner_id": 1270976}, {"upload_date": "17 February 2007", "owner_name": "f.alvarez", "photo_id": 858458, "longitude": -4.939041, "height": 60, "width": 60, "photo_title": "ifrane g.a.m", "latitude": 33.561423, "owner_url": "http://www.panoramio.com/user/142434", "photo_url": "http://www.panoramio.com/photo/858458", "photo_file_url": "http://mw2.google.com/mw-panoramio/photos/square/858458.jpg", "owner_id": 142434}, {"upload_date": "23 June 2007", "owner_name": "Ocram", "photo_id": 2903801, "longitude": -4.003487, "height": 60, "width": 60, "photo_title": "Taza", "latitude": 34.233377, "owner_url": "http://www.panoramio.com/user/560104", "photo_url": "http://www.panoramio.com/photo/2903801", "photo_file_url": "http://mw2.google.com/mw-panoramio/photos/square/2903801.jpg", "owner_id": 560104}, {"upload_date": "03 April 2009", "owner_name": "elakramine", "photo_id": 20759982, "longitude": -4.839488, "height": 60, "width": 60, "photo_title": "Sefrou -(1)", "latitude": 33.830836, "owner_url": "http://www.panoramio.com/user/831427", "photo_url": "http://www.panoramio.com/photo/20759982", "photo_file_url": "http://mw2.google.com/mw-panoramio/photos/square/20759982.jpg", "owner_id": 831427}, {"upload_date": "20 April 2008", "owner_name": "Juanlu Gonzalez", "photo_id": 9551274, "longitude": -5.041651, "height": 60, "width": 60, "photo_title": "Alrededores del Parque Nacional de Talassemtane", "latitude": 35.093058999919, "owner_url": "http://www.panoramio.com/user/473", "photo_url": "http://www.panoramio.com/photo/9551274", "photo_file_url": "http://mw2.google.com/mw-panoramio/photos/square/9551274.jpg", "owner_id": 473}, {"upload_date": "16 May 2007", "owner_name": "f.alvarez", "photo_id": 2244754, "longitude": -5.282192, "height": 60, "width": 60, "photo_title": "04.07 ain-donj", "latitude": 34.605873, "owner_url": "http://www.panoramio.com/user/142434", "photo_url": "http://www.panoramio.com/photo/2244754", "photo_file_url": "http://mw2.google.com/mw-panoramio/photos/square/2244754.jpg", "owner_id": 142434}, {"upload_date": "27 April 2009", "owner_name": "Valent\u00edn Enrique", "photo_id": 21706365, "longitude": -5.580626, "height": 60, "width": 60, "photo_title": "OUEZZANE. MARRUECOS.", "latitude": 34.795691, "owner_url": "http://www.panoramio.com/user/1082258", "photo_url": "http://www.panoramio.com/photo/21706365", "photo_file_url": "http://mw2.google.com/mw-panoramio/photos/square/21706365.jpg", "owner_id": 1082258}, {"upload_date": "21 April 2008", "owner_name": "Juanlu Gonzalez", "photo_id": 9580956, "longitude": -5.010226, "height": 60, "width": 60, "photo_title": "Azilane", "latitude": 35.120301, "owner_url": "http://www.panoramio.com/user/473", "photo_url": "http://www.panoramio.com/photo/9580956", "photo_file_url": "http://mw2.google.com/mw-panoramio/photos/square/9580956.jpg", "owner_id": 473}, {"upload_date": "25 February 2009", "owner_name": "Richard Lozin", "photo_id": 19388621, "longitude": -4.997063, "height": 60, "width": 60, "photo_title": "Fes", "latitude": 34.008558, "owner_url": "http://www.panoramio.com/user/2665470", "photo_url": "http://www.panoramio.com/photo/19388621", "photo_file_url": "http://mw2.google.com/mw-panoramio/photos/square/19388621.jpg", "owner_id": 2665470}, {"upload_date": "29 May 2010", "owner_name": "Tom\u00e1s Paz", "photo_id": 36122321, "longitude": -3.9498370000000023, "height": 60, "width": 60, "photo_title": "Placa", "latitude": 34.732678, "owner_url": "http://www.panoramio.com/user/1116880", "photo_url": "http://www.panoramio.com/photo/36122321", "photo_file_url": "http://mw2.google.com/mw-panoramio/photos/square/36122321.jpg", "owner_id": 1116880}, {"upload_date": "16 May 2007", "owner_name": "f.alvarez", "photo_id": 2244540, "longitude": -5.441408, "height": 60, "width": 60, "photo_title": "04.07 karrouba", "latitude": 34.74133, "owner_url": "http://www.panoramio.com/user/142434", "photo_url": "http://www.panoramio.com/photo/2244540", "photo_file_url": "http://mw2.google.com/mw-panoramio/photos/square/2244540.jpg", "owner_id": 142434}, {"upload_date": "09 February 2012", "owner_name": "Abdallah BOUHAMIDI", "photo_id": 66434767, "longitude": -5.167338, "height": 60, "width": 60, "photo_title": "go west", "latitude": 33.394905, "owner_url": "http://www.panoramio.com/user/76914", "photo_url": "http://www.panoramio.com/photo/66434767", "photo_file_url": "http://mw2.google.com/mw-panoramio/photos/square/66434767.jpg", "owner_id": 76914}, {"upload_date": "14 January 2012", "owner_name": "Carlos Sieiro del Nido", "photo_id": 64906590, "longitude": -5.07000833333, "height": 60, "width": 60, "photo_title": "ATLAS MEDIO (Ifr\u00e1n-Morocco). 2011. 131. Cerca de la aldea Tiguelmamine.", "latitude": 33.0304680556, "owner_url": "http://www.panoramio.com/user/134716", "photo_url": "http://www.panoramio.com/photo/64906590", "photo_file_url": "http://mw2.google.com/mw-panoramio/photos/square/64906590.jpg", "owner_id": 134716}, {"upload_date": "08 April 2009", "owner_name": "elakramine", "photo_id": 20967851, "longitude": -5.454952, "height": 60, "width": 60, "photo_title": "Route de Chaouen  -(21)", "latitude": 35.036828, "owner_url": "http://www.panoramio.com/user/831427", "photo_url": "http://www.panoramio.com/photo/20967851", "photo_file_url": "http://mw2.google.com/mw-panoramio/photos/square/20967851.jpg", "owner_id": 831427}, {"upload_date": "08 October 2007", "owner_name": "Laurent Bois-Mariage", "photo_id": 5165433, "longitude": -5.195675, "height": 60, "width": 60, "photo_title": "C\u00e8dre vers Azrou", "latitude": 33.41389, "owner_url": "http://www.panoramio.com/user/158799", "photo_url": "http://www.panoramio.com/photo/5165433", "photo_file_url": "http://mw2.google.com/mw-panoramio/photos/square/5165433.jpg", "owner_id": 158799}, {"upload_date": "02 July 2008", "owner_name": "IPAAT", "photo_id": 11724596, "longitude": -5.562397, "height": 60, "width": 60, "photo_title": "Road N13", "latitude": 33.986703, "owner_url": "http://www.panoramio.com/user/472658", "photo_url": "http://www.panoramio.com/photo/11724596", "photo_file_url": "http://mw2.google.com/mw-panoramio/photos/square/11724596.jpg", "owner_id": 472658}, {"upload_date": "27 May 2008", "owner_name": "\u2665 vinicio-1", "photo_id": 10662472, "longitude": -6.659431, "height": 60, "width": 60, "photo_title": "2005 - Marocco - (Rabat sullo sfondo ) - (un nido di cicogna sopra una costruzione) - photo of Franco and Mirella)", "latitude": 33.985502, "owner_url": "http://www.panoramio.com/user/1269373", "photo_url": "http://www.panoramio.com/photo/10662472", "photo_file_url": "http://mw2.google.com/mw-panoramio/photos/square/10662472.jpg", "owner_id": 1269373}, {"upload_date": "25 April 2011", "owner_name": "elakramine", "photo_id": 51662210, "longitude": -5.641124999999988, "height": 60, "width": 60, "photo_title": "Vestiges de la Vall\u00e9e Heureuse -(1vh)", "latitude": 33.899531, "owner_url": "http://www.panoramio.com/user/831427", "photo_url": "http://www.panoramio.com/photo/51662210", "photo_file_url": "http://mw2.google.com/mw-panoramio/photos/square/51662210.jpg", "owner_id": 831427}, {"upload_date": "14 June 2010", "owner_name": "Laszlo Koza", "photo_id": 36765894, "longitude": -5.489388, "height": 60, "width": 60, "photo_title": "Coquelicots", "latitude": 34.152727, "owner_url": "http://www.panoramio.com/user/2653600", "photo_url": "http://www.panoramio.com/photo/36765894", "photo_file_url": "http://mw2.google.com/mw-panoramio/photos/square/36765894.jpg", "owner_id": 2653600}, {"upload_date": "18 March 2007", "owner_name": "Toni Canizares", "photo_id": 1387486, "longitude": -5.428104, "height": 60, "width": 60, "photo_title": "ohhhhhhhhh", "latitude": 34.04185, "owner_url": "http://www.panoramio.com/user/238169", "photo_url": "http://www.panoramio.com/photo/1387486", "photo_file_url": "http://mw2.google.com/mw-panoramio/photos/square/1387486.jpg", "owner_id": 238169}, {"upload_date": "22 November 2008", "owner_name": "Olive Kirk", "photo_id": 16195325, "longitude": -4.927368, "height": 60, "width": 60, "photo_title": "  River Sebou  Morocco   ", "latitude": 34.080531, "owner_url": "http://www.panoramio.com/user/2430449", "photo_url": "http://www.panoramio.com/photo/16195325", "photo_file_url": "http://mw2.google.com/mw-panoramio/photos/square/16195325.jpg", "owner_id": 2430449}, {"upload_date": "04 March 2007", "owner_name": "hierbajos", "photo_id": 1149656, "longitude": -5.071564, "height": 60, "width": 60, "photo_title": "2006-03-19 IFRANE-MEKINES # 009", "latitude": 33.557418, "owner_url": "http://www.panoramio.com/user/38637", "photo_url": "http://www.panoramio.com/photo/1149656", "photo_file_url": "http://mw2.google.com/mw-panoramio/photos/square/1149656.jpg", "owner_id": 38637}, {"upload_date": "26 February 2011", "owner_name": "SambaSamba", "photo_id": 48713504, "longitude": -6.071126, "height": 60, "width": 60, "photo_title": "Khemisset, Minaret 1 - Samba 2011", "latitude": 33.826811, "owner_url": "http://www.panoramio.com/user/4238022", "photo_url": "http://www.panoramio.com/photo/48713504", "photo_file_url": "http://mw2.google.com/mw-panoramio/photos/square/48713504.jpg", "owner_id": 4238022}, {"upload_date": "02 July 2008", "owner_name": "IPAAT", "photo_id": 11724774, "longitude": -6.007204, "height": 60, "width": 60, "photo_title": "Road A2", "latitude": 33.797337, "owner_url": "http://www.panoramio.com/user/472658", "photo_url": "http://www.panoramio.com/photo/11724774", "photo_file_url": "http://mw2.google.com/mw-panoramio/photos/square/11724774.jpg", "owner_id": 472658}, {"upload_date": "06 May 2009", "owner_name": "elakramine", "photo_id": 22040584, "longitude": -6.1941, "height": 60, "width": 60, "photo_title": "Coucher Soleil, Laghdira", "latitude": 35.130839, "owner_url": "http://www.panoramio.com/user/831427", "photo_url": "http://www.panoramio.com/photo/22040584", "photo_file_url": "http://mw2.google.com/mw-panoramio/photos/square/22040584.jpg", "owner_id": 831427}, {"upload_date": "04 May 2008", "owner_name": "elakramine", "photo_id": 9901175, "longitude": -6.561413, "height": 60, "width": 60, "photo_title": "Aire de Repos Autoroute Rabat-F\u00e9s", "latitude": 34.014392, "owner_url": "http://www.panoramio.com/user/831427", "photo_url": "http://www.panoramio.com/photo/9901175", "photo_file_url": "http://mw2.google.com/mw-panoramio/photos/square/9901175.jpg", "owner_id": 831427}, {"upload_date": "19 October 2009", "owner_name": "f.alvarez", "photo_id": 28001147, "longitude": -3.993702, "height": 60, "width": 60, "photo_title": "10.09 cicloturismo", "latitude": 33.045535, "owner_url": "http://www.panoramio.com/user/142434", "photo_url": "http://www.panoramio.com/photo/28001147", "photo_file_url": "http://mw2.google.com/mw-panoramio/photos/square/28001147.jpg", "owner_id": 142434}, {"upload_date": "16 May 2007", "owner_name": "f.alvarez", "photo_id": 2244888, "longitude": -4.640694, "height": 60, "width": 60, "photo_title": "04.07 tissa", "latitude": 34.270978, "owner_url": "http://www.panoramio.com/user/142434", "photo_url": "http://www.panoramio.com/photo/2244888", "photo_file_url": "http://mw2.google.com/mw-panoramio/photos/square/2244888.jpg", "owner_id": 142434}, {"upload_date": "08 April 2009", "owner_name": "elakramine", "photo_id": 20967889, "longitude": -5.487789, "height": 60, "width": 60, "photo_title": "Route de Chaouen  -(26)", "latitude": 35.011141, "owner_url": "http://www.panoramio.com/user/831427", "photo_url": "http://www.panoramio.com/photo/20967889", "photo_file_url": "http://mw2.google.com/mw-panoramio/photos/square/20967889.jpg", "owner_id": 831427}, {"upload_date": "08 August 2008", "owner_name": "cusumbo", "photo_id": 12922040, "longitude": -5.003114, "height": 60, "width": 60, "photo_title": "Mezquita Imam Malik", "latitude": 34.042881, "owner_url": "http://www.panoramio.com/user/2098076", "photo_url": "http://www.panoramio.com/photo/12922040", "photo_file_url": "http://mw2.google.com/mw-panoramio/photos/square/12922040.jpg", "owner_id": 2098076}, {"upload_date": "09 April 2009", "owner_name": "elakramine", "photo_id": 20987438, "longitude": -4.861536, "height": 60, "width": 60, "photo_title": "Sefrou  -(33)", "latitude": 33.806609, "owner_url": "http://www.panoramio.com/user/831427", "photo_url": "http://www.panoramio.com/photo/20987438", "photo_file_url": "http://mw2.google.com/mw-panoramio/photos/square/20987438.jpg", "owner_id": 831427}, {"upload_date": "22 July 2009", "owner_name": "elakramine", "photo_id": 24770080, "longitude": -5.926732, "height": 60, "width": 60, "photo_title": "Oued", "latitude": 34.269754, "owner_url": "http://www.panoramio.com/user/831427", "photo_url": "http://www.panoramio.com/photo/24770080", "photo_file_url": "http://mw2.google.com/mw-panoramio/photos/square/24770080.jpg", "owner_id": 831427}, {"upload_date": "23 November 2010", "owner_name": "elakramine", "photo_id": 44072626, "place_id": "f7ad0027899a63d3dacf52d20b665faaba8eb9da", "longitude": -5.259705, "height": 60, "width": 60, "photo_title": "Vers Ifrane", "latitude": 33.552268, "owner_url": "http://www.panoramio.com/user/831427", "photo_url": "http://www.panoramio.com/photo/44072626", "photo_file_url": "http://mw2.google.com/mw-panoramio/photos/square/44072626.jpg", "owner_id": 831427}, {"upload_date": "20 July 2009", "owner_name": "elakramine", "photo_id": 24690460, "longitude": -5.720463, "height": 60, "width": 60, "photo_title": "Sidi Kacem -(2)", "latitude": 34.233111, "owner_url": "http://www.panoramio.com/user/831427", "photo_url": "http://www.panoramio.com/photo/24690460", "photo_file_url": "http://mw2.google.com/mw-panoramio/photos/square/24690460.jpg", "owner_id": 831427}, {"upload_date": "20 October 2008", "owner_name": "elakramine", "photo_id": 15191001, "longitude": -5.569902, "height": 60, "width": 60, "photo_title": "Ecole Nationale Sup\u00e9rieure d'Arts et M\u00e9tiers  [ENSAM]", "latitude": 33.858741, "owner_url": "http://www.panoramio.com/user/831427", "photo_url": "http://www.panoramio.com/photo/15191001", "photo_file_url": "http://mw2.google.com/mw-panoramio/photos/square/15191001.jpg", "owner_id": 831427}, {"upload_date": "27 April 2009", "owner_name": "Valent\u00edn Enrique", "photo_id": 21708707, "longitude": -4.969404, "height": 60, "width": 60, "photo_title": "FES. MARRUECOS.", "latitude": 34.000429, "owner_url": "http://www.panoramio.com/user/1082258", "photo_url": "http://www.panoramio.com/photo/21708707", "photo_file_url": "http://mw2.google.com/mw-panoramio/photos/square/21708707.jpg", "owner_id": 1082258}, {"upload_date": "24 March 2008", "owner_name": "ALBERTO MART\u00cdNEZ", "photo_id": 8812690, "longitude": -5.077229, "height": 60, "width": 60, "photo_title": "LOS CEDROS", "latitude": 33.287346, "owner_url": "http://www.panoramio.com/user/125341", "photo_url": "http://www.panoramio.com/photo/8812690", "photo_file_url": "http://mw2.google.com/mw-panoramio/photos/square/8812690.jpg", "owner_id": 125341}, {"upload_date": "08 February 2006", "owner_name": "Jarg van Asch", "photo_id": 10826, "longitude": -5.3494834899902, "height": 60, "width": 60, "photo_title": "Valley of Tizlit", "latitude": 33.450671759652, "owner_url": "http://www.panoramio.com/user/1733", "photo_url": "http://www.panoramio.com/photo/10826", "photo_file_url": "http://mw2.google.com/mw-panoramio/photos/square/10826.jpg", "owner_id": 1733}, {"upload_date": "28 May 2007", "owner_name": "Alena Benesova", "photo_id": 2441285, "longitude": -6.31, "height": 60, "width": 60, "photo_title": "Atlas", "latitude": 33.66, "owner_url": "http://www.panoramio.com/user/294049", "photo_url": "http://www.panoramio.com/photo/2441285", "photo_file_url": "http://mw2.google.com/mw-panoramio/photos/square/2441285.jpg", "owner_id": 294049}, {"upload_date": "14 February 2011", "owner_name": "SambaSamba", "photo_id": 48127437, "longitude": -6.537209, "height": 60, "width": 60, "photo_title": "Sidi Allal El Bahraoui, Residence 1 - Samba 2011", "latitude": 34.011813, "owner_url": "http://www.panoramio.com/user/4238022", "photo_url": "http://www.panoramio.com/photo/48127437", "photo_file_url": "http://mw2.google.com/mw-panoramio/photos/square/48127437.jpg", "owner_id": 4238022}, {"upload_date": "14 May 2009", "owner_name": "Roberto Tomei", "photo_id": 22342714, "longitude": -4.679146, "height": 60, "width": 60, "photo_title": "BOULMALNE-TINEHIR. Ksar di Imiter", "latitude": 33.32852, "owner_url": "http://www.panoramio.com/user/3054145", "photo_url": "http://www.panoramio.com/photo/22342714", "photo_file_url": "http://mw2.google.com/mw-panoramio/photos/square/22342714.jpg", "owner_id": 3054145}, {"upload_date": "16 October 2008", "owner_name": "C.'s Augenweide", "photo_id": 15061880, "longitude": -5.598907, "height": 60, "width": 60, "photo_title": "Sheepcote", "latitude": 33.080035, "owner_url": "http://www.panoramio.com/user/584355", "photo_url": "http://www.panoramio.com/photo/15061880", "photo_file_url": "http://mw2.google.com/mw-panoramio/photos/square/15061880.jpg", "owner_id": 584355}, {"upload_date": "30 April 2008", "owner_name": "gabolde", "photo_id": 9798570, "longitude": -5.866699, "height": 60, "width": 60, "photo_title": "Dans la campagne marocaine", "latitude": 34.420505, "owner_url": "http://www.panoramio.com/user/1308747", "photo_url": "http://www.panoramio.com/photo/9798570", "photo_file_url": "http://mw2.google.com/mw-panoramio/photos/square/9798570.jpg", "owner_id": 1308747}, {"upload_date": "23 February 2011", "owner_name": "elakramine", "photo_id": 48541715, "longitude": -6.011581, "height": 60, "width": 60, "photo_title": "Landscape", "latitude": 32.904188, "owner_url": "http://www.panoramio.com/user/831427", "photo_url": "http://www.panoramio.com/photo/48541715", "photo_file_url": "http://mw2.google.com/mw-panoramio/photos/square/48541715.jpg", "owner_id": 831427}, {"upload_date": "03 January 2010", "owner_name": "elakramine", "photo_id": 30583500, "longitude": -6.692047000000002, "height": 60, "width": 60, "photo_title": "Lac Barrage Sidi Med ben Abdellah _2sm", "latitude": 33.961586, "owner_url": "http://www.panoramio.com/user/831427", "photo_url": "http://www.panoramio.com/photo/30583500", "photo_file_url": "http://mw2.google.com/mw-panoramio/photos/square/30583500.jpg", "owner_id": 831427}, {"upload_date": "17 February 2009", "owner_name": "jilalikar", "photo_id": 19085383, "longitude": -4.051208, "height": 60, "width": 60, "photo_title": "maghraoya  taza maroc jilalikar", "latitude": 33.935385, "owner_url": "http://www.panoramio.com/user/1606351", "photo_url": "http://www.panoramio.com/photo/19085383", "photo_file_url": "http://mw2.google.com/mw-panoramio/photos/square/19085383.jpg", "owner_id": 1606351}, {"upload_date": "07 November 2011", "owner_name": "Tomas Espuche", "photo_id": 61817028, "longitude": -4.28216666667, "height": 60, "width": 60, "photo_title": "Tahar Souk", "latitude": 34.6558333333, "owner_url": "http://www.panoramio.com/user/5433536", "photo_url": "http://www.panoramio.com/photo/61817028", "photo_file_url": "http://mw2.google.com/mw-panoramio/photos/square/61817028.jpg", "owner_id": 5433536}, {"upload_date": "14 May 2008", "owner_name": "jilalikar", "photo_id": 10219334, "longitude": -4.306641, "height": 60, "width": 60, "photo_title": "tamjilt taza", "latitude": 33.28462, "owner_url": "http://www.panoramio.com/user/1606351", "photo_url": "http://www.panoramio.com/photo/10219334", "photo_file_url": "http://mw2.google.com/mw-panoramio/photos/square/10219334.jpg", "owner_id": 1606351}, {"upload_date": "31 August 2011", "owner_name": "Geosergio", "photo_id": 58218496, "longitude": -5.513935, "height": 60, "width": 60, "photo_title": "Jorf Al Melha", "latitude": 34.489933, "owner_url": "http://www.panoramio.com/user/937119", "photo_url": "http://www.panoramio.com/photo/58218496", "photo_file_url": "http://mw2.google.com/mw-panoramio/photos/square/58218496.jpg", "owner_id": 937119}, {"upload_date": "23 December 2012", "owner_name": "Pat BARREAUX", "photo_id": 83732752, "longitude": -5.996389, "height": 60, "width": 60, "photo_title": "sali\u00e8res \u00e0 l'int\u00e9rieur du pays", "latitude": 34.713484, "owner_url": "http://www.panoramio.com/user/7327842", "photo_url": "http://www.panoramio.com/photo/83732752", "photo_file_url": "http://mw2.google.com/mw-panoramio/photos/square/83732752.jpg", "owner_id": 7327842}, {"upload_date": "30 April 2009", "owner_name": "jilalikar", "photo_id": 21818529, "longitude": -4.319901, "height": 60, "width": 60, "photo_title": "taza oulad zbayar", "latitude": 34.287857, "owner_url": "http://www.panoramio.com/user/1606351", "photo_url": "http://www.panoramio.com/photo/21818529", "photo_file_url": "http://mw2.google.com/mw-panoramio/photos/square/21818529.jpg", "owner_id": 1606351}, {"upload_date": "27 February 2009", "owner_name": "jilalikar", "photo_id": 19458252, "longitude": -4.346466, "height": 60, "width": 60, "photo_title": "meghraoya taza maroc", "latitude": 33.963864, "owner_url": "http://www.panoramio.com/user/1606351", "photo_url": "http://www.panoramio.com/photo/19458252", "photo_file_url": "http://mw2.google.com/mw-panoramio/photos/square/19458252.jpg", "owner_id": 1606351}, {"upload_date": "16 July 2010", "owner_name": "hamzaoui.95", "photo_id": 37985972, "longitude": -4.638783999999987, "height": 60, "width": 60, "photo_title": "taounate ,", "latitude": 34.536717, "owner_url": "http://www.panoramio.com/user/4712664", "photo_url": "http://www.panoramio.com/photo/37985972", "photo_file_url": "http://mw2.google.com/mw-panoramio/photos/square/37985972.jpg", "owner_id": 4712664}, {"upload_date": "11 July 2007", "owner_name": "el mesbahi", "photo_id": 3245484, "longitude": -3.85663, "height": 60, "width": 60, "photo_title": "cerca de a\u00edn Hamra", "latitude": 34.709656, "owner_url": "http://www.panoramio.com/user/653935", "photo_url": "http://www.panoramio.com/photo/3245484", "photo_file_url": "http://mw2.google.com/mw-panoramio/photos/square/3245484.jpg", "owner_id": 653935}, {"upload_date": "14 May 2008", "owner_name": "jilalikar", "photo_id": 10219452, "longitude": -4.029236, "height": 60, "width": 60, "photo_title": "taza moroco", "latitude": 33.660925, "owner_url": "http://www.panoramio.com/user/1606351", "photo_url": "http://www.panoramio.com/photo/10219452", "photo_file_url": "http://mw2.google.com/mw-panoramio/photos/square/10219452.jpg", "owner_id": 1606351}, {"upload_date": "24 May 2011", "owner_name": "rkossler", "photo_id": 53161360, "longitude": -6.080933, "height": 60, "width": 60, "photo_title": "Highlands near Oulmes", "latitude": 33.448745, "owner_url": "http://www.panoramio.com/user/699869", "photo_url": "http://www.panoramio.com/photo/53161360", "photo_file_url": "http://mw2.google.com/mw-panoramio/photos/square/53161360.jpg", "owner_id": 699869}, {"upload_date": "27 May 2007", "owner_name": "Alena Benesova", "photo_id": 2427977, "longitude": -5.091648, "height": 60, "width": 60, "photo_title": "El Hamma", "latitude": 34.527631, "owner_url": "http://www.panoramio.com/user/294049", "photo_url": "http://www.panoramio.com/photo/2427977", "photo_file_url": "http://mw2.google.com/mw-panoramio/photos/square/2427977.jpg", "owner_id": 294049}, {"upload_date": "26 February 2011", "owner_name": "SambaSamba", "photo_id": 48717516, "longitude": -6.570017, "height": 60, "width": 60, "photo_title": "Kenitra, Marjane 1 - Samba 2011", "latitude": 34.241369, "owner_url": "http://www.panoramio.com/user/4238022", "photo_url": "http://www.panoramio.com/photo/48717516", "photo_file_url": "http://mw2.google.com/mw-panoramio/photos/square/48717516.jpg", "owner_id": 4238022}, {"upload_date": "23 May 2008", "owner_name": "Slotfi", "photo_id": 10515269, "place_id": "a1640e2beef902fb9b32c7c8e2f480a7e4d8cd01", "longitude": -4.687214, "height": 60, "width": 60, "photo_title": "Sur la route de Ain Aicha", "latitude": 34.46363, "owner_url": "http://www.panoramio.com/user/1710445", "photo_url": "http://www.panoramio.com/photo/10515269", "photo_file_url": "http://mw2.google.com/mw-panoramio/photos/square/10515269.jpg", "owner_id": 1710445}, {"upload_date": "08 February 2006", "owner_name": "Jarg van Asch", "photo_id": 10826, "longitude": -5.3494834899902, "height": 60, "width": 60, "photo_title": "Valley of Tizlit", "latitude": 33.450671759652, "owner_url": "http://www.panoramio.com/user/1733", "photo_url": "http://www.panoramio.com/photo/10826", "photo_file_url": "http://mw2.google.com/mw-panoramio/photos/square/10826.jpg", "owner_id": 1733}, {"upload_date": "29 May 2010", "owner_name": "Tom\u00e1s Paz", "photo_id": 36122414, "longitude": -4.01921999999999, "height": 60, "width": 60, "photo_title": "Recogida", "latitude": 34.795767, "owner_url": "http://www.panoramio.com/user/1116880", "photo_url": "http://www.panoramio.com/photo/36122414", "photo_file_url": "http://mw2.google.com/mw-panoramio/photos/square/36122414.jpg", "owner_id": 1116880}, {"upload_date": "29 May 2011", "owner_name": "SambaSamba", "photo_id": 53430333, "longitude": -5.171562, "height": 60, "width": 60, "photo_title": "Ifrane, Forester Road 6 - Samba 2011", "latitude": 33.548177, "owner_url": "http://www.panoramio.com/user/4238022", "photo_url": "http://www.panoramio.com/photo/53430333", "photo_file_url": "http://mw2.google.com/mw-panoramio/photos/square/53430333.jpg", "owner_id": 4238022}, {"upload_date": "09 August 2008", "owner_name": "Edoardo Eggel", "photo_id": 12949351, "longitude": -5.212326, "height": 60, "width": 60, "photo_title": "Maccachi selvatici - by \u00a9 edonx", "latitude": 33.402283, "owner_url": "http://www.panoramio.com/user/928352", "photo_url": "http://www.panoramio.com/photo/12949351", "photo_file_url": "http://mw2.google.com/mw-panoramio/photos/square/12949351.jpg", "owner_id": 928352}, {"upload_date": "27 April 2011", "owner_name": "Giuseppe D'Ambrosio", "photo_id": 51775127, "longitude": -4.980862, "height": 60, "width": 60, "photo_title": "Fes-Sa\u00efss Airport", "latitude": 33.93056, "owner_url": "http://www.panoramio.com/user/2102731", "photo_url": "http://www.panoramio.com/photo/51775127", "photo_file_url": "http://mw2.google.com/mw-panoramio/photos/square/51775127.jpg", "owner_id": 2102731}, {"upload_date": "14 January 2009", "owner_name": "alto83", "photo_id": 17847362, "longitude": -5.12641, "height": 60, "width": 60, "photo_title": "A 15 Kms du barrage", "latitude": 34.539051, "owner_url": "http://www.panoramio.com/user/1592311", "photo_url": "http://www.panoramio.com/photo/17847362", "photo_file_url": "http://mw2.google.com/mw-panoramio/photos/square/17847362.jpg", "owner_id": 1592311}, {"upload_date": "16 October 2008", "owner_name": "C.'s Augenweide", "photo_id": 15061832, "longitude": -5.50209, "height": 60, "width": 60, "photo_title": "SOSheep", "latitude": 33.270269, "owner_url": "http://www.panoramio.com/user/584355", "photo_url": "http://www.panoramio.com/photo/15061832", "photo_file_url": "http://mw2.google.com/mw-panoramio/photos/square/15061832.jpg", "owner_id": 584355}, {"upload_date": "08 April 2009", "owner_name": "elakramine", "photo_id": 20967872, "longitude": -5.537721, "height": 60, "width": 60, "photo_title": "Route de Chaouen  -(24)", "latitude": 34.857904, "owner_url": "http://www.panoramio.com/user/831427", "photo_url": "http://www.panoramio.com/photo/20967872", "photo_file_url": "http://mw2.google.com/mw-panoramio/photos/square/20967872.jpg", "owner_id": 831427}, {"upload_date": "04 January 2013", "owner_name": "Pat BARREAUX", "photo_id": 84272951, "longitude": -5.566816, "height": 60, "width": 60, "photo_title": "Au nord de Meknes", "latitude": 34.021339, "owner_url": "http://www.panoramio.com/user/7327842", "photo_url": "http://www.panoramio.com/photo/84272951", "photo_file_url": "http://mw2.google.com/mw-panoramio/photos/square/84272951.jpg", "owner_id": 7327842}, {"upload_date": "16 January 2011", "owner_name": "elakramine", "photo_id": 46640688, "longitude": -6.708718, "height": 60, "width": 60, "photo_title": "Plage de Sidi Taibi", "latitude": 34.188473, "owner_url": "http://www.panoramio.com/user/831427", "photo_url": "http://www.panoramio.com/photo/46640688", "photo_file_url": "http://mw2.google.com/mw-panoramio/photos/square/46640688.jpg", "owner_id": 831427}, {"upload_date": "04 June 2008", "owner_name": "Valent\u00edn Enrique", "photo_id": 10916254, "longitude": -4.783522, "height": 60, "width": 60, "photo_title": "Taouerda. Marruecos.", "latitude": 33.383197, "owner_url": "http://www.panoramio.com/user/1082258", "photo_url": "http://www.panoramio.com/photo/10916254", "photo_file_url": "http://mw2.google.com/mw-panoramio/photos/square/10916254.jpg", "owner_id": 1082258}, {"upload_date": "05 April 2009", "owner_name": "elakramine", "photo_id": 20828183, "longitude": -5.334882, "height": 60, "width": 60, "photo_title": "Route de Chaouen -(13)", "latitude": 35.060722, "owner_url": "http://www.panoramio.com/user/831427", "photo_url": "http://www.panoramio.com/photo/20828183", "photo_file_url": "http://mw2.google.com/mw-panoramio/photos/square/20828183.jpg", "owner_id": 831427}, {"upload_date": "08 April 2009", "owner_name": "elakramine", "photo_id": 20967879, "longitude": -5.534685, "height": 60, "width": 60, "photo_title": "Route de Chaouen  -(25)", "latitude": 34.892954, "owner_url": "http://www.panoramio.com/user/831427", "photo_url": "http://www.panoramio.com/photo/20967879", "photo_file_url": "http://mw2.google.com/mw-panoramio/photos/square/20967879.jpg", "owner_id": 831427}, {"upload_date": "27 April 2009", "owner_name": "Uli.F", "photo_id": 21698040, "longitude": -6.638489, "height": 60, "width": 60, "photo_title": "Marokkos Farben im Mai", "latitude": 34.232242, "owner_url": "http://www.panoramio.com/user/2321754", "photo_url": "http://www.panoramio.com/photo/21698040", "photo_file_url": "http://mw2.google.com/mw-panoramio/photos/square/21698040.jpg", "owner_id": 2321754}, {"upload_date": "20 February 2011", "owner_name": "elakramine", "photo_id": 48387784, "longitude": -6.689494, "height": 60, "width": 60, "photo_title": "Village de Marchouch -(3m)", "latitude": 33.556828, "owner_url": "http://www.panoramio.com/user/831427", "photo_url": "http://www.panoramio.com/photo/48387784", "photo_file_url": "http://mw2.google.com/mw-panoramio/photos/square/48387784.jpg", "owner_id": 831427}, {"upload_date": "19 February 2011", "owner_name": "elakramine", "photo_id": 48363710, "longitude": -6.605186, "height": 60, "width": 60, "photo_title": "Vers Moulay Bouazza - (1mb)", "latitude": 33.455219, "owner_url": "http://www.panoramio.com/user/831427", "photo_url": "http://www.panoramio.com/photo/48363710", "photo_file_url": "http://mw2.google.com/mw-panoramio/photos/square/48363710.jpg", "owner_id": 831427}, {"upload_date": "26 February 2011", "owner_name": "SambaSamba", "photo_id": 48716872, "longitude": -6.584437000000008, "height": 60, "width": 60, "photo_title": "Kenitra, Jamal Eddine Al Afghani Mosque 1 - Samba 2011", "latitude": 34.254175, "owner_url": "http://www.panoramio.com/user/4238022", "photo_url": "http://www.panoramio.com/photo/48716872", "photo_file_url": "http://mw2.google.com/mw-panoramio/photos/square/48716872.jpg", "owner_id": 4238022}, {"upload_date": "09 April 2009", "owner_name": "elakramine", "photo_id": 20990453, "longitude": -5.340471, "height": 60, "width": 60, "photo_title": "Vers Ouiouane   -(7)", "latitude": 33.16845, "owner_url": "http://www.panoramio.com/user/831427", "photo_url": "http://www.panoramio.com/photo/20990453", "photo_file_url": "http://mw2.google.com/mw-panoramio/photos/square/20990453.jpg", "owner_id": 831427}, {"upload_date": "19 February 2009", "owner_name": "janny", "photo_id": 19157262, "longitude": -4.7474092918261, "height": 60, "width": 60, "photo_title": "route of the 1000 kashbas", "latitude": 33.364721366937, "owner_url": "http://www.panoramio.com/user/2266324", "photo_url": "http://www.panoramio.com/photo/19157262", "photo_file_url": "http://mw2.google.com/mw-panoramio/photos/square/19157262.jpg", "owner_id": 2266324}, {"upload_date": "19 July 2008", "owner_name": "Victor Lozano", "photo_id": 12249763, "longitude": -5.427986, "height": 60, "width": 60, "photo_title": "Chez Nicola", "latitude": 34.122526, "owner_url": "http://www.panoramio.com/user/3762", "photo_url": "http://www.panoramio.com/photo/12249763", "photo_file_url": "http://mw2.google.com/mw-panoramio/photos/square/12249763.jpg", "owner_id": 3762}, {"upload_date": "04 June 2010", "owner_name": "pasha195", "photo_id": 36354819, "longitude": -6.65823, "height": 60, "width": 60, "photo_title": "\u041a\u0440\u0435\u043f\u043e\u0441\u0442\u044c", "latitude": 34.26807, "owner_url": "http://www.panoramio.com/user/3960839", "photo_url": "http://www.panoramio.com/photo/36354819", "photo_file_url": "http://mw2.google.com/mw-panoramio/photos/square/36354819.jpg", "owner_id": 3960839}, {"upload_date": "16 January 2011", "owner_name": "elakramine", "photo_id": 46637552, "longitude": -6.700154, "height": 60, "width": 60, "photo_title": "Plage Sidi Boughaba", "latitude": 34.206246, "owner_url": "http://www.panoramio.com/user/831427", "photo_url": "http://www.panoramio.com/photo/46637552", "photo_file_url": "http://mw2.google.com/mw-panoramio/photos/square/46637552.jpg", "owner_id": 831427}, {"upload_date": "14 May 2009", "owner_name": "Roberto Tomei", "photo_id": 22342514, "longitude": -4.601847, "height": 60, "width": 60, "photo_title": "BOULMALNE-TINERHIR. Ksar di Imiter", "latitude": 33.200172, "owner_url": "http://www.panoramio.com/user/3054145", "photo_url": "http://www.panoramio.com/photo/22342514", "photo_file_url": "http://mw2.google.com/mw-panoramio/photos/square/22342514.jpg", "owner_id": 3054145}, {"upload_date": "10 July 2007", "owner_name": "el mesbahi", "photo_id": 3228731, "longitude": -3.812513, "height": 60, "width": 60, "photo_title": "al hoceima", "latitude": 34.964396, "owner_url": "http://www.panoramio.com/user/653935", "photo_url": "http://www.panoramio.com/photo/3228731", "photo_file_url": "http://mw2.google.com/mw-panoramio/photos/square/3228731.jpg", "owner_id": 653935}, {"upload_date": "27 February 2009", "owner_name": "jilalikar", "photo_id": 19458470, "longitude": -4.015235, "height": 60, "width": 60, "photo_title": "      jilalikar bab  jamaa taza maroc", "latitude": 34.210995, "owner_url": "http://www.panoramio.com/user/1606351", "photo_url": "http://www.panoramio.com/photo/19458470", "photo_file_url": "http://mw2.google.com/mw-panoramio/photos/square/19458470.jpg", "owner_id": 1606351}, {"upload_date": "10 July 2007", "owner_name": "el mesbahi", "photo_id": 3228668, "longitude": -3.79981, "height": 60, "width": 60, "photo_title": "carretera, al-hoceimas-nador", "latitude": 34.912611, "owner_url": "http://www.panoramio.com/user/653935", "photo_url": "http://www.panoramio.com/photo/3228668", "photo_file_url": "http://mw2.google.com/mw-panoramio/photos/square/3228668.jpg", "owner_id": 653935}, {"upload_date": "04 June 2008", "owner_name": "Valent\u00edn Enrique", "photo_id": 10914617, "longitude": -4.859905, "height": 60, "width": 60, "photo_title": "Desierto pedregoso. Marruecos.", "latitude": 33.523079, "owner_url": "http://www.panoramio.com/user/1082258", "photo_url": "http://www.panoramio.com/photo/10914617", "photo_file_url": "http://mw2.google.com/mw-panoramio/photos/square/10914617.jpg", "owner_id": 1082258}, {"upload_date": "11 March 2011", "owner_name": "SambaSamba", "photo_id": 49289267, "longitude": -4.87116, "height": 60, "width": 60, "photo_title": "Bhalil, Mosque 1 - Samba 2011", "latitude": 33.848897, "owner_url": "http://www.panoramio.com/user/4238022", "photo_url": "http://www.panoramio.com/photo/49289267", "photo_file_url": "http://mw2.google.com/mw-panoramio/photos/square/49289267.jpg", "owner_id": 4238022}, {"upload_date": "26 September 2008", "owner_name": "IPAAT", "photo_id": 14439039, "longitude": -5.316525, "height": 60, "width": 60, "photo_title": "Road to Fes", "latitude": 34.021489, "owner_url": "http://www.panoramio.com/user/472658", "photo_url": "http://www.panoramio.com/photo/14439039", "photo_file_url": "http://mw2.google.com/mw-panoramio/photos/square/14439039.jpg", "owner_id": 472658}, {"upload_date": "21 September 2008", "owner_name": "IPAAT", "photo_id": 14296037, "longitude": -5.391272, "height": 60, "width": 60, "photo_title": "Road N4", "latitude": 34.104565, "owner_url": "http://www.panoramio.com/user/472658", "photo_url": "http://www.panoramio.com/photo/14296037", "photo_file_url": "http://mw2.google.com/mw-panoramio/photos/square/14296037.jpg", "owner_id": 472658}, {"upload_date": "03 January 2010", "owner_name": "elakramine", "photo_id": 30584257, "longitude": -6.702347, "height": 60, "width": 60, "photo_title": "Lac Barrage Sidi Med ben Abdellah _1sm", "latitude": 33.97421, "owner_url": "http://www.panoramio.com/user/831427", "photo_url": "http://www.panoramio.com/photo/30584257", "photo_file_url": "http://mw2.google.com/mw-panoramio/photos/square/30584257.jpg", "owner_id": 831427}, {"upload_date": "19 November 2011", "owner_name": "Tomas Espuche", "photo_id": 62399847, "longitude": -4.742660999999998, "height": 60, "width": 60, "photo_title": "FEZ", "latitude": 34.084512, "owner_url": "http://www.panoramio.com/user/5433536", "photo_url": "http://www.panoramio.com/photo/62399847", "photo_file_url": "http://mw2.google.com/mw-panoramio/photos/square/62399847.jpg", "owner_id": 5433536}, {"upload_date": "06 January 2008", "owner_name": "Pierre Margotat", "photo_id": 6945784, "longitude": -4.740257, "height": 60, "width": 60, "photo_title": "Douar", "latitude": 34.26431, "owner_url": "http://www.panoramio.com/user/170421", "photo_url": "http://www.panoramio.com/photo/6945784", "photo_file_url": "http://mw2.google.com/mw-panoramio/photos/square/6945784.jpg", "owner_id": 170421}, {"upload_date": "23 February 2011", "owner_name": "SambaSamba", "photo_id": 48570291, "longitude": -5.568287, "height": 60, "width": 60, "photo_title": "Mrirt, Square 1.1 - Samba 2011", "latitude": 33.163666, "owner_url": "http://www.panoramio.com/user/4238022", "photo_url": "http://www.panoramio.com/photo/48570291", "photo_file_url": "http://mw2.google.com/mw-panoramio/photos/square/48570291.jpg", "owner_id": 4238022}, {"upload_date": "08 April 2009", "owner_name": "elakramine", "photo_id": 20967891, "longitude": -5.283544, "height": 60, "width": 60, "photo_title": "Route de Chaouen  ", "latitude": 35.134124, "owner_url": "http://www.panoramio.com/user/831427", "photo_url": "http://www.panoramio.com/photo/20967891", "photo_file_url": "http://mw2.google.com/mw-panoramio/photos/square/20967891.jpg", "owner_id": 831427}, {"upload_date": "09 February 2011", "owner_name": "SambaSamba", "photo_id": 47845491, "longitude": -6.334214, "height": 60, "width": 60, "photo_title": "Tiflet, The Local Hospital 1 - Samba 2011", "latitude": 33.895199, "owner_url": "http://www.panoramio.com/user/4238022", "photo_url": "http://www.panoramio.com/photo/47845491", "photo_file_url": "http://mw2.google.com/mw-panoramio/photos/square/47845491.jpg", "owner_id": 4238022}, {"upload_date": "15 June 2010", "owner_name": "Laszlo Koza", "photo_id": 36774518, "longitude": -4.790382, "height": 60, "width": 60, "photo_title": "Sur la route de Sidi Harazem", "latitude": 34.0299, "owner_url": "http://www.panoramio.com/user/2653600", "photo_url": "http://www.panoramio.com/photo/36774518", "photo_file_url": "http://mw2.google.com/mw-panoramio/photos/square/36774518.jpg", "owner_id": 2653600}, {"upload_date": "24 February 2011", "owner_name": "SambaSamba", "photo_id": 48600427, "longitude": -5.232518, "height": 60, "width": 60, "photo_title": "Mhaya, Sign 1 - Samba 2011", "latitude": 33.984751, "owner_url": "http://www.panoramio.com/user/4238022", "photo_url": "http://www.panoramio.com/photo/48600427", "photo_file_url": "http://mw2.google.com/mw-panoramio/photos/square/48600427.jpg", "owner_id": 4238022}, {"upload_date": "06 March 2009", "owner_name": "inivag", "photo_id": 19737777, "longitude": -5.717778, "height": 60, "width": 60, "photo_title": "r\u00e9gion de Sidi kacem", "latitude": 34.127222, "owner_url": "http://www.panoramio.com/user/341885", "photo_url": "http://www.panoramio.com/photo/19737777", "photo_file_url": "http://mw2.google.com/mw-panoramio/photos/square/19737777.jpg", "owner_id": 341885}, {"upload_date": "16 January 2011", "owner_name": "elakramine", "photo_id": 46637439, "longitude": -6.642973, "height": 60, "width": 60, "photo_title": "Port de Kenitra - (1pk)", "latitude": 34.270144, "owner_url": "http://www.panoramio.com/user/831427", "photo_url": "http://www.panoramio.com/photo/46637439", "photo_file_url": "http://mw2.google.com/mw-panoramio/photos/square/46637439.jpg", "owner_id": 831427}, {"upload_date": "06 June 2009", "owner_name": "jilalikar", "photo_id": 23149504, "longitude": -4.409187, "height": 60, "width": 60, "photo_title": "bouhlou taza maroc", "latitude": 34.131735, "owner_url": "http://www.panoramio.com/user/1606351", "photo_url": "http://www.panoramio.com/photo/23149504", "photo_file_url": "http://mw2.google.com/mw-panoramio/photos/square/23149504.jpg", "owner_id": 1606351}, {"upload_date": "20 March 2008", "owner_name": "carlos portoles", "photo_id": 8677990, "longitude": -4.404144, "height": 60, "width": 60, "photo_title": "Valles del Rif", "latitude": 34.961935, "owner_url": "http://www.panoramio.com/user/103732", "photo_url": "http://www.panoramio.com/photo/8677990", "photo_file_url": "http://mw2.google.com/mw-panoramio/photos/square/8677990.jpg", "owner_id": 103732}, {"upload_date": "06 January 2008", "owner_name": "el mesbahi", "photo_id": 6931607, "longitude": -3.820066, "height": 60, "width": 60, "photo_title": "la hoceima", "latitude": 35.024866, "owner_url": "http://www.panoramio.com/user/653935", "photo_url": "http://www.panoramio.com/photo/6931607", "photo_file_url": "http://mw2.google.com/mw-panoramio/photos/square/6931607.jpg", "owner_id": 653935}, {"upload_date": "28 November 2011", "owner_name": "Javier A. Rivera", "photo_id": 62806925, "longitude": -5.9035083, "height": 60, "width": 60, "photo_title": " Ksar-el-Kebir old railway station  / Antigua estaci\u00f3n ferrocarril Ksar-el-Kebir", "latitude": 35.0020226, "owner_url": "http://www.panoramio.com/user/6492", "photo_url": "http://www.panoramio.com/photo/62806925", "photo_file_url": "http://mw2.google.com/mw-panoramio/photos/square/62806925.jpg", "owner_id": 6492}, {"upload_date": "02 March 2011", "owner_name": "SambaSamba", "photo_id": 48907577, "longitude": -5.035933, "height": 60, "width": 60, "photo_title": "Fes, Marjane 1 - Samba 2011", "latitude": 34.04953, "owner_url": "http://www.panoramio.com/user/4238022", "photo_url": "http://www.panoramio.com/photo/48907577", "photo_file_url": "http://mw2.google.com/mw-panoramio/photos/square/48907577.jpg", "owner_id": 4238022}, {"upload_date": "16 January 2009", "owner_name": "alto83", "photo_id": 17885485, "longitude": -5.420036, "height": 60, "width": 60, "photo_title": "Culture vers Meknes", "latitude": 33.561423, "owner_url": "http://www.panoramio.com/user/1592311", "photo_url": "http://www.panoramio.com/photo/17885485", "photo_file_url": "http://mw2.google.com/mw-panoramio/photos/square/17885485.jpg", "owner_id": 1592311}, {"upload_date": "08 May 2011", "owner_name": "elakramine", "photo_id": 52333092, "longitude": -5.612812, "height": 60, "width": 60, "photo_title": "Landsape", "latitude": 33.893906, "owner_url": "http://www.panoramio.com/user/831427", "photo_url": "http://www.panoramio.com/photo/52333092", "photo_file_url": "http://mw2.google.com/mw-panoramio/photos/square/52333092.jpg", "owner_id": 831427}, {"upload_date": "11 April 2011", "owner_name": "MRR", "photo_id": 50890426, "longitude": -5.136709, "height": 60, "width": 60, "photo_title": "campagne marocaine environs de F\u00e8s", "latitude": 34.083552, "owner_url": "http://www.panoramio.com/user/20115", "photo_url": "http://www.panoramio.com/photo/50890426", "photo_file_url": "http://mw2.google.com/mw-panoramio/photos/square/50890426.jpg", "owner_id": 20115}, {"upload_date": "07 November 2011", "owner_name": "Tomas Espuche", "photo_id": 61824681, "longitude": -5.353088000000014, "height": 60, "width": 60, "photo_title": "Puente Cuidadin", "latitude": 34.91071, "owner_url": "http://www.panoramio.com/user/5433536", "photo_url": "http://www.panoramio.com/photo/61824681", "photo_file_url": "http://mw2.google.com/mw-panoramio/photos/square/61824681.jpg", "owner_id": 5433536}, {"upload_date": "09 May 2009", "owner_name": "elakramine", "photo_id": 22161852, "longitude": -6.217403, "height": 60, "width": 60, "photo_title": "Plage", "latitude": 35.070511, "owner_url": "http://www.panoramio.com/user/831427", "photo_url": "http://www.panoramio.com/photo/22161852", "photo_file_url": "http://mw2.google.com/mw-panoramio/photos/square/22161852.jpg", "owner_id": 831427}, {"upload_date": "30 April 2011", "owner_name": "elakramine", "photo_id": 51892757, "longitude": -6.209807, "height": 60, "width": 60, "photo_title": "Krate, M\u00e9chraa Bel Ksiri - (4cr)", "latitude": 34.528869, "owner_url": "http://www.panoramio.com/user/831427", "photo_url": "http://www.panoramio.com/photo/51892757", "photo_file_url": "http://mw2.google.com/mw-panoramio/photos/square/51892757.jpg", "owner_id": 831427}, {"upload_date": "30 April 2011", "owner_name": "elakramine", "photo_id": 51892563, "longitude": -6.085365, "height": 60, "width": 60, "photo_title": "Landscape", "latitude": 34.378258, "owner_url": "http://www.panoramio.com/user/831427", "photo_url": "http://www.panoramio.com/photo/51892563", "photo_file_url": "http://mw2.google.com/mw-panoramio/photos/square/51892563.jpg", "owner_id": 831427}, {"upload_date": "03 September 2008", "owner_name": "khalidovich", "photo_id": 13796571, "longitude": -6.298159, "height": 60, "width": 60, "photo_title": "LAMSALLA", "latitude": 34.302792, "owner_url": "http://www.panoramio.com/user/2210390", "photo_url": "http://www.panoramio.com/photo/13796571", "photo_file_url": "http://mw2.google.com/mw-panoramio/photos/square/13796571.jpg", "owner_id": 2210390}, {"upload_date": "21 August 2011", "owner_name": "elakramine", "photo_id": 57693340, "longitude": -6.562458, "height": 60, "width": 60, "photo_title": "Atlantic ocean", "latitude": 34.409324, "owner_url": "http://www.panoramio.com/user/831427", "photo_url": "http://www.panoramio.com/photo/57693340", "photo_file_url": "http://mw2.google.com/mw-panoramio/photos/square/57693340.jpg", "owner_id": 831427}, {"upload_date": "14 June 2010", "owner_name": "Laszlo Koza", "photo_id": 36766381, "longitude": -4.621081, "height": 60, "width": 60, "photo_title": "Champs de coquelicots", "latitude": 33.88, "owner_url": "http://www.panoramio.com/user/2653600", "photo_url": "http://www.panoramio.com/photo/36766381", "photo_file_url": "http://mw2.google.com/mw-panoramio/photos/square/36766381.jpg", "owner_id": 2653600}, {"upload_date": "07 November 2011", "owner_name": "Tomas Espuche", "photo_id": 61817182, "longitude": -4.139785999999987, "height": 60, "width": 60, "photo_title": "Ruta Ceuta", "latitude": 35.135914, "owner_url": "http://www.panoramio.com/user/5433536", "photo_url": "http://www.panoramio.com/photo/61817182", "photo_file_url": "http://mw2.google.com/mw-panoramio/photos/square/61817182.jpg", "owner_id": 5433536}, {"upload_date": "16 July 2010", "owner_name": "hamzaoui.95", "photo_id": 37984563, "longitude": -4.621209999999991, "height": 60, "width": 60, "photo_title": "KHLALFA", "latitude": 34.670453, "owner_url": "http://www.panoramio.com/user/4712664", "photo_url": "http://www.panoramio.com/photo/37984563", "photo_file_url": "http://mw2.google.com/mw-panoramio/photos/square/37984563.jpg", "owner_id": 4712664}, {"upload_date": "11 April 2011", "owner_name": "MRR", "photo_id": 50890426, "longitude": -5.136709, "height": 60, "width": 60, "photo_title": "campagne marocaine environs de F\u00e8s", "latitude": 34.083552, "owner_url": "http://www.panoramio.com/user/20115", "photo_url": "http://www.panoramio.com/photo/50890426", "photo_file_url": "http://mw2.google.com/mw-panoramio/photos/square/50890426.jpg", "owner_id": 20115},