{"count": 20, "has_more": false, "map_location": {"lat": 61.356788, "panoramio_zoom": 5, "lon": 14.780560878914487}, "photos": [{"upload_date": "01 May 2008", "owner_name": "Riccardo Massino", "photo_id": 9816339, "longitude": 14.776611, "height": 60, "width": 60, "photo_title": "Svezia: Un incontro frequente.", "latitude": 61.36712, "owner_url": "http://www.panoramio.com/user/1481429", "photo_url": "http://www.panoramio.com/photo/9816339", "photo_file_url": "http://mw2.google.com/mw-panoramio/photos/square/9816339.jpg", "owner_id": 1481429}, {"upload_date": "06 August 2011", "owner_name": "Peter B. Pearman", "photo_id": 56900592, "longitude": 14.803835, "height": 60, "width": 60, "photo_title": "F\u00e4bod cabin, Near \u00c4m\u00e5dalen, hiking trail", "latitude": 61.3602483333, "owner_url": "http://www.panoramio.com/user/2024107", "photo_url": "http://www.panoramio.com/photo/56900592", "photo_file_url": "http://mw2.google.com/mw-panoramio/photos/square/56900592.jpg", "owner_id": 2024107}, {"upload_date": "04 March 2011", "owner_name": "magic440", "photo_id": 48985257, "longitude": 14.7498333333, "height": 60, "width": 60, "photo_title": "Frosty woods", "latitude": 61.3485, "owner_url": "http://www.panoramio.com/user/1146443", "photo_url": "http://www.panoramio.com/photo/48985257", "photo_file_url": "http://mw2.google.com/mw-panoramio/photos/square/48985257.jpg", "owner_id": 1146443}, {"upload_date": "23 December 2008", "owner_name": "O.v.K.", "photo_id": 17094014, "longitude": 14.777985, "height": 60, "width": 60, "photo_title": "Kopp\u00e5ngen", "latitude": 61.37666, "owner_url": "http://www.panoramio.com/user/780563", "photo_url": "http://www.panoramio.com/photo/17094014", "photo_file_url": "http://mw2.google.com/mw-panoramio/photos/square/17094014.jpg", "owner_id": 780563}, {"upload_date": "06 April 2010", "owner_name": "HenrikJ\u00e4", "photo_id": 34077556, "longitude": 14.776955, "height": 60, "width": 60, "photo_title": "Kopp\u00e5ngen med berg \u00e5t sydv\u00e4st", "latitude": 61.360703, "owner_url": "http://www.panoramio.com/user/1192454", "photo_url": "http://www.panoramio.com/photo/34077556", "photo_file_url": "http://mw2.google.com/mw-panoramio/photos/square/34077556.jpg", "owner_id": 1192454}, {"upload_date": "06 April 2010", "owner_name": "HenrikJ\u00e4", "photo_id": 34077569, "longitude": 14.747601, "height": 60, "width": 60, "photo_title": "Do you see the bird?", "latitude": 61.336916, "owner_url": "http://www.panoramio.com/user/1192454", "photo_url": "http://www.panoramio.com/photo/34077569", "photo_file_url": "http://mw2.google.com/mw-panoramio/photos/square/34077569.jpg", "owner_id": 1192454}, {"upload_date": "06 August 2011", "owner_name": "Peter B. Pearman", "photo_id": 56900568, "longitude": 14.7990766667, "height": 60, "width": 60, "photo_title": "Near \u00c4m\u00e5dalen, hiking trail", "latitude": 61.3594883333, "owner_url": "http://www.panoramio.com/user/2024107", "photo_url": "http://www.panoramio.com/photo/56900568", "photo_file_url": "http://mw2.google.com/mw-panoramio/photos/square/56900568.jpg", "owner_id": 2024107}, {"upload_date": "06 August 2011", "owner_name": "Peter B. Pearman", "photo_id": 56900543, "longitude": 14.7751716667, "height": 60, "width": 60, "photo_title": "Near \u00c4m\u00e5dalen, hiking trail", "latitude": 61.3649283333, "owner_url": "http://www.panoramio.com/user/2024107", "photo_url": "http://www.panoramio.com/photo/56900543", "photo_file_url": "http://mw2.google.com/mw-panoramio/photos/square/56900543.jpg", "owner_id": 2024107}, {"upload_date": "26 February 2009", "owner_name": "SamuelMacLeod", "photo_id": 19426291, "longitude": 14.802017, "height": 60, "width": 60, "photo_title": "blomt\u00e4kts f\u00e4bod", "latitude": 61.362101, "owner_url": "http://www.panoramio.com/user/1321337", "photo_url": "http://www.panoramio.com/photo/19426291", "photo_file_url": "http://mw2.google.com/mw-panoramio/photos/square/19426291.jpg", "owner_id": 1321337}, {"upload_date": "06 April 2010", "owner_name": "HenrikJ\u00e4", "photo_id": 34076485, "longitude": 14.775238000000002, "height": 60, "width": 60, "photo_title": "Igloo p\u00e5 Kopp\u00e5ngen.", "latitude": 61.366215, "owner_url": "http://www.panoramio.com/user/1192454", "photo_url": "http://www.panoramio.com/photo/34076485", "photo_file_url": "http://mw2.google.com/mw-panoramio/photos/square/34076485.jpg", "owner_id": 1192454}, {"upload_date": "06 April 2010", "owner_name": "HenrikJ\u00e4", "photo_id": 34077546, "longitude": 14.801846000000012, "height": 60, "width": 60, "photo_title": "Blomt\u00e4kts f\u00e4bod", "latitude": 61.360456, "owner_url": "http://www.panoramio.com/user/1192454", "photo_url": "http://www.panoramio.com/photo/34077546", "photo_file_url": "http://mw2.google.com/mw-panoramio/photos/square/34077546.jpg", "owner_id": 1192454}]}