{"count": 68, "has_more": false, "map_location": {"lat": 31.474706, "panoramio_zoom": 7, "lon": 30.920803992574694}, "photos": [{"upload_date": "25 September 2011", "owner_name": "Yasser El-Rasoul", "photo_id": 59530793, "longitude": 30.749016, "height": 60, "width": 60, "photo_title": "Shakhrouba Village - The only village south the Borolus lake", "latitude": 31.404286, "owner_url": "http://www.panoramio.com/user/144020", "owner_id": 144020, "photo_file_url": "http://mw2.google.com/mw-panoramio/photos/square/59530793.jpg", "photo_url": "http://www.panoramio.com/photo/59530793"}, {"upload_date": "13 November 2007", "owner_name": "Yasser El-Rasoul", "photo_id": 5895011, "longitude": 30.968571, "height": 60, "width": 60, "photo_title": "Burolus Lake", "latitude": 31.570931, "owner_url": "http://www.panoramio.com/user/144020", "owner_id": 144020, "photo_file_url": "http://mw2.google.com/mw-panoramio/photos/square/5895011.jpg", "photo_url": "http://www.panoramio.com/photo/5895011"}, {"upload_date": "13 November 2007", "owner_name": "Yasser El-Rasoul", "photo_id": 5895018, "longitude": 31.05011, "height": 60, "width": 60, "photo_title": "Burolus Lake", "latitude": 31.568664, "owner_url": "http://www.panoramio.com/user/144020", "owner_id": 144020, "photo_file_url": "http://mw2.google.com/mw-panoramio/photos/square/5895018.jpg", "photo_url": "http://www.panoramio.com/photo/5895018"}, {"upload_date": "19 September 2011", "owner_name": "Yasser El-Rasoul", "photo_id": 59269309, "longitude": 30.957413, "height": 60, "width": 60, "photo_title": "Sailing to the past", "latitude": 31.518147, "owner_url": "http://www.panoramio.com/user/144020", "owner_id": 144020, "photo_file_url": "http://mw2.google.com/mw-panoramio/photos/square/59269309.jpg", "photo_url": "http://www.panoramio.com/photo/59269309"}, {"upload_date": "13 November 2007", "owner_name": "Yasser El-Rasoul", "photo_id": 5895005, "longitude": 30.997238, "height": 60, "width": 60, "photo_title": "Burolus Lake", "latitude": 31.578243, "owner_url": "http://www.panoramio.com/user/144020", "owner_id": 144020, "photo_file_url": "http://mw2.google.com/mw-panoramio/photos/square/5895005.jpg", "photo_url": "http://www.panoramio.com/photo/5895005"}, {"upload_date": "25 September 2011", "owner_name": "Yasser El-Rasoul", "photo_id": 59530840, "longitude": 30.659752, "height": 60, "width": 60, "photo_title": "South of Borolus lake", "latitude": 31.402528, "owner_url": "http://www.panoramio.com/user/144020", "owner_id": 144020, "photo_file_url": "http://mw2.google.com/mw-panoramio/photos/square/59530840.jpg", "photo_url": "http://www.panoramio.com/photo/59530840"}, {"upload_date": "11 April 2009", "owner_name": "Dumby111974", "photo_id": 21054058, "longitude": 30.989685, "height": 60, "width": 60, "photo_title": "Tarmul Egiptului la Marea Mediterana", "latitude": 31.488992, "owner_url": "http://www.panoramio.com/user/1913659", "owner_id": 1913659, "photo_file_url": "http://mw2.google.com/mw-panoramio/photos/square/21054058.jpg", "photo_url": "http://www.panoramio.com/photo/21054058"}, {"upload_date": "19 September 2011", "owner_name": "Yasser El-Rasoul", "photo_id": 59269276, "longitude": 30.962906, "height": 60, "width": 60, "photo_title": "Out of order", "latitude": 31.539217, "owner_url": "http://www.panoramio.com/user/144020", "owner_id": 144020, "photo_file_url": "http://mw2.google.com/mw-panoramio/photos/square/59269276.jpg", "photo_url": "http://www.panoramio.com/photo/59269276"}, {"upload_date": "24 December 2010", "owner_name": "Yasser El-Rasoul", "photo_id": 45487677, "longitude": 30.871366999999992, "height": 60, "width": 60, "photo_title": "inside Borolus lake", "latitude": 31.547027, "owner_url": "http://www.panoramio.com/user/144020", "owner_id": 144020, "photo_file_url": "http://mw2.google.com/mw-panoramio/photos/square/45487677.jpg", "photo_url": "http://www.panoramio.com/photo/45487677"}, {"upload_date": "23 December 2010", "owner_name": "Yasser El-Rasoul", "photo_id": 45475151, "longitude": 30.70489900000001, "height": 60, "width": 60, "photo_title": "Fishing boats at Bolorus lake", "latitude": 31.406152, "owner_url": "http://www.panoramio.com/user/144020", "owner_id": 144020, "photo_file_url": "http://mw2.google.com/mw-panoramio/photos/square/45475151.jpg", "photo_url": "http://www.panoramio.com/photo/45475151"}, {"upload_date": "25 September 2011", "owner_name": "Yasser El-Rasoul", "photo_id": 59530426, "longitude": 30.913811, "height": 60, "width": 60, "photo_title": "Inside the Lake", "latitude": 31.511474, "owner_url": "http://www.panoramio.com/user/144020", "owner_id": 144020, "photo_file_url": "http://mw2.google.com/mw-panoramio/photos/square/59530426.jpg", "photo_url": "http://www.panoramio.com/photo/59530426"}, {"upload_date": "23 December 2010", "owner_name": "Yasser El-Rasoul", "photo_id": 45475382, "longitude": 30.81922499999999, "height": 60, "width": 60, "photo_title": "Fishing boats at Bolorus lake", "latitude": 31.421681, "owner_url": "http://www.panoramio.com/user/144020", "owner_id": 144020, "photo_file_url": "http://mw2.google.com/mw-panoramio/photos/square/45475382.jpg", "photo_url": "http://www.panoramio.com/photo/45475382"}, {"upload_date": "23 December 2010", "owner_name": "Yasser El-Rasoul", "photo_id": 45474928, "longitude": 30.631771000000015, "height": 60, "width": 60, "photo_title": "Fishing boats at Bolorus lake", "latitude": 31.389448, "owner_url": "http://www.panoramio.com/user/144020", "owner_id": 144020, "photo_file_url": "http://mw2.google.com/mw-panoramio/photos/square/45474928.jpg", "photo_url": "http://www.panoramio.com/photo/45474928"}, {"upload_date": "23 December 2010", "owner_name": "Yasser El-Rasoul", "photo_id": 45475045, "longitude": 30.77116000000001, "height": 60, "width": 60, "photo_title": "Fishing boats at Bolorus lake", "latitude": 31.410547, "owner_url": "http://www.panoramio.com/user/144020", "owner_id": 144020, "photo_file_url": "http://mw2.google.com/mw-panoramio/photos/square/45475045.jpg", "photo_url": "http://www.panoramio.com/photo/45475045"}, {"upload_date": "04 July 2011", "owner_name": "youssef_alam", "photo_id": 55186757, "longitude": 31.024414, "height": 60, "width": 60, "photo_title": "Lac Burullus", "latitude": 31.574149, "owner_url": "http://www.panoramio.com/user/1642678", "owner_id": 1642678, "photo_file_url": "http://mw2.google.com/mw-panoramio/photos/square/55186757.jpg", "photo_url": "http://www.panoramio.com/photo/55186757"}, {"upload_date": "23 December 2010", "owner_name": "Yasser El-Rasoul", "photo_id": 45476809, "longitude": 30.720691999999985, "height": 60, "width": 60, "photo_title": "Fishing boats at Bolorus lake", "latitude": 31.470595, "owner_url": "http://www.panoramio.com/user/144020", "owner_id": 144020, "photo_file_url": "http://mw2.google.com/mw-panoramio/photos/square/45476809.jpg", "photo_url": "http://www.panoramio.com/photo/45476809"}, {"upload_date": "23 December 2010", "owner_name": "Yasser El-Rasoul", "photo_id": 45475510, "longitude": 30.596066000000008, "height": 60, "width": 60, "photo_title": "Fishing boats at Bolorus lake", "latitude": 31.391499, "owner_url": "http://www.panoramio.com/user/144020", "owner_id": 144020, "photo_file_url": "http://mw2.google.com/mw-panoramio/photos/square/45475510.jpg", "photo_url": "http://www.panoramio.com/photo/45475510"}, {"upload_date": "24 December 2010", "owner_name": "Yasser El-Rasoul", "photo_id": 45487686, "longitude": 30.88505699999999, "height": 60, "width": 60, "photo_title": "inside Borolus lake", "latitude": 31.527361, "owner_url": "http://www.panoramio.com/user/144020", "owner_id": 144020, "photo_file_url": "http://mw2.google.com/mw-panoramio/photos/square/45487686.jpg", "photo_url": "http://www.panoramio.com/photo/45487686"}, {"upload_date": "24 December 2010", "owner_name": "Yasser El-Rasoul", "photo_id": 45487653, "longitude": 30.99123, "height": 60, "width": 60, "photo_title": "inside Borolus lake", "latitude": 31.560448, "owner_url": "http://www.panoramio.com/user/144020", "owner_id": 144020, "photo_file_url": "http://mw2.google.com/mw-panoramio/photos/square/45487653.jpg", "photo_url": "http://www.panoramio.com/photo/45487653"}, {"upload_date": "23 December 2010", "owner_name": "Yasser El-Rasoul", "photo_id": 45475015, "longitude": 30.68498600000001, "height": 60, "width": 60, "photo_title": "Fishing boats at Bolorus lake", "latitude": 31.420216, "owner_url": "http://www.panoramio.com/user/144020", "owner_id": 144020, "photo_file_url": "http://mw2.google.com/mw-panoramio/photos/square/45475015.jpg", "photo_url": "http://www.panoramio.com/photo/45475015"}, {"upload_date": "19 September 2011", "owner_name": "Yasser El-Rasoul", "photo_id": 59269283, "longitude": 30.936813, "height": 60, "width": 60, "photo_title": "Sunny days", "latitude": 31.525171, "owner_url": "http://www.panoramio.com/user/144020", "owner_id": 144020, "photo_file_url": "http://mw2.google.com/mw-panoramio/photos/square/59269283.jpg", "photo_url": "http://www.panoramio.com/photo/59269283"}, {"upload_date": "23 December 2010", "owner_name": "Yasser El-Rasoul", "photo_id": 45476851, "longitude": 30.607738000000012, "height": 60, "width": 60, "photo_title": "Fishing boats at Bolorus lake", "latitude": 31.422853, "owner_url": "http://www.panoramio.com/user/144020", "owner_id": 144020, "photo_file_url": "http://mw2.google.com/mw-panoramio/photos/square/45476851.jpg", "photo_url": "http://www.panoramio.com/photo/45476851"}, {"upload_date": "24 December 2010", "owner_name": "Yasser El-Rasoul", "photo_id": 45487683, "longitude": 30.902567000000005, "height": 60, "width": 60, "photo_title": "inside Borolus lake", "latitude": 31.546381, "owner_url": "http://www.panoramio.com/user/144020", "owner_id": 144020, "photo_file_url": "http://mw2.google.com/mw-panoramio/photos/square/45487683.jpg", "photo_url": "http://www.panoramio.com/photo/45487683"}, {"upload_date": "23 March 2008", "owner_name": "abdallah sad", "photo_id": 8784883, "longitude": 30.903339, "height": 60, "width": 60, "photo_title": "\u0645\u0644\u062d \u0627\u0644\u0628\u0631\u0644\u0633", "latitude": 31.563179, "owner_url": "http://www.panoramio.com/user/1248578", "owner_id": 1248578, "photo_file_url": "http://mw2.google.com/mw-panoramio/photos/square/8784883.jpg", "photo_url": "http://www.panoramio.com/photo/8784883"}, {"upload_date": "05 May 2007", "owner_name": "ressay", "photo_id": 2078142, "longitude": 31.070323, "height": 60, "width": 60, "photo_title": "Mosque \u0627\u0644\u062c\u0627\u0645\u0639 \u0627\u0644\u0628\u062d\u0631\u064a", "latitude": 31.566049, "owner_url": "http://www.panoramio.com/user/429588", "owner_id": 429588, "photo_file_url": "http://mw2.google.com/mw-panoramio/photos/square/2078142.jpg", "photo_url": "http://www.panoramio.com/photo/2078142"}, {"upload_date": "25 April 2007", "owner_name": "martin.ullreich", "photo_id": 1921387, "longitude": 30.794678, "height": 60, "width": 60, "photo_title": "Lake Burullus", "latitude": 31.507727, "owner_url": "http://www.panoramio.com/user/322497", "owner_id": 322497, "photo_file_url": "http://mw2.google.com/mw-panoramio/photos/square/1921387.jpg", "photo_url": "http://www.panoramio.com/photo/1921387"}, {"upload_date": "27 October 2008", "owner_name": "\u062d\u0645\u062f\u0649  \u0623\u0628\u0648\u0632\u064a\u062f", "photo_id": 15413642, "longitude": 31.090622, "height": 60, "width": 60, "photo_title": "  palm trees at baltim", "latitude": 31.560692, "owner_url": "http://www.panoramio.com/user/2373363", "owner_id": 2373363, "photo_file_url": "http://mw2.google.com/mw-panoramio/photos/square/15413642.jpg", "photo_url": "http://www.panoramio.com/photo/15413642"}, {"upload_date": "16 July 2012", "owner_name": "benedettarei", "photo_id": 75457311, "longitude": 30.828201, "height": 60, "width": 60, "photo_title": "Nile delta", "latitude": 31.387852, "owner_url": "http://www.panoramio.com/user/3441760", "owner_id": 3441760, "photo_file_url": "http://mw2.google.com/mw-panoramio/photos/square/75457311.jpg", "photo_url": "http://www.panoramio.com/photo/75457311"}, {"upload_date": "16 January 2011", "owner_name": "A.Borschevski", "photo_id": 46643962, "longitude": 31.074829, "height": 60, "width": 60, "photo_title": "St.Anthony Monastery=\u041c\u043e\u043d\u0430\u0441\u0442\u044b\u0440\u044c \u0441\u0432\u044f\u0442\u043e\u0433\u043e \u0410\u043d\u0442\u043e\u043d\u0438\u044f", "latitude": 31.391158, "owner_url": "http://www.panoramio.com/user/5326771", "owner_id": 5326771, "photo_file_url": "http://mw2.google.com/mw-panoramio/photos/square/46643962.jpg", "photo_url": "http://www.panoramio.com/photo/46643962"}, {"upload_date": "14 April 2009", "owner_name": "KarimMohamedZayed", "photo_id": 21200844, "longitude": 30.689707, "height": 60, "width": 60, "photo_title": "Dune field between the Mediteranean and lake Burullus", "latitude": 31.482258, "owner_url": "http://www.panoramio.com/user/1590597", "owner_id": 1590597, "photo_file_url": "http://mw2.google.com/mw-panoramio/photos/square/21200844.jpg", "photo_url": "http://www.panoramio.com/photo/21200844"}, {"upload_date": "22 April 2009", "owner_name": "Yasser El-Rasoul", "photo_id": 21508660, "longitude": 30.99071, "height": 60, "width": 60, "photo_title": "Broulos Lake", "latitude": 31.569893, "owner_url": "http://www.panoramio.com/user/144020", "owner_id": 144020, "photo_file_url": "http://mw2.google.com/mw-panoramio/photos/square/21508660.jpg", "photo_url": "http://www.panoramio.com/photo/21508660"}, {"upload_date": "22 April 2009", "owner_name": "Yasser El-Rasoul", "photo_id": 21508750, "longitude": 30.985487, "height": 60, "width": 60, "photo_title": "Broulos Lake", "latitude": 31.573634, "owner_url": "http://www.panoramio.com/user/144020", "owner_id": 144020, "photo_file_url": "http://mw2.google.com/mw-panoramio/photos/square/21508750.jpg", "photo_url": "http://www.panoramio.com/photo/21508750"}, {"upload_date": "13 November 2007", "owner_name": "Yasser El-Rasoul", "photo_id": 5895009, "longitude": 30.984793, "height": 60, "width": 60, "photo_title": "Burolus Lake", "latitude": 31.577292, "owner_url": "http://www.panoramio.com/user/144020", "owner_id": 144020, "photo_file_url": "http://mw2.google.com/mw-panoramio/photos/square/5895009.jpg", "photo_url": "http://www.panoramio.com/photo/5895009"}, {"upload_date": "22 April 2009", "owner_name": "Yasser El-Rasoul", "photo_id": 21508696, "longitude": 30.977309, "height": 60, "width": 60, "photo_title": "Broulos Lake", "latitude": 31.572909, "owner_url": "http://www.panoramio.com/user/144020", "owner_id": 144020, "photo_file_url": "http://mw2.google.com/mw-panoramio/photos/square/21508696.jpg", "photo_url": "http://www.panoramio.com/photo/21508696"}, {"upload_date": "04 June 2008", "owner_name": "Yasser El-Rasoul", "photo_id": 10895601, "longitude": 31.075001, "height": 60, "width": 60, "photo_title": "Training course", "latitude": 31.551733, "owner_url": "http://www.panoramio.com/user/144020", "owner_id": 144020, "photo_file_url": "http://mw2.google.com/mw-panoramio/photos/square/10895601.jpg", "photo_url": "http://www.panoramio.com/photo/10895601"}, {"upload_date": "13 November 2007", "owner_name": "Yasser El-Rasoul", "photo_id": 5895017, "longitude": 31.036978, "height": 60, "width": 60, "photo_title": "Burolus Lake", "latitude": 31.570857, "owner_url": "http://www.panoramio.com/user/144020", "owner_id": 144020, "photo_file_url": "http://mw2.google.com/mw-panoramio/photos/square/5895017.jpg", "photo_url": "http://www.panoramio.com/photo/5895017"}, {"upload_date": "22 April 2009", "owner_name": "Yasser El-Rasoul", "photo_id": 21508726, "longitude": 31.002586, "height": 60, "width": 60, "photo_title": "Broulos Lake", "latitude": 31.578001, "owner_url": "http://www.panoramio.com/user/144020", "owner_id": 144020, "photo_file_url": "http://mw2.google.com/mw-panoramio/photos/square/21508726.jpg", "photo_url": "http://www.panoramio.com/photo/21508726"}, {"upload_date": "19 September 2011", "owner_name": "Yasser El-Rasoul", "photo_id": 59269298, "longitude": 30.924454, "height": 60, "width": 60, "photo_title": "Borolus lake at sunset", "latitude": 31.52283, "owner_url": "http://www.panoramio.com/user/144020", "owner_id": 144020, "photo_file_url": "http://mw2.google.com/mw-panoramio/photos/square/59269298.jpg", "photo_url": "http://www.panoramio.com/photo/59269298"}, {"upload_date": "08 March 2009", "owner_name": "stefkuna", "photo_id": 19819418, "longitude": 31.082811, "height": 60, "width": 60, "photo_title": "Flying past al amal beach", "latitude": 31.551539, "owner_url": "http://www.panoramio.com/user/2422389", "owner_id": 2422389, "photo_file_url": "http://mw2.google.com/mw-panoramio/photos/square/19819418.jpg", "photo_url": "http://www.panoramio.com/photo/19819418"}, {"upload_date": "23 December 2010", "owner_name": "Yasser El-Rasoul", "photo_id": 45474483, "longitude": 30.757695000000012, "height": 60, "width": 60, "photo_title": "Shakhrouba Village - The only village south the Borolus lake", "latitude": 31.403029, "owner_url": "http://www.panoramio.com/user/144020", "owner_id": 144020, "photo_file_url": "http://mw2.google.com/mw-panoramio/photos/square/45474483.jpg", "photo_url": "http://www.panoramio.com/photo/45474483"}, {"upload_date": "24 December 2010", "owner_name": "Yasser El-Rasoul", "photo_id": 45487671, "longitude": 30.866861, "height": 60, "width": 60, "photo_title": "inside Borolus lake", "latitude": 31.538188, "owner_url": "http://www.panoramio.com/user/144020", "owner_id": 144020, "photo_file_url": "http://mw2.google.com/mw-panoramio/photos/square/45487671.jpg", "photo_url": "http://www.panoramio.com/photo/45487671"}, {"upload_date": "19 September 2011", "owner_name": "Yasser El-Rasoul", "photo_id": 59269332, "longitude": 30.925827, "height": 60, "width": 60, "photo_title": "Claudy day", "latitude": 31.518147, "owner_url": "http://www.panoramio.com/user/144020", "owner_id": 144020, "photo_file_url": "http://mw2.google.com/mw-panoramio/photos/square/59269332.jpg", "photo_url": "http://www.panoramio.com/photo/59269332"}, {"upload_date": "23 December 2010", "owner_name": "Yasser El-Rasoul", "photo_id": 45474913, "longitude": 30.76704000000001, "height": 60, "width": 60, "photo_title": "Inside the Borolus lake", "latitude": 31.408496, "owner_url": "http://www.panoramio.com/user/144020", "owner_id": 144020, "photo_file_url": "http://mw2.google.com/mw-panoramio/photos/square/45474913.jpg", "photo_url": "http://www.panoramio.com/photo/45474913"}, {"upload_date": "23 December 2010", "owner_name": "Yasser El-Rasoul", "photo_id": 45475400, "longitude": 30.666876000000002, "height": 60, "width": 60, "photo_title": "Fishing boats at Bolorus lake", "latitude": 31.407299, "owner_url": "http://www.panoramio.com/user/144020", "owner_id": 144020, "photo_file_url": "http://mw2.google.com/mw-panoramio/photos/square/45475400.jpg", "photo_url": "http://www.panoramio.com/photo/45475400"}, {"upload_date": "23 December 2010", "owner_name": "Yasser El-Rasoul", "photo_id": 45477258, "longitude": 30.957670000000007, "height": 60, "width": 60, "photo_title": "Fishing boats at Bolorus lake", "latitude": 31.565543, "owner_url": "http://www.panoramio.com/user/144020", "owner_id": 144020, "photo_file_url": "http://mw2.google.com/mw-panoramio/photos/square/45477258.jpg", "photo_url": "http://www.panoramio.com/photo/45477258"}, {"upload_date": "03 July 2011", "owner_name": "youssef_alam", "photo_id": 55160580, "longitude": 31.020297, "height": 60, "width": 60, "photo_title": "Lac Burullus", "latitude": 31.574409, "owner_url": "http://www.panoramio.com/user/1642678", "owner_id": 1642678, "photo_file_url": "http://mw2.google.com/mw-panoramio/photos/square/55160580.jpg", "photo_url": "http://www.panoramio.com/photo/55160580"}, {"upload_date": "23 December 2010", "owner_name": "Yasser El-Rasoul", "photo_id": 45476960, "longitude": 30.867289999999997, "height": 60, "width": 60, "photo_title": "Fishing boats at Bolorus lake", "latitude": 31.533238, "owner_url": "http://www.panoramio.com/user/144020", "owner_id": 144020, "photo_file_url": "http://mw2.google.com/mw-panoramio/photos/square/45476960.jpg", "photo_url": "http://www.panoramio.com/photo/45476960"}, {"upload_date": "23 December 2010", "owner_name": "Yasser El-Rasoul", "photo_id": 45479788, "longitude": 30.646190999999988, "height": 60, "width": 60, "photo_title": "Inside the Borolus lake", "latitude": 31.399998, "owner_url": "http://www.panoramio.com/user/144020", "owner_id": 144020, "photo_file_url": "http://mw2.google.com/mw-panoramio/photos/square/45479788.jpg", "photo_url": "http://www.panoramio.com/photo/45479788"}, {"upload_date": "05 May 2007", "owner_name": "ressay", "photo_id": 2078155, "longitude": 31.065624, "height": 60, "width": 60, "photo_title": "\u062c\u0645\u064a\u0632\u0629 \u0639\u0628\u062f \u0627\u0644\u0644\u0647 \u0648\u0639\u0644\u0649 \u0639\u0628\u062f \u0627\u0644\u062f\u0627\u064a\u0645 Aly & abdullah ", "latitude": 31.566232, "owner_url": "http://www.panoramio.com/user/429588", "owner_id": 429588, "photo_file_url": "http://mw2.google.com/mw-panoramio/photos/square/2078155.jpg", "photo_url": "http://www.panoramio.com/photo/2078155"}, {"upload_date": "02 April 2009", "owner_name": "\u062d\u0645\u062f\u0649  \u0623\u0628\u0648\u0632\u064a\u062f", "photo_id": 20714719, "longitude": 31.097102, "height": 60, "width": 60, "photo_title": "\u0628\u0644\u0637\u064a\u0645", "latitude": 31.558279, "owner_url": "http://www.panoramio.com/user/2373363", "owner_id": 2373363, "photo_file_url": "http://mw2.google.com/mw-panoramio/photos/square/20714719.jpg", "photo_url": "http://www.panoramio.com/photo/20714719"}, {"upload_date": "26 July 2009", "owner_name": "\u062d\u0645\u062f\u0649  \u0623\u0628\u0648\u0632\u064a\u062f", "photo_id": 24923082, "longitude": 31.094656, "height": 60, "width": 60, "photo_title": "\u0628\u0644\u0637\u064a\u0645", "latitude": 31.552638, "owner_url": "http://www.panoramio.com/user/2373363", "owner_id": 2373363, "photo_file_url": "http://mw2.google.com/mw-panoramio/photos/square/24923082.jpg", "photo_url": "http://www.panoramio.com/photo/24923082"}, {"upload_date": "31 January 2009", "owner_name": "viking_nagy", "photo_id": 18403775, "longitude": 30.975094, "height": 60, "width": 60, "photo_title": "\u0628\u0648\u063a\u0627\u0632 \u0627\u0644\u0628\u0631\u0644\u0633 1  \u0646\u0627\u062c\u064a \u062d\u0644\u0645\u064a ", "latitude": 31.577841, "owner_url": "http://www.panoramio.com/user/2757127", "owner_id": 2757127, "photo_file_url": "http://mw2.google.com/mw-panoramio/photos/square/18403775.jpg", "photo_url": "http://www.panoramio.com/photo/18403775"}, {"upload_date": "03 August 2009", "owner_name": "viking_nagy", "photo_id": 25232998, "longitude": 31.032208999999995, "height": 60, "width": 60, "photo_title": "\u0627\u0644\u0628\u0631\u0644\u0633 .\u0646\u0627\u062c\u064a \u062d\u0644\u0645\u064a", "latitude": 31.572292, "owner_url": "http://www.panoramio.com/user/2757127", "owner_id": 2757127, "photo_file_url": "http://mw2.google.com/mw-panoramio/photos/square/25232998.jpg", "photo_url": "http://www.panoramio.com/photo/25232998"}, {"upload_date": "03 August 2009", "owner_name": "viking_nagy", "photo_id": 25233185, "longitude": 31.04599, "height": 60, "width": 60, "photo_title": "\u0627\u0644\u0628\u0631\u0644\u0633 3 .\u0646\u0627\u062c\u064a \u062d\u0644\u0645\u064a", "latitude": 31.569175, "owner_url": "http://www.panoramio.com/user/2757127", "owner_id": 2757127, "photo_file_url": "http://mw2.google.com/mw-panoramio/photos/square/25233185.jpg", "photo_url": "http://www.panoramio.com/photo/25233185"}, {"upload_date": "10 January 2010", "owner_name": "viking_nagy", "photo_id": 30874206, "longitude": 30.965823999999998, "height": 60, "width": 60, "photo_title": "\u0643\u0627\u0645\u064a\u0631\u0627 - \u0646\u0627\u062c\u064a \u062d\u0644\u0645\u064a", "latitude": 31.574587, "owner_url": "http://www.panoramio.com/user/2757127", "owner_id": 2757127, "photo_file_url": "http://mw2.google.com/mw-panoramio/photos/square/30874206.jpg", "photo_url": "http://www.panoramio.com/photo/30874206"}, {"upload_date": "14 June 2014", "owner_name": "Shame on Egyptian Military Coup  \u064a\u0633\u0642\u0637 \u064a\u0633\u0642\u0637 \u062d\u0643\u0645 \u0627\u0644\u0639\u0633\u0643\u0631", "photo_id": 108152433, "longitude": 30.98048, "height": 60, "width": 60, "photo_title": "Burllus lake coast  \u0633\u0627\u062d\u0644 \u0628\u062d\u064a\u0631\u0629 \u0627\u0644\u0628\u0631\u0644\u0633", "latitude": 31.578417, "owner_url": "http://www.panoramio.com/user/1959990", "owner_id": 1959990, "photo_file_url": "http://mw2.google.com/mw-panoramio/photos/square/108152433.jpg", "photo_url": "http://www.panoramio.com/photo/108152433"}, {"upload_date": "14 June 2014", "owner_name": "Shame on Egyptian Military Coup  \u064a\u0633\u0642\u0637 \u064a\u0633\u0642\u0637 \u062d\u0643\u0645 \u0627\u0644\u0639\u0633\u0643\u0631", "photo_id": 108152597, "longitude": 31.01052, "height": 60, "width": 60, "photo_title": "Burllus lake coast  \u0633\u0627\u062d\u0644 \u0628\u062d\u064a\u0631\u0629 \u0627\u0644\u0628\u0631\u0644\u0633", "latitude": 31.578097, "owner_url": "http://www.panoramio.com/user/1959990", "owner_id": 1959990, "photo_file_url": "http://mw2.google.com/mw-panoramio/photos/square/108152597.jpg", "photo_url": "http://www.panoramio.com/photo/108152597"}, {"upload_date": "28 September 2010", "owner_name": "viking_nagy", "photo_id": 41427736, "longitude": 31.089849000000015, "height": 60, "width": 60, "photo_title": "\u0628\u062d\u064a\u0631\u0629 \u0627\u0644\u0628\u0631\u0644\u0633 - \u0646\u0627\u062c\u064a \u062d\u0644\u0645\u064a", "latitude": 31.551038, "owner_url": "http://www.panoramio.com/user/2757127", "owner_id": 2757127, "photo_file_url": "http://mw2.google.com/mw-panoramio/photos/square/41427736.jpg", "photo_url": "http://www.panoramio.com/photo/41427736"}, {"upload_date": "10 January 2010", "owner_name": "viking_nagy", "photo_id": 30873850, "longitude": 31.014747999999997, "height": 60, "width": 60, "photo_title": "\u0643\u0627\u0645\u064a\u0631\u0627 - \u0646\u0627\u062c\u064a \u062d\u0644\u0645\u064a", "latitude": 31.576196, "owner_url": "http://www.panoramio.com/user/2757127", "owner_id": 2757127, "photo_file_url": "http://mw2.google.com/mw-panoramio/photos/square/30873850.jpg", "photo_url": "http://www.panoramio.com/photo/30873850"}, {"upload_date": "01 June 2010", "owner_name": "nadershafik", "photo_id": 36238647, "longitude": 30.946082999999987, "height": 60, "width": 60, "photo_title": "\u0643\u0627\u0645\u064a\u0631\u0627 \u0627\u0644\u062d\u0627\u062c \\ \u0646\u0627\u062f\u0631.....\u0628\u062d\u064a\u0631\u0629 \u0627\u0644\u0628\u0631\u0644\u0633", "latitude": 31.567859, "owner_url": "http://www.panoramio.com/user/924440", "owner_id": 924440, "photo_file_url": "http://mw2.google.com/mw-panoramio/photos/square/36238647.jpg", "photo_url": "http://www.panoramio.com/photo/36238647"}, {"upload_date": "14 April 2009", "owner_name": "KarimMohamedZayed", "photo_id": 21199717, "longitude": 30.99105800000001, "height": 60, "width": 60, "photo_title": "Fishing boats - Burullus", "latitude": 31.577621, "owner_url": "http://www.panoramio.com/user/1590597", "owner_id": 1590597, "photo_file_url": "http://mw2.google.com/mw-panoramio/photos/square/21199717.jpg", "photo_url": "http://www.panoramio.com/photo/21199717"}, {"upload_date": "28 September 2010", "owner_name": "viking_nagy", "photo_id": 41427625, "longitude": 31.07457199999999, "height": 60, "width": 60, "photo_title": "\u0637\u0631\u064a\u0642 \u0627\u0644\u0628\u0631\u062c \u0628\u0644\u0637\u064a\u0645 - \u0646\u0627\u062c\u064a \u062d\u0644\u0645\u064a", "latitude": 31.558571, "owner_url": "http://www.panoramio.com/user/2757127", "owner_id": 2757127, "photo_file_url": "http://mw2.google.com/mw-panoramio/photos/square/41427625.jpg", "photo_url": "http://www.panoramio.com/photo/41427625"}, {"upload_date": "19 October 2010", "owner_name": "viking_nagy", "photo_id": 42449271, "longitude": 31.006507999999997, "height": 60, "width": 60, "photo_title": "\u0627\u0644\u0628\u0631\u062c - \u0646\u0627\u062c\u064a \u062d\u0644\u0645\u064a", "latitude": 31.578572, "owner_url": "http://www.panoramio.com/user/2757127", "owner_id": 2757127, "photo_file_url": "http://mw2.google.com/mw-panoramio/photos/square/42449271.jpg", "photo_url": "http://www.panoramio.com/photo/42449271"}, {"upload_date": "29 October 2010", "owner_name": "elmihydesign", "photo_id": 42900907, "longitude": 30.96179, "height": 60, "width": 60, "photo_title": "Net fishing", "latitude": 31.573618, "owner_url": "http://www.panoramio.com/user/1773380", "owner_id": 1773380, "photo_file_url": "http://mw2.google.com/mw-panoramio/photos/square/42900907.jpg", "photo_url": "http://www.panoramio.com/photo/42900907"}, {"upload_date": "25 October 2011", "owner_name": "Gamal Essa", "photo_id": 61146989, "longitude": 30.767062, "height": 60, "width": 60, "photo_title": "El-shakhloba", "latitude": 31.393356, "owner_url": "http://www.panoramio.com/user/6419096", "owner_id": 6419096, "photo_file_url": "http://mw2.google.com/mw-panoramio/photos/square/61146989.jpg", "photo_url": "http://www.panoramio.com/photo/61146989"}, {"upload_date": "11 December 2010", "owner_name": "ahmed ezz ali ghanem", "photo_id": 44893016, "longitude": 30.95415700000001, "height": 60, "width": 60, "photo_title": "\u0645\u0635\u0646\u0639 \u063a\u0627\u0646\u0645 \u0644\u0644\u0623\u0639\u0644\u0627\u0641", "latitude": 31.37084, "owner_url": "http://www.panoramio.com/user/5309300", "owner_id": 5309300, "photo_file_url": "http://mw2.google.com/mw-panoramio/photos/square/44893016.jpg", "photo_url": "http://www.panoramio.com/photo/44893016"}, {"upload_date": "22 February 2012", "owner_name": "elabasy", "photo_id": 67251673, "longitude": 31.066649, "height": 60, "width": 60, "photo_title": "\u0628\u062d\u064a\u0631\u0629 \u0627\u0644\u0628\u0631\u0644\u0633 \u0634\u0627\u0637\u0626 \u0627\u0644\u0639\u0628\u0627\u0633\u0649", "latitude": 31.560409, "owner_url": "http://www.panoramio.com/user/6599886", "owner_id": 6599886, "photo_file_url": "http://mw2.google.com/mw-panoramio/photos/square/67251673.jpg", "photo_url": "http://www.panoramio.com/photo/67251673"}, {"upload_date": "07 January 2014", "owner_name": "\u0650AhmedGawan", "photo_id": 101454026, "longitude": 31.078394, "height": 60, "width": 60, "photo_title": "\u0645\u0633\u062c\u062f \u0627\u0644\u0642\u062f\u0633 - \u0628\u0644\u0637\u064a\u0645 - \u0623\u062d\u0645\u062f \u062c\u0639\u0648\u0627\u0646", "latitude": 31.55715, "owner_url": "http://www.panoramio.com/user/8096142", "owner_id": 8096142, "photo_file_url": "http://mw2.google.com/mw-panoramio/photos/square/101454026.jpg", "photo_url": "http://www.panoramio.com/photo/101454026"}]}