{"count": 264, "has_more": true, "map_location": {"lat": 45.7616485, "panoramio_zoom": 6, "lon": 14.373345633051601}, "photos": [{"upload_date": "03 November 2011", "owner_name": "MarioTs", "photo_id": 61605619, "longitude": 14.431572, "height": 60, "width": 60, "photo_title": "Lago periodico di Cerknica", "latitude": 45.730988, "owner_url": "http://www.panoramio.com/user/56088", "photo_url": "http://www.panoramio.com/photo/61605619", "photo_file_url": "http://mw2.google.com/mw-panoramio/photos/square/61605619.jpg", "owner_id": 56088}, {"upload_date": "03 November 2011", "owner_name": "MarioTs", "photo_id": 61605476, "longitude": 14.361513000000002, "height": 60, "width": 60, "photo_title": "Lago periodico di Cerknica", "latitude": 45.765456, "owner_url": "http://www.panoramio.com/user/56088", "photo_url": "http://www.panoramio.com/photo/61605476", "photo_file_url": "http://mw2.google.com/mw-panoramio/photos/square/61605476.jpg", "owner_id": 56088}, {"upload_date": "05 July 2007", "owner_name": "Vid_Pogacnik", "photo_id": 3142160, "longitude": 14.34514, "height": 60, "width": 60, "photo_title": "Cycling around Cerknisko jezero (photo: Jasmina Pogacnik)", "latitude": 45.784704, "owner_url": "http://www.panoramio.com/user/444288", "photo_url": "http://www.panoramio.com/photo/3142160", "photo_file_url": "http://mw2.google.com/mw-panoramio/photos/square/3142160.jpg", "owner_id": 444288}, {"upload_date": "05 July 2007", "owner_name": "Vid_Pogacnik", "photo_id": 3142199, "longitude": 14.374752, "height": 60, "width": 60, "photo_title": "Cycling around Cerknisko jezero", "latitude": 45.735961, "owner_url": "http://www.panoramio.com/user/444288", "photo_url": "http://www.panoramio.com/photo/3142199", "photo_file_url": "http://mw2.google.com/mw-panoramio/photos/square/3142199.jpg", "owner_id": 444288}, {"upload_date": "01 April 2008", "owner_name": "ElMac", "photo_id": 9022527, "longitude": 14.361491, "height": 60, "width": 60, "photo_title": "Lago di Cerknica", "latitude": 45.774737, "owner_url": "http://www.panoramio.com/user/217205", "photo_url": "http://www.panoramio.com/photo/9022527", "photo_file_url": "http://mw2.google.com/mw-panoramio/photos/square/9022527.jpg", "owner_id": 217205}, {"upload_date": "05 July 2007", "owner_name": "Vid_Pogacnik", "photo_id": 3142227, "longitude": 14.34557, "height": 60, "width": 60, "photo_title": "Cerknisko jezero in winter", "latitude": 45.778419, "owner_url": "http://www.panoramio.com/user/444288", "photo_url": "http://www.panoramio.com/photo/3142227", "photo_file_url": "http://mw2.google.com/mw-panoramio/photos/square/3142227.jpg", "owner_id": 444288}, {"upload_date": "03 November 2011", "owner_name": "MarioTs", "photo_id": 61605200, "longitude": 14.325829, "height": 60, "width": 60, "photo_title": "La Chiesetta di Zalse", "latitude": 45.793592, "owner_url": "http://www.panoramio.com/user/56088", "photo_url": "http://www.panoramio.com/photo/61605200", "photo_file_url": "http://mw2.google.com/mw-panoramio/photos/square/61605200.jpg", "owner_id": 56088}, {"upload_date": "03 November 2011", "owner_name": "MarioTs", "photo_id": 61605393, "longitude": 14.34145, "height": 60, "width": 60, "photo_title": "Lago periodico di Cerknica", "latitude": 45.76872, "owner_url": "http://www.panoramio.com/user/56088", "photo_url": "http://www.panoramio.com/photo/61605393", "photo_file_url": "http://mw2.google.com/mw-panoramio/photos/square/61605393.jpg", "owner_id": 56088}, {"upload_date": "03 November 2011", "owner_name": "MarioTs", "photo_id": 61605522, "longitude": 14.361877, "height": 60, "width": 60, "photo_title": "Lago periodico di Cerknica", "latitude": 45.739016, "owner_url": "http://www.panoramio.com/user/56088", "photo_url": "http://www.panoramio.com/photo/61605522", "photo_file_url": "http://mw2.google.com/mw-panoramio/photos/square/61605522.jpg", "owner_id": 56088}, {"upload_date": "13 November 2012", "owner_name": "Flavio Snidero", "photo_id": 82041069, "longitude": 14.376383, "height": 60, "width": 60, "photo_title": "Carso in Slovenia: Cerkni\u0161ko jezero_colori d'autunno", "latitude": 45.731677, "owner_url": "http://www.panoramio.com/user/381221", "photo_url": "http://www.panoramio.com/photo/82041069", "photo_file_url": "http://mw2.google.com/mw-panoramio/photos/square/82041069.jpg", "owner_id": 381221}, {"upload_date": "05 July 2007", "owner_name": "Vid_Pogacnik", "photo_id": 3142404, "longitude": 14.43243, "height": 60, "width": 60, "photo_title": "Cerknisko jezero from Slivnica", "latitude": 45.8017, "owner_url": "http://www.panoramio.com/user/444288", "photo_url": "http://www.panoramio.com/photo/3142404", "photo_file_url": "http://mw2.google.com/mw-panoramio/photos/square/3142404.jpg", "owner_id": 444288}, {"upload_date": "26 August 2010", "owner_name": "panoramawolle", "photo_id": 39848728, "longitude": 14.3615274429, "height": 60, "width": 60, "photo_title": "Intermittend lake Cerkni\u0161ko Jezero", "latitude": 45.7655487061, "owner_url": "http://www.panoramio.com/user/3118321", "photo_url": "http://www.panoramio.com/photo/39848728", "photo_file_url": "http://mw2.google.com/mw-panoramio/photos/square/39848728.jpg", "owner_id": 3118321}, {"upload_date": "17 November 2012", "owner_name": "Flavio Snidero", "photo_id": 82226421, "longitude": 14.423584, "height": 60, "width": 60, "photo_title": "Carso in Slovenia: Cerkni\u0161ko jezero, motivo autunnale", "latitude": 45.723364, "owner_url": "http://www.panoramio.com/user/381221", "photo_url": "http://www.panoramio.com/photo/82226421", "photo_file_url": "http://mw2.google.com/mw-panoramio/photos/square/82226421.jpg", "owner_id": 381221}, {"upload_date": "03 November 2011", "owner_name": "MarioTs", "photo_id": 61605337, "longitude": 14.360332, "height": 60, "width": 60, "photo_title": "Lago periodico di Cerknica", "latitude": 45.783207, "owner_url": "http://www.panoramio.com/user/56088", "photo_url": "http://www.panoramio.com/photo/61605337", "photo_file_url": "http://mw2.google.com/mw-panoramio/photos/square/61605337.jpg", "owner_id": 56088}, {"upload_date": "25 December 2008", "owner_name": "slo_thiago", "photo_id": 17140669, "longitude": 14.361105, "height": 60, "width": 60, "photo_title": "lake Cerknica (Thiago)", "latitude": 45.761805, "owner_url": "http://www.panoramio.com/user/397415", "photo_url": "http://www.panoramio.com/photo/17140669", "photo_file_url": "http://mw2.google.com/mw-panoramio/photos/square/17140669.jpg", "owner_id": 397415}, {"upload_date": "09 August 2010", "owner_name": "ElMac", "photo_id": 39047004, "longitude": 14.358776, "height": 60, "width": 60, "photo_title": "Sotto la pioggia. Slovenia", "latitude": 45.778405, "owner_url": "http://www.panoramio.com/user/217205", "photo_url": "http://www.panoramio.com/photo/39047004", "photo_file_url": "http://mw2.google.com/mw-panoramio/photos/square/39047004.jpg", "owner_id": 217205}, {"upload_date": "20 February 2007", "owner_name": "peter_fg", "photo_id": 912217, "longitude": 14.356642, "height": 60, "width": 60, "photo_title": "Cerknica lake - the swallow holes", "latitude": 45.770397, "owner_url": "http://www.panoramio.com/user/191868", "photo_url": "http://www.panoramio.com/photo/912217", "photo_file_url": "http://mw2.google.com/mw-panoramio/photos/square/912217.jpg", "owner_id": 191868}, {"upload_date": "23 June 2007", "owner_name": "Monika Lautar", "photo_id": 2903828, "longitude": 14.368229, "height": 60, "width": 60, "photo_title": "iz blokov na Pe\u0161\u010denku", "latitude": 45.791183, "owner_url": "http://www.panoramio.com/user/593206", "photo_url": "http://www.panoramio.com/photo/2903828", "photo_file_url": "http://mw2.google.com/mw-panoramio/photos/square/2903828.jpg", "owner_id": 593206}, {"upload_date": "14 June 2009", "owner_name": "Giancarlo Skarabot", "photo_id": 23422550, "longitude": 14.40637, "height": 60, "width": 60, "photo_title": "Cerkni\u0161ko Jezero dalla Slivnica", "latitude": 45.788579, "owner_url": "http://www.panoramio.com/user/2517134", "photo_url": "http://www.panoramio.com/photo/23422550", "photo_file_url": "http://mw2.google.com/mw-panoramio/photos/square/23422550.jpg", "owner_id": 2517134}, {"upload_date": "24 May 2013", "owner_name": "MarioTs", "photo_id": 90769519, "longitude": 14.393227, "height": 60, "width": 60, "photo_title": "Slivnica bike tour", "latitude": 45.79404, "owner_url": "http://www.panoramio.com/user/56088", "photo_url": "http://www.panoramio.com/photo/90769519", "photo_file_url": "http://mw2.google.com/mw-panoramio/photos/square/90769519.jpg", "owner_id": 56088}, {"upload_date": "24 May 2013", "owner_name": "MarioTs", "photo_id": 90769473, "longitude": 14.373379, "height": 60, "width": 60, "photo_title": "Slivnica bike tour", "latitude": 45.795417, "owner_url": "http://www.panoramio.com/user/56088", "photo_url": "http://www.panoramio.com/photo/90769473", "photo_file_url": "http://mw2.google.com/mw-panoramio/photos/square/90769473.jpg", "owner_id": 56088}, {"upload_date": "18 April 2013", "owner_name": "Roberto/ex \"vagabondo\"", "photo_id": 88995370, "longitude": 14.331923, "height": 60, "width": 60, "photo_title": "Chiesetta", "latitude": 45.79487, "owner_url": "http://www.panoramio.com/user/1053772", "photo_url": "http://www.panoramio.com/photo/88995370", "photo_file_url": "http://mw2.google.com/mw-panoramio/photos/square/88995370.jpg", "owner_id": 1053772}, {"upload_date": "27 January 2010", "owner_name": "Giancarlo Skarabot", "photo_id": 31520373, "longitude": 14.369908, "height": 60, "width": 60, "photo_title": "22-01-2010_ghiaccio \"sospeso\"", "latitude": 45.740839, "owner_url": "http://www.panoramio.com/user/2517134", "photo_url": "http://www.panoramio.com/photo/31520373", "photo_file_url": "http://mw2.google.com/mw-panoramio/photos/square/31520373.jpg", "owner_id": 2517134}, {"upload_date": "22 April 2011", "owner_name": "Lu\u00eds Paiva Bol\u00e9o", "photo_id": 51483328, "longitude": 14.361438, "height": 60, "width": 60, "photo_title": "Cerknica", "latitude": 45.794198, "owner_url": "http://www.panoramio.com/user/4305904", "photo_url": "http://www.panoramio.com/photo/51483328", "photo_file_url": "http://mw2.google.com/mw-panoramio/photos/square/51483328.jpg", "owner_id": 4305904}, {"upload_date": "21 July 2008", "owner_name": "Andrej Sumec", "photo_id": 12333461, "longitude": 14.388657, "height": 60, "width": 60, "photo_title": "Cerkni\u0161ko jezero_AS", "latitude": 45.765607, "owner_url": "http://www.panoramio.com/user/34539", "photo_url": "http://www.panoramio.com/photo/12333461", "photo_file_url": "http://mw2.google.com/mw-panoramio/photos/square/12333461.jpg", "owner_id": 34539}, {"upload_date": "11 November 2008", "owner_name": "Maraska", "photo_id": 15892358, "longitude": 14.338188, "height": 60, "width": 60, "photo_title": "Cerkniszko Polje", "latitude": 45.784824, "owner_url": "http://www.panoramio.com/user/2430989", "photo_url": "http://www.panoramio.com/photo/15892358", "photo_file_url": "http://mw2.google.com/mw-panoramio/photos/square/15892358.jpg", "owner_id": 2430989}, {"upload_date": "10 May 2009", "owner_name": "colja", "photo_id": 22208893, "longitude": 14.350548, "height": 60, "width": 60, "photo_title": "Cerkni\u0161ko jezero", "latitude": 45.780933, "owner_url": "http://www.panoramio.com/user/1131220", "photo_url": "http://www.panoramio.com/photo/22208893", "photo_file_url": "http://mw2.google.com/mw-panoramio/photos/square/22208893.jpg", "owner_id": 1131220}, {"upload_date": "30 May 2009", "owner_name": "Davide Staffetta", "photo_id": 22876100, "longitude": 14.411316, "height": 60, "width": 60, "photo_title": "Prima neve sulla Slivnica, Postumia", "latitude": 45.791287, "owner_url": "http://www.panoramio.com/user/2304705", "photo_url": "http://www.panoramio.com/photo/22876100", "photo_file_url": "http://mw2.google.com/mw-panoramio/photos/square/22876100.jpg", "owner_id": 2304705}, {"upload_date": "09 June 2012", "owner_name": "petr voda", "photo_id": 73459025, "longitude": 14.325447, "height": 60, "width": 60, "photo_title": "Crknica", "latitude": 45.77138, "owner_url": "http://www.panoramio.com/user/2804477", "photo_url": "http://www.panoramio.com/photo/73459025", "photo_file_url": "http://mw2.google.com/mw-panoramio/photos/square/73459025.jpg", "owner_id": 2804477}, {"upload_date": "18 June 2008", "owner_name": "delozei", "photo_id": 11326437, "longitude": 14.362564, "height": 60, "width": 60, "photo_title": "Cerknica", "latitude": 45.756984, "owner_url": "http://www.panoramio.com/user/1153509", "photo_url": "http://www.panoramio.com/photo/11326437", "photo_file_url": "http://mw2.google.com/mw-panoramio/photos/square/11326437.jpg", "owner_id": 1153509}, {"upload_date": "09 June 2012", "owner_name": "petr voda", "photo_id": 73458945, "longitude": 14.351324, "height": 60, "width": 60, "photo_title": "Crkni\u0161ko Jezero", "latitude": 45.769493, "owner_url": "http://www.panoramio.com/user/2804477", "photo_url": "http://www.panoramio.com/photo/73458945", "photo_file_url": "http://mw2.google.com/mw-panoramio/photos/square/73458945.jpg", "owner_id": 2804477}, {"upload_date": "29 March 2014", "owner_name": "MarioTs", "photo_id": 104984268, "longitude": 14.3999, "height": 60, "width": 60, "photo_title": "Il lago di Circogno", "latitude": 45.792724, "owner_url": "http://www.panoramio.com/user/56088", "photo_url": "http://www.panoramio.com/photo/104984268", "photo_file_url": "http://mw2.google.com/mw-panoramio/photos/square/104984268.jpg", "owner_id": 56088}, {"upload_date": "23 August 2007", "owner_name": "endurofly", "photo_id": 4120507, "longitude": 14.404889, "height": 60, "width": 60, "photo_title": "Cerkni\u0161ko lake", "latitude": 45.728222, "owner_url": "http://www.panoramio.com/user/455140", "photo_url": "http://www.panoramio.com/photo/4120507", "photo_file_url": "http://mw2.google.com/mw-panoramio/photos/square/4120507.jpg", "owner_id": 455140}, {"upload_date": "10 May 2009", "owner_name": "colja", "photo_id": 22208854, "longitude": 14.363208, "height": 60, "width": 60, "photo_title": "Cerkni\u0161ko jezero", "latitude": 45.770232, "owner_url": "http://www.panoramio.com/user/1131220", "photo_url": "http://www.panoramio.com/photo/22208854", "photo_file_url": "http://mw2.google.com/mw-panoramio/photos/square/22208854.jpg", "owner_id": 1131220}, {"upload_date": "02 July 2012", "owner_name": "silmar01", "photo_id": 74713724, "longitude": 14.427824, "height": 60, "width": 60, "photo_title": "Slivnica", "latitude": 45.757602, "owner_url": "http://www.panoramio.com/user/5126821", "photo_url": "http://www.panoramio.com/photo/74713724", "photo_file_url": "http://mw2.google.com/mw-panoramio/photos/square/74713724.jpg", "owner_id": 5126821}, {"upload_date": "25 January 2009", "owner_name": "lovro67", "photo_id": 18182124, "longitude": 14.40255, "height": 60, "width": 60, "photo_title": "Cerknica lake 7", "latitude": 45.724525, "owner_url": "http://www.panoramio.com/user/1322918", "photo_url": "http://www.panoramio.com/photo/18182124", "photo_file_url": "http://mw2.google.com/mw-panoramio/photos/square/18182124.jpg", "owner_id": 1322918}, {"upload_date": "22 April 2014", "owner_name": "emil sluga", "photo_id": 105998163, "longitude": 14.420542, "height": 60, "width": 60, "photo_title": "old farm building", "latitude": 45.739375, "owner_url": "http://www.panoramio.com/user/8054682", "photo_url": "http://www.panoramio.com/photo/105998163", "photo_file_url": "http://mw2.google.com/mw-panoramio/photos/square/105998163.jpg", "owner_id": 8054682}, {"upload_date": "22 April 2014", "owner_name": "emil sluga", "photo_id": 105998380, "longitude": 14.414728, "height": 60, "width": 60, "photo_title": "landscape near the lake", "latitude": 45.721597, "owner_url": "http://www.panoramio.com/user/8054682", "photo_url": "http://www.panoramio.com/photo/105998380", "photo_file_url": "http://mw2.google.com/mw-panoramio/photos/square/105998380.jpg", "owner_id": 8054682}, {"upload_date": "22 April 2014", "owner_name": "emil sluga", "photo_id": 105998350, "longitude": 14.411144, "height": 60, "width": 60, "photo_title": "infinity", "latitude": 45.725896, "owner_url": "http://www.panoramio.com/user/8054682", "photo_url": "http://www.panoramio.com/photo/105998350", "photo_file_url": "http://mw2.google.com/mw-panoramio/photos/square/105998350.jpg", "owner_id": 8054682}, {"upload_date": "22 April 2014", "owner_name": "emil sluga", "photo_id": 105998117, "longitude": 14.425456, "height": 60, "width": 60, "photo_title": "interesting old balcony", "latitude": 45.750151, "owner_url": "http://www.panoramio.com/user/8054682", "photo_url": "http://www.panoramio.com/photo/105998117", "photo_file_url": "http://mw2.google.com/mw-panoramio/photos/square/105998117.jpg", "owner_id": 8054682}, {"upload_date": "22 April 2014", "owner_name": "emil sluga", "photo_id": 105998338, "longitude": 14.409599, "height": 60, "width": 60, "photo_title": "sky in the mirror", "latitude": 45.732846, "owner_url": "http://www.panoramio.com/user/8054682", "photo_url": "http://www.panoramio.com/photo/105998338", "photo_file_url": "http://mw2.google.com/mw-panoramio/photos/square/105998338.jpg", "owner_id": 8054682}, {"upload_date": "17 January 2010", "owner_name": "maja1maja", "photo_id": 31142892, "longitude": 14.351492000000007, "height": 60, "width": 60, "photo_title": "cerkni\u0161ko \u017eito", "latitude": 45.79422, "owner_url": "http://www.panoramio.com/user/4067282", "photo_url": "http://www.panoramio.com/photo/31142892", "photo_file_url": "http://mw2.google.com/mw-panoramio/photos/square/31142892.jpg", "owner_id": 4067282}, {"upload_date": "11 June 2009", "owner_name": "Alan G", "photo_id": 23314487, "longitude": 14.327877777778, "height": 60, "width": 60, "photo_title": "Cerkni\u0161ko jezero - junij", "latitude": 45.779580555556, "owner_url": "http://www.panoramio.com/user/431889", "photo_url": "http://www.panoramio.com/photo/23314487", "photo_file_url": "http://mw2.google.com/mw-panoramio/photos/square/23314487.jpg", "owner_id": 431889}, {"upload_date": "28 April 2013", "owner_name": "Si-Dro", "photo_id": 89447733, "longitude": 14.370881, "height": 60, "width": 60, "photo_title": "Utrinek s cerkni\u0161kega jezera.", "latitude": 45.748263, "owner_url": "http://www.panoramio.com/user/3201127", "photo_url": "http://www.panoramio.com/photo/89447733", "photo_file_url": "http://mw2.google.com/mw-panoramio/photos/square/89447733.jpg", "owner_id": 3201127}, {"upload_date": "16 April 2008", "owner_name": "odi193m", "photo_id": 9415151, "longitude": 14.364367, "height": 60, "width": 60, "photo_title": "Cerkni\u0161ko jezero (Matej Oder)", "latitude": 45.752553, "owner_url": "http://www.panoramio.com/user/783119", "photo_url": "http://www.panoramio.com/photo/9415151", "photo_file_url": "http://mw2.google.com/mw-panoramio/photos/square/9415151.jpg", "owner_id": 783119}, {"upload_date": "17 July 2010", "owner_name": "Xellos", "photo_id": 38033830, "longitude": 14.411316, "height": 60, "width": 60, "photo_title": "Razgled iz Slivnice proti Sne\u017eniku", "latitude": 45.782968, "owner_url": "http://www.panoramio.com/user/4731671", "photo_url": "http://www.panoramio.com/photo/38033830", "photo_file_url": "http://mw2.google.com/mw-panoramio/photos/square/38033830.jpg", "owner_id": 4731671}, {"upload_date": "05 July 2007", "owner_name": "Vid_Pogacnik", "photo_id": 3142257, "longitude": 14.343166, "height": 60, "width": 60, "photo_title": "Cerknisko jezero in winter", "latitude": 45.780095, "owner_url": "http://www.panoramio.com/user/444288", "photo_url": "http://www.panoramio.com/photo/3142257", "photo_file_url": "http://mw2.google.com/mw-panoramio/photos/square/3142257.jpg", "owner_id": 444288}, {"upload_date": "03 November 2011", "owner_name": "MarioTs", "photo_id": 61605280, "longitude": 14.360504, "height": 60, "width": 60, "photo_title": "Lago periodico di Cerknica", "latitude": 45.784883, "owner_url": "http://www.panoramio.com/user/56088", "photo_url": "http://www.panoramio.com/photo/61605280", "photo_file_url": "http://mw2.google.com/mw-panoramio/photos/square/61605280.jpg", "owner_id": 56088}, {"upload_date": "13 November 2012", "owner_name": "Flavio Snidero", "photo_id": 82041153, "longitude": 14.35698, "height": 60, "width": 60, "photo_title": "Carso in Slovenia: Cerkni\u0161ko jezero,.... e l'acqua guadagna il verde", "latitude": 45.766909, "owner_url": "http://www.panoramio.com/user/381221", "photo_url": "http://www.panoramio.com/photo/82041153", "photo_file_url": "http://mw2.google.com/mw-panoramio/photos/square/82041153.jpg", "owner_id": 381221}, {"upload_date": "25 December 2008", "owner_name": "slo_thiago", "photo_id": 17140427, "longitude": 14.359903, "height": 60, "width": 60, "photo_title": "road to lake Cerknica (Thiago)", "latitude": 45.768361, "owner_url": "http://www.panoramio.com/user/397415", "photo_url": "http://www.panoramio.com/photo/17140427", "photo_file_url": "http://mw2.google.com/mw-panoramio/photos/square/17140427.jpg", "owner_id": 397415}, {"upload_date": "24 May 2013", "owner_name": "MarioTs", "photo_id": 90769509, "longitude": 14.395888, "height": 60, "width": 60, "photo_title": "Slivnica bike tour", "latitude": 45.793951, "owner_url": "http://www.panoramio.com/user/56088", "photo_url": "http://www.panoramio.com/photo/90769509", "photo_file_url": "http://mw2.google.com/mw-panoramio/photos/square/90769509.jpg", "owner_id": 56088}, {"upload_date": "13 November 2012", "owner_name": "Flavio Snidero", "photo_id": 82028401, "longitude": 14.357525, "height": 60, "width": 60, "photo_title": "Carso in Slovenia: Cerkni\u0161ko jezero (lago di Circonio), riflessi", "latitude": 45.77276, "owner_url": "http://www.panoramio.com/user/381221", "photo_url": "http://www.panoramio.com/photo/82028401", "photo_file_url": "http://mw2.google.com/mw-panoramio/photos/square/82028401.jpg", "owner_id": 381221}, {"upload_date": "20 May 2009", "owner_name": "Martin Brus", "photo_id": 22564891, "longitude": 14.355483, "height": 60, "width": 60, "photo_title": "Slivnica from Cerknica lake", "latitude": 45.769993, "owner_url": "http://www.panoramio.com/user/1215105", "photo_url": "http://www.panoramio.com/photo/22564891", "photo_file_url": "http://mw2.google.com/mw-panoramio/photos/square/22564891.jpg", "owner_id": 1215105}, {"upload_date": "18 May 2009", "owner_name": "Martin Brus", "photo_id": 22505926, "longitude": 14.350076, "height": 60, "width": 60, "photo_title": "Slivnica above Cerknica", "latitude": 45.781561, "owner_url": "http://www.panoramio.com/user/1215105", "photo_url": "http://www.panoramio.com/photo/22505926", "photo_file_url": "http://mw2.google.com/mw-panoramio/photos/square/22505926.jpg", "owner_id": 1215105}, {"upload_date": "25 December 2008", "owner_name": "slo_thiago", "photo_id": 17140466, "longitude": 14.361963, "height": 60, "width": 60, "photo_title": "lake Cerknica (Thiago)", "latitude": 45.764709, "owner_url": "http://www.panoramio.com/user/397415", "photo_url": "http://www.panoramio.com/photo/17140466", "photo_file_url": "http://mw2.google.com/mw-panoramio/photos/square/17140466.jpg", "owner_id": 397415}, {"upload_date": "05 January 2012", "owner_name": "Roberto Bubnich", "photo_id": 64475778, "longitude": 14.354239, "height": 60, "width": 60, "photo_title": "Cerknisko jezero (HDR) - January 2012", "latitude": 45.767703, "owner_url": "http://www.panoramio.com/user/2112798", "photo_url": "http://www.panoramio.com/photo/64475778", "photo_file_url": "http://mw2.google.com/mw-panoramio/photos/square/64475778.jpg", "owner_id": 2112798}, {"upload_date": "25 December 2008", "owner_name": "slo_thiago", "photo_id": 17140505, "longitude": 14.361577, "height": 60, "width": 60, "photo_title": "lake Cerknica (Thiago)", "latitude": 45.762074, "owner_url": "http://www.panoramio.com/user/397415", "photo_url": "http://www.panoramio.com/photo/17140505", "photo_file_url": "http://mw2.google.com/mw-panoramio/photos/square/17140505.jpg", "owner_id": 397415}, {"upload_date": "05 January 2012", "owner_name": "Roberto Bubnich", "photo_id": 64475573, "longitude": 14.363079, "height": 60, "width": 60, "photo_title": "Postojna, Cerknisko jezero - January 2012", "latitude": 45.773083, "owner_url": "http://www.panoramio.com/user/2112798", "photo_url": "http://www.panoramio.com/photo/64475573", "photo_file_url": "http://mw2.google.com/mw-panoramio/photos/square/64475573.jpg", "owner_id": 2112798}, {"upload_date": "26 August 2010", "owner_name": "panoramawolle", "photo_id": 39848723, "longitude": 14.3548440933, "height": 60, "width": 60, "photo_title": "Spiegelung im periodischen See Cerkni\u0161ko Jezero", "latitude": 45.7691230774, "owner_url": "http://www.panoramio.com/user/3118321", "photo_url": "http://www.panoramio.com/photo/39848723", "photo_file_url": "http://mw2.google.com/mw-panoramio/photos/square/39848723.jpg", "owner_id": 3118321}, {"upload_date": "20 February 2007", "owner_name": "peter_fg", "photo_id": 912228, "longitude": 14.404793, "height": 60, "width": 60, "photo_title": "Slivnica and the Cerknica polje", "latitude": 45.787397, "owner_url": "http://www.panoramio.com/user/191868", "photo_url": "http://www.panoramio.com/photo/912228", "photo_file_url": "http://mw2.google.com/mw-panoramio/photos/square/912228.jpg", "owner_id": 191868}, {"upload_date": "24 May 2013", "owner_name": "MarioTs", "photo_id": 90769507, "longitude": 14.404943, "height": 60, "width": 60, "photo_title": "Fiorellini - Slivnica bike tour", "latitude": 45.79018, "owner_url": "http://www.panoramio.com/user/56088", "photo_url": "http://www.panoramio.com/photo/90769507", "photo_file_url": "http://mw2.google.com/mw-panoramio/photos/square/90769507.jpg", "owner_id": 56088}, {"upload_date": "10 October 2011", "owner_name": "pskusek", "photo_id": 60386685, "longitude": 14.407496, "height": 60, "width": 60, "photo_title": "Cerkni\u0161ko polje (presihajo\u010de jezero)", "latitude": 45.789103, "owner_url": "http://www.panoramio.com/user/1547274", "photo_url": "http://www.panoramio.com/photo/60386685", "photo_file_url": "http://mw2.google.com/mw-panoramio/photos/square/60386685.jpg", "owner_id": 1547274}, {"upload_date": "22 April 2011", "owner_name": "Lu\u00eds Paiva Bol\u00e9o", "photo_id": 51483307, "longitude": 14.362728, "height": 60, "width": 60, "photo_title": "Cerknica, 2011Mar", "latitude": 45.793397, "owner_url": "http://www.panoramio.com/user/4305904", "photo_url": "http://www.panoramio.com/photo/51483307", "photo_file_url": "http://mw2.google.com/mw-panoramio/photos/square/51483307.jpg", "owner_id": 4305904}, {"upload_date": "18 April 2013", "owner_name": "Roberto/ex \"vagabondo\"", "photo_id": 88995358, "longitude": 14.327419, "height": 60, "width": 60, "photo_title": "STOP!!!!!!!!!", "latitude": 45.793932, "owner_url": "http://www.panoramio.com/user/1053772", "photo_url": "http://www.panoramio.com/photo/88995358", "photo_file_url": "http://mw2.google.com/mw-panoramio/photos/square/88995358.jpg", "owner_id": 1053772}, {"upload_date": "10 May 2009", "owner_name": "colja", "photo_id": 22208874, "longitude": 14.361255, "height": 60, "width": 60, "photo_title": "Cerkni\u0161ko jezero", "latitude": 45.767688, "owner_url": "http://www.panoramio.com/user/1131220", "photo_url": "http://www.panoramio.com/photo/22208874", "photo_file_url": "http://mw2.google.com/mw-panoramio/photos/square/22208874.jpg", "owner_id": 1131220}, {"upload_date": "10 October 2011", "owner_name": "pskusek", "photo_id": 60386842, "longitude": 14.406853, "height": 60, "width": 60, "photo_title": "Slivnica, vrh 1114 m", "latitude": 45.79048, "owner_url": "http://www.panoramio.com/user/1547274", "photo_url": "http://www.panoramio.com/photo/60386842", "photo_file_url": "http://mw2.google.com/mw-panoramio/photos/square/60386842.jpg", "owner_id": 1547274}, {"upload_date": "18 June 2008", "owner_name": "delozei", "photo_id": 11326402, "longitude": 14.361706, "height": 60, "width": 60, "photo_title": "cerkni\u0161ko jezero", "latitude": 45.761296, "owner_url": "http://www.panoramio.com/user/1153509", "photo_url": "http://www.panoramio.com/photo/11326402", "photo_file_url": "http://mw2.google.com/mw-panoramio/photos/square/11326402.jpg", "owner_id": 1153509}, {"upload_date": "09 June 2012", "owner_name": "petr voda", "photo_id": 73458924, "longitude": 14.355867, "height": 60, "width": 60, "photo_title": "Crkni\u0161ko Jezero", "latitude": 45.771712, "owner_url": "http://www.panoramio.com/user/2804477", "photo_url": "http://www.panoramio.com/photo/73458924", "photo_file_url": "http://mw2.google.com/mw-panoramio/photos/square/73458924.jpg", "owner_id": 2804477}, {"upload_date": "09 June 2012", "owner_name": "petr voda", "photo_id": 73458899, "longitude": 14.35944, "height": 60, "width": 60, "photo_title": "Dolenje Jezero", "latitude": 45.77618, "owner_url": "http://www.panoramio.com/user/2804477", "photo_url": "http://www.panoramio.com/photo/73458899", "photo_file_url": "http://mw2.google.com/mw-panoramio/photos/square/73458899.jpg", "owner_id": 2804477}, {"upload_date": "09 June 2012", "owner_name": "petr voda", "photo_id": 73458890, "longitude": 14.360663, "height": 60, "width": 60, "photo_title": "Dolenje Jezero", "latitude": 45.77624, "owner_url": "http://www.panoramio.com/user/2804477", "photo_url": "http://www.panoramio.com/photo/73458890", "photo_file_url": "http://mw2.google.com/mw-panoramio/photos/square/73458890.jpg", "owner_id": 2804477}, {"upload_date": "09 June 2012", "owner_name": "petr voda", "photo_id": 73458933, "longitude": 14.354816, "height": 60, "width": 60, "photo_title": "Crkni\u0161ko Jezero", "latitude": 45.771435, "owner_url": "http://www.panoramio.com/user/2804477", "photo_url": "http://www.panoramio.com/photo/73458933", "photo_file_url": "http://mw2.google.com/mw-panoramio/photos/square/73458933.jpg", "owner_id": 2804477}, {"upload_date": "09 June 2012", "owner_name": "petr voda", "photo_id": 73458905, "longitude": 14.358078, "height": 60, "width": 60, "photo_title": "Dolenje Jezero", "latitude": 45.776393, "owner_url": "http://www.panoramio.com/user/2804477", "photo_url": "http://www.panoramio.com/photo/73458905", "photo_file_url": "http://mw2.google.com/mw-panoramio/photos/square/73458905.jpg", "owner_id": 2804477}, {"upload_date": "09 June 2012", "owner_name": "petr voda", "photo_id": 73458829, "longitude": 14.360876, "height": 60, "width": 60, "photo_title": "museum Jezerski hram", "latitude": 45.776965, "owner_url": "http://www.panoramio.com/user/2804477", "photo_url": "http://www.panoramio.com/photo/73458829", "photo_file_url": "http://mw2.google.com/mw-panoramio/photos/square/73458829.jpg", "owner_id": 2804477}, {"upload_date": "29 March 2014", "owner_name": "MarioTs", "photo_id": 104984324, "longitude": 14.409084, "height": 60, "width": 60, "photo_title": "Addentrandosi per bosco della Strega", "latitude": 45.789851, "owner_url": "http://www.panoramio.com/user/56088", "photo_url": "http://www.panoramio.com/photo/104984324", "photo_file_url": "http://mw2.google.com/mw-panoramio/photos/square/104984324.jpg", "owner_id": 56088}, {"upload_date": "06 February 2007", "owner_name": "geraut", "photo_id": 716317, "longitude": 14.359646, "height": 60, "width": 60, "photo_title": "Cerknica-1", "latitude": 45.796075, "owner_url": "http://www.panoramio.com/user/143979", "photo_url": "http://www.panoramio.com/photo/716317", "photo_file_url": "http://mw2.google.com/mw-panoramio/photos/square/716317.jpg", "owner_id": 143979}, {"upload_date": "29 March 2014", "owner_name": "MarioTs", "photo_id": 104984244, "longitude": 14.394064, "height": 60, "width": 60, "photo_title": "Il lago periodico di Cerknica dalla Slivnica", "latitude": 45.793322, "owner_url": "http://www.panoramio.com/user/56088", "photo_url": "http://www.panoramio.com/photo/104984244", "photo_file_url": "http://mw2.google.com/mw-panoramio/photos/square/104984244.jpg", "owner_id": 56088}, {"upload_date": "09 June 2012", "owner_name": "petr voda", "photo_id": 73458968, "longitude": 14.356962, "height": 60, "width": 60, "photo_title": "Crkni\u0161ko Jezero", "latitude": 45.77166, "owner_url": "http://www.panoramio.com/user/2804477", "photo_url": "http://www.panoramio.com/photo/73458968", "photo_file_url": "http://mw2.google.com/mw-panoramio/photos/square/73458968.jpg", "owner_id": 2804477}, {"upload_date": "09 June 2012", "owner_name": "petr voda", "photo_id": 73458994, "longitude": 14.356801, "height": 60, "width": 60, "photo_title": "Crkni\u0161ko polje", "latitude": 45.776924, "owner_url": "http://www.panoramio.com/user/2804477", "photo_url": "http://www.panoramio.com/photo/73458994", "photo_file_url": "http://mw2.google.com/mw-panoramio/photos/square/73458994.jpg", "owner_id": 2804477}, {"upload_date": "11 June 2009", "owner_name": "Alan G", "photo_id": 23314507, "longitude": 14.360505555556, "height": 60, "width": 60, "photo_title": "Cerkvi - Cerknica", "latitude": 45.785663888889, "owner_url": "http://www.panoramio.com/user/431889", "photo_url": "http://www.panoramio.com/photo/23314507", "photo_file_url": "http://mw2.google.com/mw-panoramio/photos/square/23314507.jpg", "owner_id": 431889}, {"upload_date": "16 April 2011", "owner_name": "silmar01", "photo_id": 51173016, "longitude": 14.342423, "height": 60, "width": 60, "photo_title": "S. Lorenc", "latitude": 45.78427, "owner_url": "http://www.panoramio.com/user/5126821", "photo_url": "http://www.panoramio.com/photo/51173016", "photo_file_url": "http://mw2.google.com/mw-panoramio/photos/square/51173016.jpg", "owner_id": 5126821}, {"upload_date": "22 April 2014", "owner_name": "emil sluga", "photo_id": 105998033, "longitude": 14.362677, "height": 60, "width": 60, "photo_title": "rotted city gate", "latitude": 45.794492, "owner_url": "http://www.panoramio.com/user/8054682", "photo_url": "http://www.panoramio.com/photo/105998033", "photo_file_url": "http://mw2.google.com/mw-panoramio/photos/square/105998033.jpg", "owner_id": 8054682}, {"upload_date": "29 March 2014", "owner_name": "MarioTs", "photo_id": 104984312, "longitude": 14.406424, "height": 60, "width": 60, "photo_title": "Bevo Lasko finch\u00e8 casco!", "latitude": 45.789492, "owner_url": "http://www.panoramio.com/user/56088", "photo_url": "http://www.panoramio.com/photo/104984312", "photo_file_url": "http://mw2.google.com/mw-panoramio/photos/square/104984312.jpg", "owner_id": 56088}, {"upload_date": "29 July 2014", "owner_name": "Vid_Pogacnik", "photo_id": 109865221, "longitude": 14.32718, "height": 60, "width": 60, "photo_title": "Sv. Volbenk near Zel\u0161e", "latitude": 45.792125, "owner_url": "http://www.panoramio.com/user/444288", "photo_url": "http://www.panoramio.com/photo/109865221", "photo_file_url": "http://mw2.google.com/mw-panoramio/photos/square/109865221.jpg", "owner_id": 444288}, {"upload_date": "22 April 2014", "owner_name": "emil sluga", "photo_id": 105998309, "longitude": 14.405523, "height": 60, "width": 60, "photo_title": "lake reflections", "latitude": 45.72895, "owner_url": "http://www.panoramio.com/user/8054682", "photo_url": "http://www.panoramio.com/photo/105998309", "photo_file_url": "http://mw2.google.com/mw-panoramio/photos/square/105998309.jpg", "owner_id": 8054682}, {"upload_date": "22 April 2014", "owner_name": "emil sluga", "photo_id": 105998249, "longitude": 14.420521, "height": 60, "width": 60, "photo_title": "spring orchard", "latitude": 45.737639, "owner_url": "http://www.panoramio.com/user/8054682", "photo_url": "http://www.panoramio.com/photo/105998249", "photo_file_url": "http://mw2.google.com/mw-panoramio/photos/square/105998249.jpg", "owner_id": 8054682}, {"upload_date": "29 March 2014", "owner_name": "MarioTs", "photo_id": 104984253, "longitude": 14.397497, "height": 60, "width": 60, "photo_title": "sempre pi\u00f9 su", "latitude": 45.792484, "owner_url": "http://www.panoramio.com/user/56088", "photo_url": "http://www.panoramio.com/photo/104984253", "photo_file_url": "http://mw2.google.com/mw-panoramio/photos/square/104984253.jpg", "owner_id": 56088}, {"upload_date": "29 March 2014", "owner_name": "MarioTs", "photo_id": 104984316, "longitude": 14.405136, "height": 60, "width": 60, "photo_title": "Volareeee oh oh", "latitude": 45.789073, "owner_url": "http://www.panoramio.com/user/56088", "photo_url": "http://www.panoramio.com/photo/104984316", "photo_file_url": "http://mw2.google.com/mw-panoramio/photos/square/104984316.jpg", "owner_id": 56088}, {"upload_date": "22 April 2014", "owner_name": "emil sluga", "photo_id": 106002405, "longitude": 14.36102, "height": 60, "width": 60, "photo_title": "sunken lawn", "latitude": 45.766566, "owner_url": "http://www.panoramio.com/user/8054682", "photo_url": "http://www.panoramio.com/photo/106002405", "photo_file_url": "http://mw2.google.com/mw-panoramio/photos/square/106002405.jpg", "owner_id": 8054682}, {"upload_date": "22 April 2014", "owner_name": "emil sluga", "photo_id": 105998069, "longitude": 14.426594, "height": 60, "width": 60, "photo_title": "village in the valley", "latitude": 45.759978, "owner_url": "http://www.panoramio.com/user/8054682", "photo_url": "http://www.panoramio.com/photo/105998069", "photo_file_url": "http://mw2.google.com/mw-panoramio/photos/square/105998069.jpg", "owner_id": 8054682}, {"upload_date": "15 November 2013", "owner_name": "silmar01", "photo_id": 99296739, "longitude": 14.362296, "height": 60, "width": 60, "photo_title": "Dolenje Jezero", "latitude": 45.773809, "owner_url": "http://www.panoramio.com/user/5126821", "photo_url": "http://www.panoramio.com/photo/99296739", "photo_file_url": "http://mw2.google.com/mw-panoramio/photos/square/99296739.jpg", "owner_id": 5126821}, {"upload_date": "28 January 2012", "owner_name": "aviana2", "photo_id": 65676823, "longitude": 14.357838, "height": 60, "width": 60, "photo_title": "Early morning, Cerknica lake, Slovenia", "latitude": 45.770711, "owner_url": "http://www.panoramio.com/user/2362194", "photo_url": "http://www.panoramio.com/photo/65676823", "photo_file_url": "http://mw2.google.com/mw-panoramio/photos/square/65676823.jpg", "owner_id": 2362194}, {"upload_date": "18 June 2008", "owner_name": "delozei", "photo_id": 11326425, "longitude": 14.361534, "height": 60, "width": 60, "photo_title": "Cerknica", "latitude": 45.758901, "owner_url": "http://www.panoramio.com/user/1153509", "photo_url": "http://www.panoramio.com/photo/11326425", "photo_file_url": "http://mw2.google.com/mw-panoramio/photos/square/11326425.jpg", "owner_id": 1153509}, {"upload_date": "25 March 2011", "owner_name": "charli_1", "photo_id": 50005379, "longitude": 14.362194, "height": 60, "width": 60, "photo_title": "Karneval v Cerknici 2011 5", "latitude": 45.795437, "owner_url": "http://www.panoramio.com/user/2488052", "photo_url": "http://www.panoramio.com/photo/50005379", "photo_file_url": "http://mw2.google.com/mw-panoramio/photos/square/50005379.jpg", "owner_id": 2488052}, {"upload_date": "02 November 2009", "owner_name": "lovro67", "photo_id": 28447044, "longitude": 14.407690000000002, "height": 60, "width": 60, "photo_title": "Cerkni\u0161ko jezero jeseni", "latitude": 45.725431, "owner_url": "http://www.panoramio.com/user/1322918", "photo_url": "http://www.panoramio.com/photo/28447044", "photo_file_url": "http://mw2.google.com/mw-panoramio/photos/square/28447044.jpg", "owner_id": 1322918}, {"upload_date": "17 July 2010", "owner_name": "Xellos", "photo_id": 38033817, "longitude": 14.374236999999994, "height": 60, "width": 60, "photo_title": "Na poti na Otok", "latitude": 45.73674, "owner_url": "http://www.panoramio.com/user/4731671", "photo_url": "http://www.panoramio.com/photo/38033817", "photo_file_url": "http://mw2.google.com/mw-panoramio/photos/square/38033817.jpg", "owner_id": 4731671}, {"upload_date": "04 September 2013", "owner_name": "silmar01", "photo_id": 95720415, "longitude": 14.364538, "height": 60, "width": 60, "photo_title": "Lep pogled na jezero Crknica in  reka Str\u017eena", "latitude": 45.738088, "owner_url": "http://www.panoramio.com/user/5126821", "photo_url": "http://www.panoramio.com/photo/95720415", "photo_file_url": "http://mw2.google.com/mw-panoramio/photos/square/95720415.jpg", "owner_id": 5126821}, {"upload_date": "04 September 2013", "owner_name": "silmar01", "photo_id": 95720495, "longitude": 14.356596, "height": 60, "width": 60, "photo_title": "Inghiottitoio (particolare)", "latitude": 45.768874, "owner_url": "http://www.panoramio.com/user/5126821", "photo_url": "http://www.panoramio.com/photo/95720495", "photo_file_url": "http://mw2.google.com/mw-panoramio/photos/square/95720495.jpg", "owner_id": 5126821}, {"upload_date": "30 December 2007", "owner_name": "Omladic", "photo_id": 6772100, "longitude": 14.364195, "height": 60, "width": 60, "photo_title": "Cerkni\u0161ko jezero", "latitude": 45.753571, "owner_url": "http://www.panoramio.com/user/1212508", "photo_url": "http://www.panoramio.com/photo/6772100", "photo_file_url": "http://mw2.google.com/mw-panoramio/photos/square/6772100.jpg", "owner_id": 1212508}, {"upload_date": "03 February 2007", "owner_name": "geraut", "photo_id": 667922, "longitude": 14.363422, "height": 60, "width": 60, "photo_title": "Cerkni\u0161ko jezero", "latitude": 45.761595, "owner_url": "http://www.panoramio.com/user/143979", "photo_url": "http://www.panoramio.com/photo/667922", "photo_file_url": "http://mw2.google.com/mw-panoramio/photos/square/667922.jpg", "owner_id": 143979}, {"upload_date": "01 August 2013", "owner_name": "Rudi Majerle", "photo_id": 94014583, "longitude": 14.4038152, "height": 60, "width": 60, "photo_title": "Slivnica - pogled na Cerkni\u0161ko jezero", "latitude": 45.7897833, "owner_url": "http://www.panoramio.com/user/7367492", "photo_url": "http://www.panoramio.com/photo/94014583", "photo_file_url": "http://mw2.google.com/mw-panoramio/photos/square/94014583.jpg", "owner_id": 7367492}, {"upload_date": "03 February 2007", "owner_name": "geraut", "photo_id": 667883, "longitude": 14.375095, "height": 60, "width": 60, "photo_title": "Pri Lip'ci na Cerkni\u0161kem polju", "latitude": 45.776743, "owner_url": "http://www.panoramio.com/user/143979", "photo_url": "http://www.panoramio.com/photo/667883", "photo_file_url": "http://mw2.google.com/mw-panoramio/photos/square/667883.jpg", "owner_id": 143979}, {"upload_date": "09 April 2007", "owner_name": "urosz", "photo_id": 1704455, "longitude": 14.395866, "height": 60, "width": 60, "photo_title": "na slivnico", "latitude": 45.783567, "owner_url": "http://www.panoramio.com/user/360084", "photo_url": "http://www.panoramio.com/photo/1704455", "photo_file_url": "http://mw2.google.com/mw-panoramio/photos/square/1704455.jpg", "owner_id": 360084}, {"upload_date": "10 October 2007", "owner_name": "Kosta_Ljuboja", "photo_id": 5217811, "longitude": 14.352694, "height": 60, "width": 60, "photo_title": "View from frozen lake to Slivnica", "latitude": 45.765607, "owner_url": "http://www.panoramio.com/user/665813", "photo_url": "http://www.panoramio.com/photo/5217811", "photo_file_url": "http://mw2.google.com/mw-panoramio/photos/square/5217811.jpg", "owner_id": 665813}, {"upload_date": "03 February 2007", "owner_name": "geraut", "photo_id": 667918, "longitude": 14.382477, "height": 60, "width": 60, "photo_title": "pogled na Cerknico s Slivnice", "latitude": 45.793023, "owner_url": "http://www.panoramio.com/user/143979", "photo_url": "http://www.panoramio.com/photo/667918", "photo_file_url": "http://mw2.google.com/mw-panoramio/photos/square/667918.jpg", "owner_id": 143979}, {"upload_date": "14 October 2012", "owner_name": "Ilpo Ruissalo", "photo_id": 80536844, "longitude": 14.378478, "height": 60, "width": 60, "photo_title": "Wilderness in Lake Cerknica", "latitude": 45.73967, "owner_url": "http://www.panoramio.com/user/548182", "photo_url": "http://www.panoramio.com/photo/80536844", "photo_file_url": "http://mw2.google.com/mw-panoramio/photos/square/80536844.jpg", "owner_id": 548182}, {"upload_date": "06 July 2009", "owner_name": "Rick Fowler", "photo_id": 24191882, "longitude": 14.356127, "height": 60, "width": 60, "photo_title": "View of Cerknica, Slovenia", "latitude": 45.774468, "owner_url": "http://www.panoramio.com/user/1401105", "photo_url": "http://www.panoramio.com/photo/24191882", "photo_file_url": "http://mw2.google.com/mw-panoramio/photos/square/24191882.jpg", "owner_id": 1401105}, {"upload_date": "14 September 2009", "owner_name": "s_nikonov", "photo_id": 26829236, "longitude": 14.434302, "height": 60, "width": 60, "photo_title": "Welcome! Milena&Stanislav", "latitude": 45.762475, "owner_url": "http://www.panoramio.com/user/2414107", "photo_url": "http://www.panoramio.com/photo/26829236", "photo_file_url": "http://mw2.google.com/mw-panoramio/photos/square/26829236.jpg", "owner_id": 2414107}, {"upload_date": "31 January 2010", "owner_name": "kristic007", "photo_id": 31647954, "longitude": 14.356604000000004, "height": 60, "width": 60, "photo_title": "pogled na javornike", "latitude": 45.795499, "owner_url": "http://www.panoramio.com/user/4122498", "photo_url": "http://www.panoramio.com/photo/31647954", "photo_file_url": "http://mw2.google.com/mw-panoramio/photos/square/31647954.jpg", "owner_id": 4122498}, {"upload_date": "18 May 2014", "owner_name": "delozei", "photo_id": 107099645, "longitude": 14.386554, "height": 60, "width": 60, "photo_title": "CERKNICA", "latitude": 45.778636, "owner_url": "http://www.panoramio.com/user/1153509", "photo_url": "http://www.panoramio.com/photo/107099645", "photo_file_url": "http://mw2.google.com/mw-panoramio/photos/square/107099645.jpg", "owner_id": 1153509}, {"upload_date": "03 March 2007", "owner_name": "jozeg", "photo_id": 1148384, "longitude": 14.398613, "height": 60, "width": 60, "photo_title": "Cerknisko jezero", "latitude": 45.765367, "owner_url": "http://www.panoramio.com/user/237690", "photo_url": "http://www.panoramio.com/photo/1148384", "photo_file_url": "http://mw2.google.com/mw-panoramio/photos/square/1148384.jpg", "owner_id": 237690}, {"upload_date": "24 March 2013", "owner_name": "hanepu2", "photo_id": 87818213, "longitude": 14.407711, "height": 60, "width": 60, "photo_title": "seasonal Lake Cerknica  4", "latitude": 45.719724, "owner_url": "http://www.panoramio.com/user/6680627", "photo_url": "http://www.panoramio.com/photo/87818213", "photo_file_url": "http://mw2.google.com/mw-panoramio/photos/square/87818213.jpg", "owner_id": 6680627}, {"upload_date": "24 March 2013", "owner_name": "hanepu2", "photo_id": 87818130, "longitude": 14.41535, "height": 60, "width": 60, "photo_title": "seasonal Lake Cerknica  1", "latitude": 45.738088, "owner_url": "http://www.panoramio.com/user/6680627", "photo_url": "http://www.panoramio.com/photo/87818130", "photo_file_url": "http://mw2.google.com/mw-panoramio/photos/square/87818130.jpg", "owner_id": 6680627}, {"upload_date": "29 March 2010", "owner_name": "Dare Birsa", "photo_id": 33743411, "longitude": 14.365310999999991, "height": 60, "width": 60, "photo_title": "on Cerknica Lake / ob Cerkni\u0161kem jezeru", "latitude": 45.734583, "owner_url": "http://www.panoramio.com/user/3538772", "photo_url": "http://www.panoramio.com/photo/33743411", "photo_file_url": "http://mw2.google.com/mw-panoramio/photos/square/33743411.jpg", "owner_id": 3538772}, {"upload_date": "27 January 2011", "owner_name": "kristofistinic", "photo_id": 47193168, "longitude": 14.393013, "height": 60, "width": 60, "photo_title": "C.jezero- proti Lipsenju", "latitude": 45.742745, "owner_url": "http://www.panoramio.com/user/4094890", "photo_url": "http://www.panoramio.com/photo/47193168", "photo_file_url": "http://mw2.google.com/mw-panoramio/photos/square/47193168.jpg", "owner_id": 4094890}, {"upload_date": "27 January 2011", "owner_name": "kristofistinic", "photo_id": 47193219, "longitude": 14.376812000000001, "height": 60, "width": 60, "photo_title": "C.jezero- javorniki", "latitude": 45.75411, "owner_url": "http://www.panoramio.com/user/4094890", "photo_url": "http://www.panoramio.com/photo/47193219", "photo_file_url": "http://mw2.google.com/mw-panoramio/photos/square/47193219.jpg", "owner_id": 4094890}, {"upload_date": "27 January 2011", "owner_name": "kristofistinic", "photo_id": 47193148, "longitude": 14.397669, "height": 60, "width": 60, "photo_title": "C.jezero- Javorniki", "latitude": 45.73337, "owner_url": "http://www.panoramio.com/user/4094890", "photo_url": "http://www.panoramio.com/photo/47193148", "photo_file_url": "http://mw2.google.com/mw-panoramio/photos/square/47193148.jpg", "owner_id": 4094890}, {"upload_date": "27 January 2011", "owner_name": "kristofistinic", "photo_id": 47193206, "longitude": 14.370139, "height": 60, "width": 60, "photo_title": "C. jezero-pogled proti Cerknici", "latitude": 45.75655, "owner_url": "http://www.panoramio.com/user/4094890", "photo_url": "http://www.panoramio.com/photo/47193206", "photo_file_url": "http://mw2.google.com/mw-panoramio/photos/square/47193206.jpg", "owner_id": 4094890}, {"upload_date": "05 February 2012", "owner_name": "primoz_5", "photo_id": 66183953, "longitude": 14.383001, "height": 60, "width": 60, "photo_title": "Suho Cerkni\u0161ko jezero - Dry Cerknica lake", "latitude": 45.753053, "owner_url": "http://www.panoramio.com/user/3203431", "photo_url": "http://www.panoramio.com/photo/66183953", "photo_file_url": "http://mw2.google.com/mw-panoramio/photos/square/66183953.jpg", "owner_id": 3203431}, {"upload_date": "18 December 2010", "owner_name": "Bojc", "photo_id": 45216207, "longitude": 14.4125118, "height": 60, "width": 60, "photo_title": "Sne\u017enik z Notranjske", "latitude": 45.773478, "owner_url": "http://www.panoramio.com/user/5310716", "photo_url": "http://www.panoramio.com/photo/45216207", "photo_file_url": "http://mw2.google.com/mw-panoramio/photos/square/45216207.jpg", "owner_id": 5310716}, {"upload_date": "21 July 2011", "owner_name": "trulpagat", "photo_id": 56079577, "longitude": 14.360912000000013, "height": 60, "width": 60, "photo_title": "Cerknica", "latitude": 45.789058, "owner_url": "http://www.panoramio.com/user/5345848", "photo_url": "http://www.panoramio.com/photo/56079577", "photo_file_url": "http://mw2.google.com/mw-panoramio/photos/square/56079577.jpg", "owner_id": 5345848}, {"upload_date": "03 December 2012", "owner_name": "Gregc", "photo_id": 82946137, "longitude": 14.402119, "height": 60, "width": 60, "photo_title": "2009", "latitude": 45.77614, "owner_url": "http://www.panoramio.com/user/2795830", "photo_url": "http://www.panoramio.com/photo/82946137", "photo_file_url": "http://mw2.google.com/mw-panoramio/photos/square/82946137.jpg", "owner_id": 2795830}, {"upload_date": "02 September 2010", "owner_name": "peter_fg", "photo_id": 40188833, "longitude": 14.3570709229, "height": 60, "width": 60, "photo_title": "Lakebed of the Cerknica polje", "latitude": 45.7695579529, "owner_url": "http://www.panoramio.com/user/191868", "photo_url": "http://www.panoramio.com/photo/40188833", "photo_file_url": "http://mw2.google.com/mw-panoramio/photos/square/40188833.jpg", "owner_id": 191868}, {"upload_date": "25 January 2009", "owner_name": "lovro67", "photo_id": 18182101, "longitude": 14.402786, "height": 60, "width": 60, "photo_title": "Cerknica lake 6", "latitude": 45.725192, "owner_url": "http://www.panoramio.com/user/1322918", "photo_url": "http://www.panoramio.com/photo/18182101", "photo_file_url": "http://mw2.google.com/mw-panoramio/photos/square/18182101.jpg", "owner_id": 1322918}, {"upload_date": "25 June 2012", "owner_name": "alukasev", "photo_id": 74340639, "longitude": 14.362462, "height": 60, "width": 60, "photo_title": "tabor CERKNICA", "latitude": 45.796309, "owner_url": "http://www.panoramio.com/user/6193110", "photo_url": "http://www.panoramio.com/photo/74340639", "photo_file_url": "http://mw2.google.com/mw-panoramio/photos/square/74340639.jpg", "owner_id": 6193110}, {"upload_date": "16 August 2007", "owner_name": "ajgor", "photo_id": 3971604, "longitude": 14.360939, "height": 60, "width": 60, "photo_title": "System of swallow holes at the bottom of the vanished lake (Cerkni\u0161ko jezero)", "latitude": 45.763006, "owner_url": "http://www.panoramio.com/user/747305", "photo_url": "http://www.panoramio.com/photo/3971604", "photo_file_url": "http://mw2.google.com/mw-panoramio/photos/square/3971604.jpg", "owner_id": 747305}, {"upload_date": "06 September 2007", "owner_name": "Martin Krpan", "photo_id": 4460279, "longitude": 14.365654, "height": 60, "width": 60, "photo_title": "Cerknica lake-winter time", "latitude": 45.762733, "owner_url": "http://www.panoramio.com/user/874743", "photo_url": "http://www.panoramio.com/photo/4460279", "photo_file_url": "http://mw2.google.com/mw-panoramio/photos/square/4460279.jpg", "owner_id": 874743}, {"upload_date": "06 July 2009", "owner_name": "Rick Fowler", "photo_id": 24191954, "longitude": 14.362564, "height": 60, "width": 60, "photo_title": "Swallow holes in Lake Cerknica", "latitude": 45.765787, "owner_url": "http://www.panoramio.com/user/1401105", "photo_url": "http://www.panoramio.com/photo/24191954", "photo_file_url": "http://mw2.google.com/mw-panoramio/photos/square/24191954.jpg", "owner_id": 1401105}, {"upload_date": "17 July 2010", "owner_name": "Xellos", "photo_id": 38033823, "longitude": 14.361534000000006, "height": 60, "width": 60, "photo_title": "Rekreacija na jezeru", "latitude": 45.771714, "owner_url": "http://www.panoramio.com/user/4731671", "photo_url": "http://www.panoramio.com/photo/38033823", "photo_file_url": "http://mw2.google.com/mw-panoramio/photos/square/38033823.jpg", "owner_id": 4731671}, {"upload_date": "17 July 2010", "owner_name": "Xellos", "photo_id": 38033814, "longitude": 14.362907000000007, "height": 60, "width": 60, "photo_title": "Pogled na Slivnico", "latitude": 45.755547, "owner_url": "http://www.panoramio.com/user/4731671", "photo_url": "http://www.panoramio.com/photo/38033814", "photo_file_url": "http://mw2.google.com/mw-panoramio/photos/square/38033814.jpg", "owner_id": 4731671}, {"upload_date": "17 July 2010", "owner_name": "Xellos", "photo_id": 38033826, "longitude": 14.361876999999993, "height": 60, "width": 60, "photo_title": "Jezero junija", "latitude": 45.770636, "owner_url": "http://www.panoramio.com/user/4731671", "photo_url": "http://www.panoramio.com/photo/38033826", "photo_file_url": "http://mw2.google.com/mw-panoramio/photos/square/38033826.jpg", "owner_id": 4731671}, {"upload_date": "03 February 2007", "owner_name": "geraut", "photo_id": 667877, "longitude": 14.404106, "height": 60, "width": 60, "photo_title": "Cerknica Panorama", "latitude": 45.72296, "owner_url": "http://www.panoramio.com/user/143979", "photo_url": "http://www.panoramio.com/photo/667877", "photo_file_url": "http://mw2.google.com/mw-panoramio/photos/square/667877.jpg", "owner_id": 143979}, {"upload_date": "05 September 2010", "owner_name": "Andrea Tarozzi", "photo_id": 40353102, "longitude": 14.380674, "height": 60, "width": 60, "photo_title": "Cerkni\u0161ko jezero (lago di Circonio)", "latitude": 45.730988, "owner_url": "http://www.panoramio.com/user/1285394", "photo_url": "http://www.panoramio.com/photo/40353102", "photo_file_url": "http://mw2.google.com/mw-panoramio/photos/square/40353102.jpg", "owner_id": 1285394}, {"upload_date": "11 August 2008", "owner_name": "matjazdov", "photo_id": 13007998, "longitude": 14.408312, "height": 60, "width": 60, "photo_title": "Coprni\u0161ka jama (cave), Slivnica", "latitude": 45.787771, "owner_url": "http://www.panoramio.com/user/847216", "photo_url": "http://www.panoramio.com/photo/13007998", "photo_file_url": "http://mw2.google.com/mw-panoramio/photos/square/13007998.jpg", "owner_id": 847216}, {"upload_date": "06 January 2008", "owner_name": "Kosta_Ljuboja", "photo_id": 6932035, "longitude": 14.353123, "height": 60, "width": 60, "photo_title": "Cerkni\u0161ko jezero proti Javornikom", "latitude": 45.768122, "owner_url": "http://www.panoramio.com/user/665813", "photo_url": "http://www.panoramio.com/photo/6932035", "photo_file_url": "http://mw2.google.com/mw-panoramio/photos/square/6932035.jpg", "owner_id": 665813}, {"upload_date": "11 August 2008", "owner_name": "matjazdov", "photo_id": 13008051, "longitude": 14.394407, "height": 60, "width": 60, "photo_title": "Panorama Cerkni\u0161kega polja", "latitude": 45.792185, "owner_url": "http://www.panoramio.com/user/847216", "photo_url": "http://www.panoramio.com/photo/13008051", "photo_file_url": "http://mw2.google.com/mw-panoramio/photos/square/13008051.jpg", "owner_id": 847216}, {"upload_date": "11 August 2008", "owner_name": "matjazdov", "photo_id": 13008122, "longitude": 14.352382, "height": 60, "width": 60, "photo_title": "Ponorna jama Suhadolca, Cerkni\u0161ko jezero", "latitude": 45.764814, "owner_url": "http://www.panoramio.com/user/847216", "photo_url": "http://www.panoramio.com/photo/13008122", "photo_file_url": "http://mw2.google.com/mw-panoramio/photos/square/13008122.jpg", "owner_id": 847216}, {"upload_date": "11 August 2008", "owner_name": "matjazdov", "photo_id": 13008101, "longitude": 14.365911, "height": 60, "width": 60, "photo_title": "Veslanje po Cerkni\u0161kem jezeru", "latitude": 45.75896, "owner_url": "http://www.panoramio.com/user/847216", "photo_url": "http://www.panoramio.com/photo/13008101", "photo_file_url": "http://mw2.google.com/mw-panoramio/photos/square/13008101.jpg", "owner_id": 847216}, {"upload_date": "24 March 2013", "owner_name": "hanepu2", "photo_id": 87818248, "longitude": 14.376855, "height": 60, "width": 60, "photo_title": "seasonal Lake Cerknica  6", "latitude": 45.72973, "owner_url": "http://www.panoramio.com/user/6680627", "photo_url": "http://www.panoramio.com/photo/87818248", "photo_file_url": "http://mw2.google.com/mw-panoramio/photos/square/87818248.jpg", "owner_id": 6680627}, {"upload_date": "13 July 2010", "owner_name": "Admin", "photo_id": 37853959, "longitude": 14.36614800000001, "height": 60, "width": 60, "photo_title": "Brest Pohi\u0161tvo d.o.o.", "latitude": 45.793528, "owner_url": "http://www.panoramio.com/user/4714784", "photo_url": "http://www.panoramio.com/photo/37853959", "photo_file_url": "http://mw2.google.com/mw-panoramio/photos/square/37853959.jpg", "owner_id": 4714784}, {"upload_date": "14 April 2013", "owner_name": "why 137", "photo_id": 88797456, "longitude": 14.403457, "height": 60, "width": 60, "photo_title": "Laze pri Gorenjem Jezeru ", "latitude": 45.726534, "owner_url": "http://www.panoramio.com/user/7613206", "photo_url": "http://www.panoramio.com/photo/88797456", "photo_file_url": "http://mw2.google.com/mw-panoramio/photos/square/88797456.jpg", "owner_id": 7613206}, {"upload_date": "08 January 2009", "owner_name": "carniola", "photo_id": 17607597, "longitude": 14.410629, "height": 60, "width": 60, "photo_title": "zima na Slivnici", "latitude": 45.790031, "owner_url": "http://www.panoramio.com/user/1877103", "photo_url": "http://www.panoramio.com/photo/17607597", "photo_file_url": "http://mw2.google.com/mw-panoramio/photos/square/17607597.jpg", "owner_id": 1877103}, {"upload_date": "05 June 2009", "owner_name": "boris \u017eupan\u010di\u010d", "photo_id": 23100082, "longitude": 14.359818, "height": 60, "width": 60, "photo_title": "Cerkni\u0161ko presihajo\u010de jezero", "latitude": 45.760817, "owner_url": "http://www.panoramio.com/user/1381983", "photo_url": "http://www.panoramio.com/photo/23100082", "photo_file_url": "http://mw2.google.com/mw-panoramio/photos/square/23100082.jpg", "owner_id": 1381983}, {"upload_date": "11 August 2008", "owner_name": "matjazdov", "photo_id": 13008035, "longitude": 14.359238, "height": 60, "width": 60, "photo_title": "Zavoj Str\u017eena (turn of river Str\u017een)", "latitude": 45.765517, "owner_url": "http://www.panoramio.com/user/847216", "photo_url": "http://www.panoramio.com/photo/13008035", "photo_file_url": "http://mw2.google.com/mw-panoramio/photos/square/13008035.jpg", "owner_id": 847216}, {"upload_date": "20 April 2009", "owner_name": "pmepme", "photo_id": 21424005, "longitude": 14.35883, "height": 60, "width": 60, "photo_title": "Famous Carneval", "latitude": 45.794699, "owner_url": "http://www.panoramio.com/user/3118705", "photo_url": "http://www.panoramio.com/photo/21424005", "photo_file_url": "http://mw2.google.com/mw-panoramio/photos/square/21424005.jpg", "owner_id": 3118705}, {"upload_date": "08 January 2009", "owner_name": "carniola", "photo_id": 17607669, "longitude": 14.409513, "height": 60, "width": 60, "photo_title": "zima na Slivnici II.", "latitude": 45.790629, "owner_url": "http://www.panoramio.com/user/1877103", "photo_url": "http://www.panoramio.com/photo/17607669", "photo_file_url": "http://mw2.google.com/mw-panoramio/photos/square/17607669.jpg", "owner_id": 1877103}, {"upload_date": "16 January 2008", "owner_name": "goran veselinovi\u010d", "photo_id": 7161202, "longitude": 14.35544, "height": 60, "width": 60, "photo_title": "jezero poleti", "latitude": 45.764799, "owner_url": "http://www.panoramio.com/user/1209886", "photo_url": "http://www.panoramio.com/photo/7161202", "photo_file_url": "http://mw2.google.com/mw-panoramio/photos/square/7161202.jpg", "owner_id": 1209886}, {"upload_date": "27 December 2007", "owner_name": "Zoran Vidrih", "photo_id": 6719287, "longitude": 14.340591, "height": 60, "width": 60, "photo_title": "Cerknica - pogled z Javornika", "latitude": 45.765607, "owner_url": "http://www.panoramio.com/user/1226544", "photo_url": "http://www.panoramio.com/photo/6719287", "photo_file_url": "http://mw2.google.com/mw-panoramio/photos/square/6719287.jpg", "owner_id": 1226544}, {"upload_date": "14 September 2009", "owner_name": "s_nikonov", "photo_id": 26829591, "longitude": 14.328285, "height": 60, "width": 60, "photo_title": "Kirche", "latitude": 45.793247, "owner_url": "http://www.panoramio.com/user/2414107", "photo_url": "http://www.panoramio.com/photo/26829591", "photo_file_url": "http://mw2.google.com/mw-panoramio/photos/square/26829591.jpg", "owner_id": 2414107}, {"upload_date": "11 August 2008", "owner_name": "matjazdov", "photo_id": 13007893, "longitude": 14.360504, "height": 60, "width": 60, "photo_title": "Ribi\u0161ki kot, Cerkni\u0161ko jezero", "latitude": 45.762074, "owner_url": "http://www.panoramio.com/user/847216", "photo_url": "http://www.panoramio.com/photo/13007893", "photo_file_url": "http://mw2.google.com/mw-panoramio/photos/square/13007893.jpg", "owner_id": 847216}, {"upload_date": "01 March 2010", "owner_name": "B.Hutter", "photo_id": 32756705, "longitude": 14.402690000000007, "height": 60, "width": 60, "photo_title": "Slivnica in winter", "latitude": 45.791946, "owner_url": "http://www.panoramio.com/user/269035", "photo_url": "http://www.panoramio.com/photo/32756705", "photo_file_url": "http://mw2.google.com/mw-panoramio/photos/square/32756705.jpg", "owner_id": 269035}, {"upload_date": "08 July 2009", "owner_name": "tola120556", "photo_id": 24249470, "longitude": 14.432774, "height": 60, "width": 60, "photo_title": "Ve\u010der nad cerkni\u0161kim jezerom", "latitude": 45.763092, "owner_url": "http://www.panoramio.com/user/3118429", "photo_url": "http://www.panoramio.com/photo/24249470", "photo_file_url": "http://mw2.google.com/mw-panoramio/photos/square/24249470.jpg", "owner_id": 3118429}, {"upload_date": "01 March 2010", "owner_name": "B.Hutter", "photo_id": 32756712, "longitude": 14.407195999999999, "height": 60, "width": 60, "photo_title": "Iz Slivnice", "latitude": 45.7941, "owner_url": "http://www.panoramio.com/user/269035", "photo_url": "http://www.panoramio.com/photo/32756712", "photo_file_url": "http://mw2.google.com/mw-panoramio/photos/square/32756712.jpg", "owner_id": 269035}, {"upload_date": "27 January 2011", "owner_name": "kristofistinic", "photo_id": 47192595, "longitude": 14.328004, "height": 60, "width": 60, "photo_title": "Cerkn. jezero- hi\u0161ka", "latitude": 45.771665, "owner_url": "http://www.panoramio.com/user/4094890", "photo_url": "http://www.panoramio.com/photo/47192595", "photo_file_url": "http://mw2.google.com/mw-panoramio/photos/square/47192595.jpg", "owner_id": 4094890}, {"upload_date": "16 October 2009", "owner_name": "JasminaV", "photo_id": 27909352, "longitude": 14.373035, "height": 60, "width": 60, "photo_title": "Church in Caorle", "latitude": 45.738836, "owner_url": "http://www.panoramio.com/user/3563712", "photo_url": "http://www.panoramio.com/photo/27909352", "photo_file_url": "http://mw2.google.com/mw-panoramio/photos/square/27909352.jpg", "owner_id": 3563712}, {"upload_date": "27 January 2011", "owner_name": "kristofistinic", "photo_id": 47192582, "longitude": 14.348230000000001, "height": 60, "width": 60, "photo_title": "Cerkn. jezero- pogled proti Cerknici", "latitude": 45.770127, "owner_url": "http://www.panoramio.com/user/4094890", "photo_url": "http://www.panoramio.com/photo/47192582", "photo_file_url": "http://mw2.google.com/mw-panoramio/photos/square/47192582.jpg", "owner_id": 4094890}, {"upload_date": "27 January 2011", "owner_name": "kristofistinic", "photo_id": 47193156, "longitude": 14.392573, "height": 60, "width": 60, "photo_title": "C. jezero- Slivnica", "latitude": 45.739825, "owner_url": "http://www.panoramio.com/user/4094890", "photo_url": "http://www.panoramio.com/photo/47193156", "photo_file_url": "http://mw2.google.com/mw-panoramio/photos/square/47193156.jpg", "owner_id": 4094890}, {"upload_date": "27 January 2011", "owner_name": "kristofistinic", "photo_id": 47193182, "longitude": 14.372435, "height": 60, "width": 60, "photo_title": "C.jezero- pogled proti JV", "latitude": 45.753032, "owner_url": "http://www.panoramio.com/user/4094890", "photo_url": "http://www.panoramio.com/photo/47193182", "photo_file_url": "http://mw2.google.com/mw-panoramio/photos/square/47193182.jpg", "owner_id": 4094890}, {"upload_date": "03 March 2010", "owner_name": "JerinaM", "photo_id": 32821837, "longitude": 14.361770000000007, "height": 60, "width": 60, "photo_title": "Cerkni\u0161ko  jezero", "latitude": 45.763886, "owner_url": "http://www.panoramio.com/user/2005610", "photo_url": "http://www.panoramio.com/photo/32821837", "photo_file_url": "http://mw2.google.com/mw-panoramio/photos/square/32821837.jpg", "owner_id": 2005610}, {"upload_date": "11 September 2009", "owner_name": "Dare Birsa", "photo_id": 26705193, "longitude": 14.361877, "height": 60, "width": 60, "photo_title": "Cerkni\u0161ko jezero", "latitude": 45.755308, "owner_url": "http://www.panoramio.com/user/3538772", "photo_url": "http://www.panoramio.com/photo/26705193", "photo_file_url": "http://mw2.google.com/mw-panoramio/photos/square/26705193.jpg", "owner_id": 3538772}, {"upload_date": "18 February 2010", "owner_name": "jnzzbkvc@gmail.com", "photo_id": 32305382, "longitude": 14.363878, "height": 60, "width": 60, "photo_title": "Slivnica z Gori\u010dice", "latitude": 45.76408, "owner_url": "http://www.panoramio.com/user/3549985", "photo_url": "http://www.panoramio.com/photo/32305382", "photo_file_url": "http://mw2.google.com/mw-panoramio/photos/square/32305382.jpg", "owner_id": 3549985}, {"upload_date": "21 May 2011", "owner_name": "PetraS", "photo_id": 53021740, "longitude": 14.406531000000001, "height": 60, "width": 60, "photo_title": "a Perfect Willow tree", "latitude": 45.728292, "owner_url": "http://www.panoramio.com/user/5606628", "photo_url": "http://www.panoramio.com/photo/53021740", "photo_file_url": "http://mw2.google.com/mw-panoramio/photos/square/53021740.jpg", "owner_id": 5606628}, {"upload_date": "17 July 2011", "owner_name": "trulpagat", "photo_id": 55826342, "longitude": 14.360219999999998, "height": 60, "width": 60, "photo_title": "Cesta 4. maja", "latitude": 45.794201, "owner_url": "http://www.panoramio.com/user/5345848", "photo_url": "http://www.panoramio.com/photo/55826342", "photo_file_url": "http://mw2.google.com/mw-panoramio/photos/square/55826342.jpg", "owner_id": 5345848}, {"upload_date": "21 May 2011", "owner_name": "PetraS", "photo_id": 53021204, "longitude": 14.353509000000003, "height": 60, "width": 60, "photo_title": "Secret sacred place", "latitude": 45.76899, "owner_url": "http://www.panoramio.com/user/5606628", "photo_url": "http://www.panoramio.com/photo/53021204", "photo_file_url": "http://mw2.google.com/mw-panoramio/photos/square/53021204.jpg", "owner_id": 5606628}, {"upload_date": "17 July 2011", "owner_name": "trulpagat", "photo_id": 55832166, "longitude": 14.364891999999998, "height": 60, "width": 60, "photo_title": "Cesta 4. maja", "latitude": 45.793113, "owner_url": "http://www.panoramio.com/user/5345848", "photo_url": "http://www.panoramio.com/photo/55832166", "photo_file_url": "http://mw2.google.com/mw-panoramio/photos/square/55832166.jpg", "owner_id": 5345848}, {"upload_date": "14 November 2011", "owner_name": "stanez", "photo_id": 62157400, "longitude": 14.407893, "height": 60, "width": 60, "photo_title": "Vrh Slivnice", "latitude": 45.790038, "owner_url": "http://www.panoramio.com/user/3367875", "photo_url": "http://www.panoramio.com/photo/62157400", "photo_file_url": "http://mw2.google.com/mw-panoramio/photos/square/62157400.jpg", "owner_id": 3367875}, {"upload_date": "17 July 2011", "owner_name": "trulpagat", "photo_id": 55834581, "longitude": 14.363765999999998, "height": 60, "width": 60, "photo_title": "Ulica 4. maja", "latitude": 45.793442, "owner_url": "http://www.panoramio.com/user/5345848", "photo_url": "http://www.panoramio.com/photo/55834581", "photo_file_url": "http://mw2.google.com/mw-panoramio/photos/square/55834581.jpg", "owner_id": 5345848}, {"upload_date": "17 July 2011", "owner_name": "trulpagat", "photo_id": 55834531, "longitude": 14.363936999999993, "height": 60, "width": 60, "photo_title": "Gerbi\u010deva ulica", "latitude": 45.794385, "owner_url": "http://www.panoramio.com/user/5345848", "photo_url": "http://www.panoramio.com/photo/55834531", "photo_file_url": "http://mw2.google.com/mw-panoramio/photos/square/55834531.jpg", "owner_id": 5345848}, {"upload_date": "28 May 2012", "owner_name": "Sirius412", "photo_id": 72820269, "longitude": 14.353781, "height": 60, "width": 60, "photo_title": "Cerkni\u0161ko jezero", "latitude": 45.770337, "owner_url": "http://www.panoramio.com/user/5850566", "photo_url": "http://www.panoramio.com/photo/72820269", "photo_file_url": "http://mw2.google.com/mw-panoramio/photos/square/72820269.jpg", "owner_id": 5850566}, {"upload_date": "17 July 2011", "owner_name": "trulpagat", "photo_id": 55834184, "longitude": 14.363282999999996, "height": 60, "width": 60, "photo_title": "Tabor", "latitude": 45.795394, "owner_url": "http://www.panoramio.com/user/5345848", "photo_url": "http://www.panoramio.com/photo/55834184", "photo_file_url": "http://mw2.google.com/mw-panoramio/photos/square/55834184.jpg", "owner_id": 5345848}, {"upload_date": "14 November 2011", "owner_name": "stanez", "photo_id": 62157379, "longitude": 14.406853, "height": 60, "width": 60, "photo_title": "Triglav", "latitude": 45.791647, "owner_url": "http://www.panoramio.com/user/3367875", "photo_url": "http://www.panoramio.com/photo/62157379", "photo_file_url": "http://mw2.google.com/mw-panoramio/photos/square/62157379.jpg", "owner_id": 3367875}, {"upload_date": "28 May 2012", "owner_name": "Sirius412", "photo_id": 72820882, "longitude": 14.355059, "height": 60, "width": 60, "photo_title": "Cerkni\u0161ko jezero", "latitude": 45.763664, "owner_url": "http://www.panoramio.com/user/5850566", "photo_url": "http://www.panoramio.com/photo/72820882", "photo_file_url": "http://mw2.google.com/mw-panoramio/photos/square/72820882.jpg", "owner_id": 5850566}, {"upload_date": "08 June 2013", "owner_name": "hrsck70", "photo_id": 91479762, "longitude": 14.354324, "height": 60, "width": 60, "photo_title": "Cerkni\u0161ko Jezero agosto 2012", "latitude": 45.766954, "owner_url": "http://www.panoramio.com/user/7726608", "photo_url": "http://www.panoramio.com/photo/91479762", "photo_file_url": "http://mw2.google.com/mw-panoramio/photos/square/91479762.jpg", "owner_id": 7726608}, {"upload_date": "31 July 2014", "owner_name": "evaha", "photo_id": 109922788, "longitude": 14.360161, "height": 60, "width": 60, "photo_title": "Hi\u0161ke na plo\u0161\u010dadih", "latitude": 45.770981, "owner_url": "http://www.panoramio.com/user/8382620", "photo_url": "http://www.panoramio.com/photo/109922788", "photo_file_url": "http://mw2.google.com/mw-panoramio/photos/square/109922788.jpg", "owner_id": 8382620}, {"upload_date": "31 July 2014", "owner_name": "evaha", "photo_id": 109923474, "longitude": 14.359088, "height": 60, "width": 60, "photo_title": "Postaja 2", "latitude": 45.770082, "owner_url": "http://www.panoramio.com/user/8382620", "photo_url": "http://www.panoramio.com/photo/109923474", "photo_file_url": "http://mw2.google.com/mw-panoramio/photos/square/109923474.jpg", "owner_id": 8382620}, {"upload_date": "14 January 2014", "owner_name": "jezicnik", "photo_id": 101767868, "longitude": 14.35883, "height": 60, "width": 60, "photo_title": "Cerkni\u0161ko jezero (Cerknica lake)", "latitude": 45.76911, "owner_url": "http://www.panoramio.com/user/8017693", "photo_url": "http://www.panoramio.com/photo/101767868", "photo_file_url": "http://mw2.google.com/mw-panoramio/photos/square/101767868.jpg", "owner_id": 8017693}, {"upload_date": "31 July 2014", "owner_name": "evaha", "photo_id": 109923471, "longitude": 14.360161, "height": 60, "width": 60, "photo_title": "Postaja 1", "latitude": 45.769304, "owner_url": "http://www.panoramio.com/user/8382620", "photo_url": "http://www.panoramio.com/photo/109923471", "photo_file_url": "http://mw2.google.com/mw-panoramio/photos/square/109923471.jpg", "owner_id": 8382620}]}