{"count": 212, "has_more": true, "map_location": {"lat": 40.794836000000004, "panoramio_zoom": 6, "lon": 26.0394524652904}, "photos": [{"upload_date": "07 September 2010", "owner_name": "Christos Theodorou", "photo_id": 40435887, "place_id": "bd0c348472658efa22ba96dbbe166b876d1fca49", "longitude": 26.12478, "height": 60, "width": 60, "photo_title": "Evros, Delta - natural and national park", "latitude": 40.825712, "owner_url": "http://www.panoramio.com/user/4941785", "owner_id": 4941785, "photo_file_url": "http://mw2.google.com/mw-panoramio/photos/square/40435887.jpg", "photo_url": "http://www.panoramio.com/photo/40435887"}, {"upload_date": "07 September 2010", "owner_name": "Christos Theodorou", "photo_id": 40435785, "place_id": "bd0c348472658efa22ba96dbbe166b876d1fca49", "longitude": 26.100769, "height": 60, "width": 60, "photo_title": "Evros, Delta natural and national park", "latitude": 40.810171, "owner_url": "http://www.panoramio.com/user/4941785", "owner_id": 4941785, "photo_file_url": "http://mw2.google.com/mw-panoramio/photos/square/40435785.jpg", "photo_url": "http://www.panoramio.com/photo/40435785"}, {"upload_date": "16 June 2011", "owner_name": "xristos  dimadis", "photo_id": 54278273, "longitude": 26.036654, "height": 60, "width": 60, "photo_title": "\u0391\u03c1\u03b3\u03c5\u03c1\u03bf\u03c0\u03b5\u03bb\u03b5\u03ba\u03ac\u03bd\u03bf\u03c2 - pelecanus onocrotalus  \u03ba\u03b1\u03b9 \u03ba\u03bf\u03c1\u03bc\u03bf\u03c1\u03ac\u03bd\u03bf\u03b9", "latitude": 40.765019, "owner_url": "http://www.panoramio.com/user/1300119", "owner_id": 1300119, "photo_file_url": "http://mw2.google.com/mw-panoramio/photos/square/54278273.jpg", "photo_url": "http://www.panoramio.com/photo/54278273"}, {"upload_date": "14 March 2011", "owner_name": "augustina", "photo_id": 49468839, "longitude": 26.000519, "height": 60, "width": 60, "photo_title": "Two Birds in Ebro delta", "latitude": 40.807053, "owner_url": "http://www.panoramio.com/user/4201068", "owner_id": 4201068, "photo_file_url": "http://mw2.google.com/mw-panoramio/photos/square/49468839.jpg", "photo_url": "http://www.panoramio.com/photo/49468839"}, {"upload_date": "16 August 2007", "owner_name": "TANJU KORAY UCAR", "photo_id": 3978730, "longitude": 26.106015000000014, "height": 60, "width": 60, "photo_title": "Meri\u00e7 Nehrinde G\u00fcndo\u011farken ... Meric \u03c0\u03bf\u03c4\u03b1\u03bc\u03cc, \u03c4\u03b7\u03bd \u03b1\u03bd\u03b1\u03c4\u03bf\u03bb\u03ae \u03c4\u03bf\u03c5 \u03b7\u03bb\u03af\u03bf\u03c5 .... Meric River, sunrise ..... sol taraf yunanistan...", "latitude": 40.738456, "owner_url": "http://www.panoramio.com/user/526150", "owner_id": 526150, "photo_file_url": "http://mw2.google.com/mw-panoramio/photos/square/3978730.jpg", "photo_url": "http://www.panoramio.com/photo/3978730"}, {"upload_date": "16 August 2007", "owner_name": "TANJU KORAY UCAR", "photo_id": 3978945, "longitude": 26.126537, "height": 60, "width": 60, "photo_title": "K\u0131l\u0131\u00e7 \u00c7ay\u0131nda G\u00fcndo\u011farken... Stream \u03c3\u03c0\u03b1\u03b8\u03af \u03b1\u03bd\u03b1\u03c4\u03bf\u03bb\u03ae...... Stream sunrise sword.....", "latitude": 40.741998, "owner_url": "http://www.panoramio.com/user/526150", "owner_id": 526150, "photo_file_url": "http://mw2.google.com/mw-panoramio/photos/square/3978945.jpg", "photo_url": "http://www.panoramio.com/photo/3978945"}, {"upload_date": "18 March 2007", "owner_name": "Giorgos_s_Boukouvalas", "photo_id": 1384390, "longitude": 26.067123, "height": 60, "width": 60, "photo_title": "\u0394\u03ad\u03bb\u03c4\u03b1 \u0395\u03b2\u03c1\u03bf\u03c5", "latitude": 40.759741, "owner_url": "http://www.panoramio.com/user/178659", "owner_id": 178659, "photo_file_url": "http://mw2.google.com/mw-panoramio/photos/square/1384390.jpg", "photo_url": "http://www.panoramio.com/photo/1384390"}, {"upload_date": "23 April 2007", "owner_name": "Michael Paraskevas", "photo_id": 1892228, "longitude": 26.078453, "height": 60, "width": 60, "photo_title": "\u0394\u03ad\u03bb\u03c4\u03b1 \u0388\u03b2\u03c1\u03bf\u03c5", "latitude": 40.799711, "owner_url": "http://www.panoramio.com/user/43418", "owner_id": 43418, "photo_file_url": "http://mw2.google.com/mw-panoramio/photos/square/1892228.jpg", "photo_url": "http://www.panoramio.com/photo/1892228"}, {"upload_date": "18 May 2007", "owner_name": "Michael Paraskevas", "photo_id": 2280137, "longitude": 26.042404, "height": 60, "width": 60, "photo_title": "Greece - Delta of Evros river", "latitude": 40.741014, "owner_url": "http://www.panoramio.com/user/43418", "owner_id": 43418, "photo_file_url": "http://mw2.google.com/mw-panoramio/photos/square/2280137.jpg", "photo_url": "http://www.panoramio.com/photo/2280137"}, {"upload_date": "16 June 2011", "owner_name": "xristos  dimadis", "photo_id": 54278627, "longitude": 26.04656700000001, "height": 60, "width": 60, "photo_title": "\u03a3\u03c0\u03b9\u03c4\u03ac\u03ba\u03b9 \u03c8\u03b1\u03c1\u03ac \u03c3\u03c4\u03bf \u0394\u03ad\u03bb\u03c4\u03b1 \u03c4\u03bf\u03c5 \u0388\u03b2\u03c1\u03bf\u03c5 \u03c0\u03bf\u03c4\u03b1\u03bc\u03bf\u03cd - Fishermans houses", "latitude": 40.76146, "owner_url": "http://www.panoramio.com/user/1300119", "owner_id": 1300119, "photo_file_url": "http://mw2.google.com/mw-panoramio/photos/square/54278627.jpg", "photo_url": "http://www.panoramio.com/photo/54278627"}, {"upload_date": "03 July 2010", "owner_name": "Stavros Alexandris", "photo_id": 37471490, "longitude": 26.08068499999999, "height": 60, "width": 60, "photo_title": "Delta Evros", "latitude": 40.769914, "owner_url": "http://www.panoramio.com/user/512124", "owner_id": 512124, "photo_file_url": "http://mw2.google.com/mw-panoramio/photos/square/37471490.jpg", "photo_url": "http://www.panoramio.com/photo/37471490"}, {"upload_date": "05 March 2007", "owner_name": "kgram", "photo_id": 1172749, "longitude": 26.020517, "height": 60, "width": 60, "photo_title": "Drana lake soil, when dried", "latitude": 40.806793, "owner_url": "http://www.panoramio.com/user/181613", "owner_id": 181613, "photo_file_url": "http://mw2.google.com/mw-panoramio/photos/square/1172749.jpg", "photo_url": "http://www.panoramio.com/photo/1172749"}, {"upload_date": "31 January 2008", "owner_name": "Ben de Graaf Bierbrauwer", "photo_id": 7476208, "longitude": 26.06575, "height": 60, "width": 60, "photo_title": "Evrosdelta", "latitude": 40.783921, "owner_url": "http://www.panoramio.com/user/1138231", "owner_id": 1138231, "photo_file_url": "http://mw2.google.com/mw-panoramio/photos/square/7476208.jpg", "photo_url": "http://www.panoramio.com/photo/7476208"}, {"upload_date": "08 April 2010", "owner_name": "-----leyteris------", "photo_id": 34153805, "longitude": 26.057682, "height": 60, "width": 60, "photo_title": "delta ebrou", "latitude": 40.767282, "owner_url": "http://www.panoramio.com/user/4328132", "owner_id": 4328132, "photo_file_url": "http://mw2.google.com/mw-panoramio/photos/square/34153805.jpg", "photo_url": "http://www.panoramio.com/photo/34153805"}, {"upload_date": "20 December 2007", "owner_name": "hantier", "photo_id": 6587846, "longitude": 26.005154, "height": 60, "width": 60, "photo_title": "Delta of Evros 13", "latitude": 40.814654, "owner_url": "http://www.panoramio.com/user/468190", "owner_id": 468190, "photo_file_url": "http://mw2.google.com/mw-panoramio/photos/square/6587846.jpg", "photo_url": "http://www.panoramio.com/photo/6587846"}, {"upload_date": "25 August 2012", "owner_name": "\u25c4Maria \u0397-S\u25ba", "photo_id": 77665133, "longitude": 26.015587, "height": 60, "width": 60, "photo_title": "\u0391\u03bb\u03b5\u03be\u03b1\u03bd\u03b4\u03c1\u03bf\u03cd\u03c0\u03bf\u03bb\u03b7 \u0394\u03ad\u03bb\u03c4\u03b1 \u0388\u03b2\u03c1\u03bf\u03c5 - Alexandroupoli Evros Delta ", "latitude": 40.827646, "owner_url": "http://www.panoramio.com/user/1698637", "owner_id": 1698637, "photo_file_url": "http://mw2.google.com/mw-panoramio/photos/square/77665133.jpg", "photo_url": "http://www.panoramio.com/photo/77665133"}, {"upload_date": "04 August 2008", "owner_name": "kgram", "photo_id": 12810713, "longitude": 26.006227, "height": 60, "width": 60, "photo_title": "Fishermen cottages at Evros Delta", "latitude": 40.797161, "owner_url": "http://www.panoramio.com/user/181613", "owner_id": 181613, "photo_file_url": "http://mw2.google.com/mw-panoramio/photos/square/12810713.jpg", "photo_url": "http://www.panoramio.com/photo/12810713"}, {"upload_date": "17 February 2007", "owner_name": "\u03a0\u03b1\u03cd\u03bb\u03bf\u03c2 \u039c\u03ac\u03bd\u03c4\u03b6\u03b9\u03bf\u03c2", "photo_id": 860154, "longitude": 26.010475, "height": 60, "width": 60, "photo_title": "Athina Alexandroupoli_001", "latitude": 40.84732, "owner_url": "http://www.panoramio.com/user/60538", "owner_id": 60538, "photo_file_url": "http://mw2.google.com/mw-panoramio/photos/square/860154.jpg", "photo_url": "http://www.panoramio.com/photo/860154"}, {"upload_date": "25 August 2012", "owner_name": "\u25c4Maria \u0397-S\u25ba", "photo_id": 77665086, "longitude": 26.061153, "height": 60, "width": 60, "photo_title": "\u0391\u03bb\u03b5\u03be\u03b1\u03bd\u03b4\u03c1\u03bf\u03cd\u03c0\u03bf\u03bb\u03b7 \u0394\u03ad\u03bb\u03c4\u03b1 \u0388\u03b2\u03c1\u03bf\u03c5 - Alexandroupoli Evros Delta ", "latitude": 40.820875, "owner_url": "http://www.panoramio.com/user/1698637", "owner_id": 1698637, "photo_file_url": "http://mw2.google.com/mw-panoramio/photos/square/77665086.jpg", "photo_url": "http://www.panoramio.com/photo/77665086"}, {"upload_date": "14 February 2013", "owner_name": "alexandros_parotidis", "photo_id": 86075831, "longitude": 25.942326, "height": 60, "width": 60, "photo_title": "miror ", "latitude": 40.843424, "owner_url": "http://www.panoramio.com/user/456886", "owner_id": 456886, "photo_file_url": "http://mw2.google.com/mw-panoramio/photos/square/86075831.jpg", "photo_url": "http://www.panoramio.com/photo/86075831"}, {"upload_date": "29 August 2008", "owner_name": "dimilouk", "photo_id": 13620055, "longitude": 26.043091, "height": 60, "width": 60, "photo_title": "delta evrou", "latitude": 40.750118, "owner_url": "http://www.panoramio.com/user/938791", "owner_id": 938791, "photo_file_url": "http://mw2.google.com/mw-panoramio/photos/square/13620055.jpg", "photo_url": "http://www.panoramio.com/photo/13620055"}, {"upload_date": "12 February 2013", "owner_name": "alexandros_parotidis", "photo_id": 86006578, "longitude": 25.963784, "height": 60, "width": 60, "photo_title": "landscape", "latitude": 40.836671, "owner_url": "http://www.panoramio.com/user/456886", "owner_id": 456886, "photo_file_url": "http://mw2.google.com/mw-panoramio/photos/square/86006578.jpg", "photo_url": "http://www.panoramio.com/photo/86006578"}, {"upload_date": "25 August 2012", "owner_name": "\u25c4Maria \u0397-S\u25ba", "photo_id": 77665076, "longitude": 25.982832, "height": 60, "width": 60, "photo_title": "\u0391\u03bb\u03b5\u03be\u03b1\u03bd\u03b4\u03c1\u03bf\u03cd\u03c0\u03bf\u03bb\u03b7 \u0394\u03ad\u03bb\u03c4\u03b1 \u0388\u03b2\u03c1\u03bf\u03c5 - Alexandroupoli Evros Delta ", "latitude": 40.845813, "owner_url": "http://www.panoramio.com/user/1698637", "owner_id": 1698637, "photo_file_url": "http://mw2.google.com/mw-panoramio/photos/square/77665076.jpg", "photo_url": "http://www.panoramio.com/photo/77665076"}, {"upload_date": "04 October 2009", "owner_name": "Rachaniotis Costantinos", "photo_id": 27501201, "longitude": 26.03605300000001, "height": 60, "width": 60, "photo_title": "FLY AWAY!!!!", "latitude": 40.776902, "owner_url": "http://www.panoramio.com/user/1072192", "owner_id": 1072192, "photo_file_url": "http://mw2.google.com/mw-panoramio/photos/square/27501201.jpg", "photo_url": "http://www.panoramio.com/photo/27501201"}, {"upload_date": "25 August 2012", "owner_name": "\u25c4Maria \u0397-S\u25ba", "photo_id": 77665209, "longitude": 26.034019, "height": 60, "width": 60, "photo_title": "\u0391\u03bb\u03b5\u03be\u03b1\u03bd\u03b4\u03c1\u03bf\u03cd\u03c0\u03bf\u03bb\u03b7 \u0394\u03ad\u03bb\u03c4\u03b1 \u0388\u03b2\u03c1\u03bf\u03c5 - Alexandroupoli Evros Delta ", "latitude": 40.810304, "owner_url": "http://www.panoramio.com/user/1698637", "owner_id": 1698637, "photo_file_url": "http://mw2.google.com/mw-panoramio/photos/square/77665209.jpg", "photo_url": "http://www.panoramio.com/photo/77665209"}, {"upload_date": "17 February 2007", "owner_name": "\u03a0\u03b1\u03cd\u03bb\u03bf\u03c2 \u039c\u03ac\u03bd\u03c4\u03b6\u03b9\u03bf\u03c2", "photo_id": 858087, "longitude": 26.015282, "height": 60, "width": 60, "photo_title": "\u0394\u03ad\u03bb\u03c4\u03b1 \u03c4\u03bf\u03c5 \u0388\u03b2\u03c1\u03bf\u03c5_001", "latitude": 40.819785, "owner_url": "http://www.panoramio.com/user/60538", "owner_id": 60538, "photo_file_url": "http://mw2.google.com/mw-panoramio/photos/square/858087.jpg", "photo_url": "http://www.panoramio.com/photo/858087"}, {"upload_date": "25 August 2012", "owner_name": "\u25c4Maria \u0397-S\u25ba", "photo_id": 77665097, "longitude": 26.039352, "height": 60, "width": 60, "photo_title": "\u0391\u03bb\u03b5\u03be\u03b1\u03bd\u03b4\u03c1\u03bf\u03cd\u03c0\u03bf\u03bb\u03b7 \u0394\u03ad\u03bb\u03c4\u03b1 \u0388\u03b2\u03c1\u03bf\u03c5 - Alexandroupoli Evros Delta ", "latitude": 40.824123, "owner_url": "http://www.panoramio.com/user/1698637", "owner_id": 1698637, "photo_file_url": "http://mw2.google.com/mw-panoramio/photos/square/77665097.jpg", "photo_url": "http://www.panoramio.com/photo/77665097"}, {"upload_date": "02 November 2012", "owner_name": "Xanthos Nerantzis", "photo_id": 81505770, "longitude": 26.052922, "height": 60, "width": 60, "photo_title": "\u03c3\u03c4\u03bf \u0394\u03ad\u03bb\u03c4\u03b1 \u03c4\u03bf\u03c5 \u0388\u03b2\u03c1\u03bf\u03c5", "latitude": 40.786959, "owner_url": "http://www.panoramio.com/user/3934915", "owner_id": 3934915, "photo_file_url": "http://mw2.google.com/mw-panoramio/photos/square/81505770.jpg", "photo_url": "http://www.panoramio.com/photo/81505770"}, {"upload_date": "25 August 2012", "owner_name": "\u25c4Maria \u0397-S\u25ba", "photo_id": 77665117, "longitude": 26.050252, "height": 60, "width": 60, "photo_title": "\u0391\u03bb\u03b5\u03be\u03b1\u03bd\u03b4\u03c1\u03bf\u03cd\u03c0\u03bf\u03bb\u03b7 \u0394\u03ad\u03bb\u03c4\u03b1 \u0388\u03b2\u03c1\u03bf\u03c5 - Alexandroupoli Evros Delta ", "latitude": 40.823538, "owner_url": "http://www.panoramio.com/user/1698637", "owner_id": 1698637, "photo_file_url": "http://mw2.google.com/mw-panoramio/photos/square/77665117.jpg", "photo_url": "http://www.panoramio.com/photo/77665117"}, {"upload_date": "31 August 2008", "owner_name": "dimilouk", "photo_id": 13680071, "longitude": 26.095662, "height": 60, "width": 60, "photo_title": "evros loutra", "latitude": 40.841071, "owner_url": "http://www.panoramio.com/user/938791", "owner_id": 938791, "photo_file_url": "http://mw2.google.com/mw-panoramio/photos/square/13680071.jpg", "photo_url": "http://www.panoramio.com/photo/13680071"}, {"upload_date": "06 February 2013", "owner_name": "Stavros Alexandris", "photo_id": 85734630, "longitude": 26.000849, "height": 60, "width": 60, "photo_title": "Evros HDR", "latitude": 40.841598, "owner_url": "http://www.panoramio.com/user/512124", "owner_id": 512124, "photo_file_url": "http://mw2.google.com/mw-panoramio/photos/square/85734630.jpg", "photo_url": "http://www.panoramio.com/photo/85734630"}, {"upload_date": "10 April 2009", "owner_name": "Gregory cy", "photo_id": 21003131, "longitude": 26.070557000000008, "height": 60, "width": 60, "photo_title": " Fishermans houses", "latitude": 40.74898, "owner_url": "http://www.panoramio.com/user/2301383", "owner_id": 2301383, "photo_file_url": "http://mw2.google.com/mw-panoramio/photos/square/21003131.jpg", "photo_url": "http://www.panoramio.com/photo/21003131"}, {"upload_date": "07 January 2011", "owner_name": "Sotiris Hartzavalos", "photo_id": 46188151, "longitude": 26.100082, "height": 60, "width": 60, "photo_title": "\u03a3\u03c4\u03bf \u03b4\u03ad\u03bb\u03c4\u03b1 \u03c4\u03bf\u03c5 \u0388\u03b2\u03c1\u03bf\u03c5", "latitude": 40.773847, "owner_url": "http://www.panoramio.com/user/1620016", "owner_id": 1620016, "photo_file_url": "http://mw2.google.com/mw-panoramio/photos/square/46188151.jpg", "photo_url": "http://www.panoramio.com/photo/46188151"}, {"upload_date": "10 April 2009", "owner_name": "Gregory cy", "photo_id": 21003236, "longitude": 26.030388, "height": 60, "width": 60, "photo_title": "Evros - Delta", "latitude": 40.744136, "owner_url": "http://www.panoramio.com/user/2301383", "owner_id": 2301383, "photo_file_url": "http://mw2.google.com/mw-panoramio/photos/square/21003236.jpg", "photo_url": "http://www.panoramio.com/photo/21003236"}, {"upload_date": "29 August 2008", "owner_name": "dimilouk", "photo_id": 13619843, "longitude": 26.0606, "height": 60, "width": 60, "photo_title": "delta evrou", "latitude": 40.776642, "owner_url": "http://www.panoramio.com/user/938791", "owner_id": 938791, "photo_file_url": "http://mw2.google.com/mw-panoramio/photos/square/13619843.jpg", "photo_url": "http://www.panoramio.com/photo/13619843"}, {"upload_date": "14 April 2011", "owner_name": "studiostaralexpoli", "photo_id": 51040577, "longitude": 25.953741, "height": 60, "width": 60, "photo_title": "\u03a0\u0391\u03a1\u0391\u039b\u0399\u0391 \u0391\u03a0\u0391\u039b\u039f\u03a5 2011 \u0391\u039b\u0395\u039e/\u03a0\u039f\u039b\u0397", "latitude": 40.838619, "owner_url": "http://www.panoramio.com/user/5758887", "owner_id": 5758887, "photo_file_url": "http://mw2.google.com/mw-panoramio/photos/square/51040577.jpg", "photo_url": "http://www.panoramio.com/photo/51040577"}, {"upload_date": "29 August 2008", "owner_name": "dimilouk", "photo_id": 13619976, "longitude": 26.017685, "height": 60, "width": 60, "photo_title": "delta evrou", "latitude": 40.792759, "owner_url": "http://www.panoramio.com/user/938791", "owner_id": 938791, "photo_file_url": "http://mw2.google.com/mw-panoramio/photos/square/13619976.jpg", "photo_url": "http://www.panoramio.com/photo/13619976"}, {"upload_date": "02 November 2012", "owner_name": "Xanthos Nerantzis", "photo_id": 81505777, "longitude": 26.068371, "height": 60, "width": 60, "photo_title": "\u03c3\u03c4\u03bf \u0394\u03ad\u03bb\u03c4\u03b1 \u03c4\u03bf\u03c5 \u0388\u03b2\u03c1\u03bf\u03c5", "latitude": 40.794237, "owner_url": "http://www.panoramio.com/user/3934915", "owner_id": 3934915, "photo_file_url": "http://mw2.google.com/mw-panoramio/photos/square/81505777.jpg", "photo_url": "http://www.panoramio.com/photo/81505777"}, {"upload_date": "09 April 2009", "owner_name": "Gregory cy", "photo_id": 21002633, "longitude": 26.127076, "height": 60, "width": 60, "photo_title": "Way to delta - Evros", "latitude": 40.789737, "owner_url": "http://www.panoramio.com/user/2301383", "owner_id": 2301383, "photo_file_url": "http://mw2.google.com/mw-panoramio/photos/square/21002633.jpg", "photo_url": "http://www.panoramio.com/photo/21002633"}, {"upload_date": "21 March 2007", "owner_name": "e-evros.gr", "photo_id": 1436604, "longitude": 26.127656, "height": 60, "width": 60, "photo_title": "\"Delta of Evros\"", "latitude": 40.766957, "owner_url": "http://www.panoramio.com/user/301364", "owner_id": 301364, "photo_file_url": "http://mw2.google.com/mw-panoramio/photos/square/1436604.jpg", "photo_url": "http://www.panoramio.com/photo/1436604"}, {"upload_date": "17 January 2014", "owner_name": "alexandros_parotidis", "photo_id": 101892062, "longitude": 25.974855, "height": 60, "width": 60, "photo_title": "LANDSCAPE", "latitude": 40.838035, "owner_url": "http://www.panoramio.com/user/456886", "owner_id": 456886, "photo_file_url": "http://mw2.google.com/mw-panoramio/photos/square/101892062.jpg", "photo_url": "http://www.panoramio.com/photo/101892062"}, {"upload_date": "09 April 2009", "owner_name": "alexandros_parotidis", "photo_id": 20982355, "longitude": 25.997944, "height": 60, "width": 60, "photo_title": "delta evrou", "latitude": 40.805624, "owner_url": "http://www.panoramio.com/user/456886", "owner_id": 456886, "photo_file_url": "http://mw2.google.com/mw-panoramio/photos/square/20982355.jpg", "photo_url": "http://www.panoramio.com/photo/20982355"}, {"upload_date": "07 September 2010", "owner_name": "Christos Theodorou", "photo_id": 40435823, "place_id": "bd0c348472658efa22ba96dbbe166b876d1fca49", "longitude": 26.124802, "height": 60, "width": 60, "photo_title": "Evros, Delta natural and national park", "latitude": 40.822643, "owner_url": "http://www.panoramio.com/user/4941785", "owner_id": 4941785, "photo_file_url": "http://mw2.google.com/mw-panoramio/photos/square/40435823.jpg", "photo_url": "http://www.panoramio.com/photo/40435823"}, {"upload_date": "16 September 2008", "owner_name": "Gruetze80", "photo_id": 14178579, "longitude": 25.949804, "height": 60, "width": 60, "photo_title": "Alexandroupolis Beach", "latitude": 40.844496, "owner_url": "http://www.panoramio.com/user/632594", "owner_id": 632594, "photo_file_url": "http://mw2.google.com/mw-panoramio/photos/square/14178579.jpg", "photo_url": "http://www.panoramio.com/photo/14178579"}, {"upload_date": "10 April 2008", "owner_name": "theodoros sirros", "photo_id": 9261907, "longitude": 26.048927, "height": 60, "width": 60, "photo_title": "\u0394\u03b5\u03bb\u03c4\u03b1 \u0395\u03b2\u03c1\u03bf\u03c5", "latitude": 40.764941, "owner_url": "http://www.panoramio.com/user/830383", "owner_id": 830383, "photo_file_url": "http://mw2.google.com/mw-panoramio/photos/square/9261907.jpg", "photo_url": "http://www.panoramio.com/photo/9261907"}, {"upload_date": "03 July 2010", "owner_name": "Stavros Alexandris", "photo_id": 37471470, "longitude": 26.032362000000006, "height": 60, "width": 60, "photo_title": "Delta, Evros", "latitude": 40.764681, "owner_url": "http://www.panoramio.com/user/512124", "owner_id": 512124, "photo_file_url": "http://mw2.google.com/mw-panoramio/photos/square/37471470.jpg", "photo_url": "http://www.panoramio.com/photo/37471470"}, {"upload_date": "04 March 2007", "owner_name": "kgram", "photo_id": 1172714, "longitude": 26.037083, "height": 60, "width": 60, "photo_title": "Fishermen cottages at Evros delta", "latitude": 40.779242, "owner_url": "http://www.panoramio.com/user/181613", "owner_id": 181613, "photo_file_url": "http://mw2.google.com/mw-panoramio/photos/square/1172714.jpg", "photo_url": "http://www.panoramio.com/photo/1172714"}, {"upload_date": "06 August 2007", "owner_name": "kgram", "photo_id": 3768503, "longitude": 26.073647, "height": 60, "width": 60, "photo_title": "Cowboy at Evros Delta", "latitude": 40.799646, "owner_url": "http://www.panoramio.com/user/181613", "owner_id": 181613, "photo_file_url": "http://mw2.google.com/mw-panoramio/photos/square/3768503.jpg", "photo_url": "http://www.panoramio.com/photo/3768503"}, {"upload_date": "07 May 2008", "owner_name": "theodoros sirros", "photo_id": 10004202, "longitude": 26.015625, "height": 60, "width": 60, "photo_title": "\u0394\u03ad\u03bb\u03c4\u03b1 \u0395\u03b2\u03c1\u03bf\u03c5", "latitude": 40.805494, "owner_url": "http://www.panoramio.com/user/830383", "owner_id": 830383, "photo_file_url": "http://mw2.google.com/mw-panoramio/photos/square/10004202.jpg", "photo_url": "http://www.panoramio.com/photo/10004202"}, {"upload_date": "18 October 2009", "owner_name": "G.E.conom", "photo_id": 27960207, "longitude": 26.09235799999999, "height": 60, "width": 60, "photo_title": "\u0397 \u0396\u03a9\u0397 \u039a\u0391\u03a0\u039f\u03a5 \u0391\u039b\u039b\u039f\u03a5", "latitude": 40.807004, "owner_url": "http://www.panoramio.com/user/2566885", "owner_id": 2566885, "photo_file_url": "http://mw2.google.com/mw-panoramio/photos/square/27960207.jpg", "photo_url": "http://www.panoramio.com/photo/27960207"}, {"upload_date": "17 June 2011", "owner_name": "xristos  dimadis", "photo_id": 54311732, "longitude": 26.03807, "height": 60, "width": 60, "photo_title": "\u0394\u03ad\u03bb\u03c4\u03b1 \u03c4\u03bf\u03c5 \u0388\u03b2\u03c1\u03bf\u03c5 \u03c0\u03bf\u03c4\u03b1\u03bc\u03bf\u03cd", "latitude": 40.76695, "owner_url": "http://www.panoramio.com/user/1300119", "owner_id": 1300119, "photo_file_url": "http://mw2.google.com/mw-panoramio/photos/square/54311732.jpg", "photo_url": "http://www.panoramio.com/photo/54311732"}, {"upload_date": "16 June 2011", "owner_name": "xristos  dimadis", "photo_id": 54278381, "longitude": 26.073732, "height": 60, "width": 60, "photo_title": "\u03a3\u03c4\u03bf \u0394\u03ad\u03bb\u03c4\u03b1 \u03c4\u03bf\u03c5 \u0388\u03b2\u03c1\u03bf\u03c5 \u03c0\u03bf\u03c4\u03b1\u03bc\u03bf\u03cd", "latitude": 40.7684, "owner_url": "http://www.panoramio.com/user/1300119", "owner_id": 1300119, "photo_file_url": "http://mw2.google.com/mw-panoramio/photos/square/54278381.jpg", "photo_url": "http://www.panoramio.com/photo/54278381"}, {"upload_date": "04 September 2008", "owner_name": "kostas.v", "photo_id": 13808656, "longitude": 26.011076, "height": 60, "width": 60, "photo_title": "Evros", "latitude": 40.812445, "owner_url": "http://www.panoramio.com/user/151260", "owner_id": 151260, "photo_file_url": "http://mw2.google.com/mw-panoramio/photos/square/13808656.jpg", "photo_url": "http://www.panoramio.com/photo/13808656"}, {"upload_date": "18 May 2007", "owner_name": "Michael Paraskevas", "photo_id": 2280157, "longitude": 26.05545, "height": 60, "width": 60, "photo_title": "Greece - Delta of Evros river", "latitude": 40.759481, "owner_url": "http://www.panoramio.com/user/43418", "owner_id": 43418, "photo_file_url": "http://mw2.google.com/mw-panoramio/photos/square/2280157.jpg", "photo_url": "http://www.panoramio.com/photo/2280157"}, {"upload_date": "20 December 2007", "owner_name": "hantier", "photo_id": 6587916, "longitude": 26.105576, "height": 60, "width": 60, "photo_title": "Near to Alaxandroupolis 19", "latitude": 40.849787, "owner_url": "http://www.panoramio.com/user/468190", "owner_id": 468190, "photo_file_url": "http://mw2.google.com/mw-panoramio/photos/square/6587916.jpg", "photo_url": "http://www.panoramio.com/photo/6587916"}, {"upload_date": "20 December 2007", "owner_name": "hantier", "photo_id": 6587775, "longitude": 26.05579399999999, "height": 60, "width": 60, "photo_title": "Delta of Evros 9", "latitude": 40.764811, "owner_url": "http://www.panoramio.com/user/468190", "owner_id": 468190, "photo_file_url": "http://mw2.google.com/mw-panoramio/photos/square/6587775.jpg", "photo_url": "http://www.panoramio.com/photo/6587775"}, {"upload_date": "20 December 2007", "owner_name": "hantier", "photo_id": 6587944, "longitude": 26.104546, "height": 60, "width": 60, "photo_title": "Near to Alaxandroupolis 20", "latitude": 40.851216, "owner_url": "http://www.panoramio.com/user/468190", "owner_id": 468190, "photo_file_url": "http://mw2.google.com/mw-panoramio/photos/square/6587944.jpg", "photo_url": "http://www.panoramio.com/photo/6587944"}, {"upload_date": "16 June 2011", "owner_name": "xristos  dimadis", "photo_id": 54278323, "longitude": 26.064806, "height": 60, "width": 60, "photo_title": "\u03a3\u03c4\u03bf \u0394\u03ad\u03bb\u03c4\u03b1 \u03c4\u03bf\u03c5 \u0388\u03b2\u03c1\u03bf\u03c5 \u03c0\u03bf\u03c4\u03b1\u03bc\u03bf\u03cd", "latitude": 40.76658, "owner_url": "http://www.panoramio.com/user/1300119", "owner_id": 1300119, "photo_file_url": "http://mw2.google.com/mw-panoramio/photos/square/54278323.jpg", "photo_url": "http://www.panoramio.com/photo/54278323"}, {"upload_date": "20 December 2007", "owner_name": "hantier", "photo_id": 6587857, "longitude": 26.008587, "height": 60, "width": 60, "photo_title": "Delta of Evros 14", "latitude": 40.811471, "owner_url": "http://www.panoramio.com/user/468190", "owner_id": 468190, "photo_file_url": "http://mw2.google.com/mw-panoramio/photos/square/6587857.jpg", "photo_url": "http://www.panoramio.com/photo/6587857"}, {"upload_date": "12 February 2013", "owner_name": "alexandros_parotidis", "photo_id": 86006406, "longitude": 25.947905, "height": 60, "width": 60, "photo_title": "litle church", "latitude": 40.843814, "owner_url": "http://www.panoramio.com/user/456886", "owner_id": 456886, "photo_file_url": "http://mw2.google.com/mw-panoramio/photos/square/86006406.jpg", "photo_url": "http://www.panoramio.com/photo/86006406"}, {"upload_date": "20 December 2007", "owner_name": "hantier", "photo_id": 6587869, "longitude": 26.009445, "height": 60, "width": 60, "photo_title": "Delta of Evros 15", "latitude": 40.817447, "owner_url": "http://www.panoramio.com/user/468190", "owner_id": 468190, "photo_file_url": "http://mw2.google.com/mw-panoramio/photos/square/6587869.jpg", "photo_url": "http://www.panoramio.com/photo/6587869"}, {"upload_date": "08 April 2011", "owner_name": "lexovitis", "photo_id": 50703925, "longitude": 26.004338, "height": 60, "width": 60, "photo_title": "Greece,Thrace,Evros Delta-\u0398\u03c1\u03ac\u03ba\u03b7,\u0394\u03ad\u03bb\u03c4\u03b1 \u03c4\u03bf\u03c5 \u0388\u03b2\u03c1\u03bf\u03c5", "latitude": 40.807989, "owner_url": "http://www.panoramio.com/user/1455945", "owner_id": 1455945, "photo_file_url": "http://mw2.google.com/mw-panoramio/photos/square/50703925.jpg", "photo_url": "http://www.panoramio.com/photo/50703925"}, {"upload_date": "25 August 2012", "owner_name": "\u25c4Maria \u0397-S\u25ba", "photo_id": 77665284, "longitude": 26.033172, "height": 60, "width": 60, "photo_title": "\u0391\u03bb\u03b5\u03be\u03b1\u03bd\u03b4\u03c1\u03bf\u03cd\u03c0\u03bf\u03bb\u03b7 \u0394\u03ad\u03bb\u03c4\u03b1 \u0388\u03b2\u03c1\u03bf\u03c5 - Alexandroupoli Evros Delta ", "latitude": 40.825081, "owner_url": "http://www.panoramio.com/user/1698637", "owner_id": 1698637, "photo_file_url": "http://mw2.google.com/mw-panoramio/photos/square/77665284.jpg", "photo_url": "http://www.panoramio.com/photo/77665284"}, {"upload_date": "20 December 2007", "owner_name": "hantier", "photo_id": 6587832, "longitude": 26.005583, "height": 60, "width": 60, "photo_title": "Delta of Evros 12", "latitude": 40.816602, "owner_url": "http://www.panoramio.com/user/468190", "owner_id": 468190, "photo_file_url": "http://mw2.google.com/mw-panoramio/photos/square/6587832.jpg", "photo_url": "http://www.panoramio.com/photo/6587832"}, {"upload_date": "01 May 2008", "owner_name": "\u0395\u03bb\u03ad\u03bd\u03b7 \u039b.", "photo_id": 9826206, "longitude": 26.073303, "height": 60, "width": 60, "photo_title": "\u0394\u03b5\u03bb\u03c4\u03b1 \u0395\u03b2\u03c1\u03bf\u03c5", "latitude": 40.75688, "owner_url": "http://www.panoramio.com/user/1676061", "owner_id": 1676061, "photo_file_url": "http://mw2.google.com/mw-panoramio/photos/square/9826206.jpg", "photo_url": "http://www.panoramio.com/photo/9826206"}, {"upload_date": "01 May 2008", "owner_name": "\u0395\u03bb\u03ad\u03bd\u03b7 \u039b.", "photo_id": 9824368, "longitude": 26.084633, "height": 60, "width": 60, "photo_title": "\u0393\u03b5\u03c1\u03b1\u03ba\u03b9", "latitude": 40.75688, "owner_url": "http://www.panoramio.com/user/1676061", "owner_id": 1676061, "photo_file_url": "http://mw2.google.com/mw-panoramio/photos/square/9824368.jpg", "photo_url": "http://www.panoramio.com/photo/9824368"}, {"upload_date": "25 August 2012", "owner_name": "\u25c4Maria \u0397-S\u25ba", "photo_id": 77665106, "longitude": 26.041412, "height": 60, "width": 60, "photo_title": "\u0391\u03bb\u03b5\u03be\u03b1\u03bd\u03b4\u03c1\u03bf\u03cd\u03c0\u03bf\u03bb\u03b7 \u0394\u03ad\u03bb\u03c4\u03b1 \u0388\u03b2\u03c1\u03bf\u03c5 - Alexandroupoli Evros Delta ", "latitude": 40.823603, "owner_url": "http://www.panoramio.com/user/1698637", "owner_id": 1698637, "photo_file_url": "http://mw2.google.com/mw-panoramio/photos/square/77665106.jpg", "photo_url": "http://www.panoramio.com/photo/77665106"}, {"upload_date": "20 December 2007", "owner_name": "hantier", "photo_id": 6587806, "longitude": 26.009102, "height": 60, "width": 60, "photo_title": "Delta of Evros 10", "latitude": 40.821734, "owner_url": "http://www.panoramio.com/user/468190", "owner_id": 468190, "photo_file_url": "http://mw2.google.com/mw-panoramio/photos/square/6587806.jpg", "photo_url": "http://www.panoramio.com/photo/6587806"}, {"upload_date": "24 September 2012", "owner_name": "apodrasi", "photo_id": 79456333, "longitude": 25.946899, "height": 60, "width": 60, "photo_title": "\u03c0\u03b1\u03bd\u03c3\u03ad\u03bb\u03b7\u03bd\u03bf\u03c2", "latitude": 40.838749, "owner_url": "http://www.panoramio.com/user/5551829", "owner_id": 5551829, "photo_file_url": "http://mw2.google.com/mw-panoramio/photos/square/79456333.jpg", "photo_url": "http://www.panoramio.com/photo/79456333"}, {"upload_date": "25 August 2012", "owner_name": "\u25c4Maria \u0397-S\u25ba", "photo_id": 77665201, "longitude": 26.029234, "height": 60, "width": 60, "photo_title": "\u0391\u03bb\u03b5\u03be\u03b1\u03bd\u03b4\u03c1\u03bf\u03cd\u03c0\u03bf\u03bb\u03b7 \u0394\u03ad\u03bb\u03c4\u03b1 \u0388\u03b2\u03c1\u03bf\u03c5 - Alexandroupoli Evros Delta ", "latitude": 40.810612, "owner_url": "http://www.panoramio.com/user/1698637", "owner_id": 1698637, "photo_file_url": "http://mw2.google.com/mw-panoramio/photos/square/77665201.jpg", "photo_url": "http://www.panoramio.com/photo/77665201"}, {"upload_date": "25 August 2012", "owner_name": "\u25c4Maria \u0397-S\u25ba", "photo_id": 77665142, "longitude": 26.015738, "height": 60, "width": 60, "photo_title": "\u0391\u03bb\u03b5\u03be\u03b1\u03bd\u03b4\u03c1\u03bf\u03cd\u03c0\u03bf\u03bb\u03b7 \u0394\u03ad\u03bb\u03c4\u03b1 \u0388\u03b2\u03c1\u03bf\u03c5 - Alexandroupoli Evros Delta ", "latitude": 40.813097, "owner_url": "http://www.panoramio.com/user/1698637", "owner_id": 1698637, "photo_file_url": "http://mw2.google.com/mw-panoramio/photos/square/77665142.jpg", "photo_url": "http://www.panoramio.com/photo/77665142"}, {"upload_date": "14 August 2012", "owner_name": "alexandros_parotidis", "photo_id": 77073661, "longitude": 25.992147, "height": 60, "width": 60, "photo_title": "night shot", "latitude": 40.819154, "owner_url": "http://www.panoramio.com/user/456886", "owner_id": 456886, "photo_file_url": "http://mw2.google.com/mw-panoramio/photos/square/77073661.jpg", "photo_url": "http://www.panoramio.com/photo/77073661"}, {"upload_date": "29 August 2008", "owner_name": "dimilouk", "photo_id": 13620026, "longitude": 26.040344, "height": 60, "width": 60, "photo_title": "delta evrou", "latitude": 40.779502, "owner_url": "http://www.panoramio.com/user/938791", "owner_id": 938791, "photo_file_url": "http://mw2.google.com/mw-panoramio/photos/square/13620026.jpg", "photo_url": "http://www.panoramio.com/photo/13620026"}, {"upload_date": "25 August 2012", "owner_name": "\u25c4Maria \u0397-S\u25ba", "photo_id": 77665351, "longitude": 26.015834, "height": 60, "width": 60, "photo_title": "\u0391\u03bb\u03b5\u03be\u03b1\u03bd\u03b4\u03c1\u03bf\u03cd\u03c0\u03bf\u03bb\u03b7 \u0394\u03ad\u03bb\u03c4\u03b1 \u0388\u03b2\u03c1\u03bf\u03c5 - Alexandroupoli Evros Delta ", "latitude": 40.808387, "owner_url": "http://www.panoramio.com/user/1698637", "owner_id": 1698637, "photo_file_url": "http://mw2.google.com/mw-panoramio/photos/square/77665351.jpg", "photo_url": "http://www.panoramio.com/photo/77665351"}, {"upload_date": "29 August 2008", "owner_name": "dimilouk", "photo_id": 13619907, "longitude": 26.049614, "height": 60, "width": 60, "photo_title": "delta evrou", "latitude": 40.762601, "owner_url": "http://www.panoramio.com/user/938791", "owner_id": 938791, "photo_file_url": "http://mw2.google.com/mw-panoramio/photos/square/13619907.jpg", "photo_url": "http://www.panoramio.com/photo/13619907"}, {"upload_date": "01 May 2008", "owner_name": "\u0395\u03bb\u03ad\u03bd\u03b7 \u039b.", "photo_id": 9824558, "longitude": 26.095276, "height": 60, "width": 60, "photo_title": "\u0391\u03b5\u03c4\u03bf\u03c2", "latitude": 40.75818, "owner_url": "http://www.panoramio.com/user/1676061", "owner_id": 1676061, "photo_file_url": "http://mw2.google.com/mw-panoramio/photos/square/9824558.jpg", "photo_url": "http://www.panoramio.com/photo/9824558"}, {"upload_date": "25 August 2012", "owner_name": "\u25c4Maria \u0397-S\u25ba", "photo_id": 77665252, "longitude": 26.025962, "height": 60, "width": 60, "photo_title": "\u0391\u03bb\u03b5\u03be\u03b1\u03bd\u03b4\u03c1\u03bf\u03cd\u03c0\u03bf\u03bb\u03b7 \u0394\u03ad\u03bb\u03c4\u03b1 \u0388\u03b2\u03c1\u03bf\u03c5 - Alexandroupoli Evros Delta ", "latitude": 40.802475, "owner_url": "http://www.panoramio.com/user/1698637", "owner_id": 1698637, "photo_file_url": "http://mw2.google.com/mw-panoramio/photos/square/77665252.jpg", "photo_url": "http://www.panoramio.com/photo/77665252"}, {"upload_date": "25 August 2012", "owner_name": "\u25c4Maria \u0397-S\u25ba", "photo_id": 77665320, "longitude": 26.015319, "height": 60, "width": 60, "photo_title": "\u0391\u03bb\u03b5\u03be\u03b1\u03bd\u03b4\u03c1\u03bf\u03cd\u03c0\u03bf\u03bb\u03b7 \u0394\u03ad\u03bb\u03c4\u03b1 \u0388\u03b2\u03c1\u03bf\u03c5 - Alexandroupoli Evros Delta ", "latitude": 40.824302, "owner_url": "http://www.panoramio.com/user/1698637", "owner_id": 1698637, "photo_file_url": "http://mw2.google.com/mw-panoramio/photos/square/77665320.jpg", "photo_url": "http://www.panoramio.com/photo/77665320"}, {"upload_date": "14 August 2012", "owner_name": "alexandros_parotidis", "photo_id": 77073481, "longitude": 26.029201, "height": 60, "width": 60, "photo_title": "alexandroupoli", "latitude": 40.769263, "owner_url": "http://www.panoramio.com/user/456886", "owner_id": 456886, "photo_file_url": "http://mw2.google.com/mw-panoramio/photos/square/77073481.jpg", "photo_url": "http://www.panoramio.com/photo/77073481"}, {"upload_date": "20 August 2009", "owner_name": "S55555M555", "photo_id": 25860128, "longitude": 26.038456, "height": 60, "width": 60, "photo_title": "ekvoles evrou3", "latitude": 40.777032, "owner_url": "http://www.panoramio.com/user/2792661", "owner_id": 2792661, "photo_file_url": "http://mw2.google.com/mw-panoramio/photos/square/25860128.jpg", "photo_url": "http://www.panoramio.com/photo/25860128"}, {"upload_date": "10 February 2013", "owner_name": "Stavros Alexandris", "photo_id": 85922627, "longitude": 26.001329, "height": 60, "width": 60, "photo_title": "Evros Thraki-HDR", "latitude": 40.841521, "owner_url": "http://www.panoramio.com/user/512124", "owner_id": 512124, "photo_file_url": "http://mw2.google.com/mw-panoramio/photos/square/85922627.jpg", "photo_url": "http://www.panoramio.com/photo/85922627"}, {"upload_date": "25 August 2012", "owner_name": "\u25c4Maria \u0397-S\u25ba", "photo_id": 77665233, "longitude": 26.013946, "height": 60, "width": 60, "photo_title": "\u039a\u03bf\u03bc\u03bf\u03c4\u03b7\u03bd\u03ae - Komotini", "latitude": 40.803774, "owner_url": "http://www.panoramio.com/user/1698637", "owner_id": 1698637, "photo_file_url": "http://mw2.google.com/mw-panoramio/photos/square/77665233.jpg", "photo_url": "http://www.panoramio.com/photo/77665233"}, {"upload_date": "01 May 2008", "owner_name": "\u0395\u03bb\u03ad\u03bd\u03b7 \u039b.", "photo_id": 9824396, "longitude": 26.033134, "height": 60, "width": 60, "photo_title": "\u0391\u03c6\u03b7\u03c1\u03b7\u03bc\u03b5\u03bd\u03b7 \u03c4\u03b5\u03c7\u03bd\u03b7", "latitude": 40.761301, "owner_url": "http://www.panoramio.com/user/1676061", "owner_id": 1676061, "photo_file_url": "http://mw2.google.com/mw-panoramio/photos/square/9824396.jpg", "photo_url": "http://www.panoramio.com/photo/9824396"}, {"upload_date": "17 January 2014", "owner_name": "alexandros_parotidis", "photo_id": 101892060, "longitude": 25.969706, "height": 60, "width": 60, "photo_title": "RIVERSIDE", "latitude": 40.834187, "owner_url": "http://www.panoramio.com/user/456886", "owner_id": 456886, "photo_file_url": "http://mw2.google.com/mw-panoramio/photos/square/101892060.jpg", "photo_url": "http://www.panoramio.com/photo/101892060"}, {"upload_date": "10 April 2009", "owner_name": "Gregory cy", "photo_id": 21003125, "longitude": 26.049464, "height": 60, "width": 60, "photo_title": "In the top", "latitude": 40.742673, "owner_url": "http://www.panoramio.com/user/2301383", "owner_id": 2301383, "photo_file_url": "http://mw2.google.com/mw-panoramio/photos/square/21003125.jpg", "photo_url": "http://www.panoramio.com/photo/21003125"}, {"upload_date": "14 January 2012", "owner_name": "Dimitris Kaliakoudas", "photo_id": 64914191, "longitude": 26.015410000000003, "height": 60, "width": 60, "photo_title": "\u03a7\u03bf\u03c5\u03bb\u03b9\u03b1\u03c1\u03bf\u03bc\u03cd\u03c4\u03b1 (Platalea leucorodia)", "latitude": 40.810659, "owner_url": "http://www.panoramio.com/user/4362169", "owner_id": 4362169, "photo_file_url": "http://mw2.google.com/mw-panoramio/photos/square/64914191.jpg", "photo_url": "http://www.panoramio.com/photo/64914191"}, {"upload_date": "17 February 2007", "owner_name": "\u03a0\u03b1\u03cd\u03bb\u03bf\u03c2 \u039c\u03ac\u03bd\u03c4\u03b6\u03b9\u03bf\u03c2", "photo_id": 858180, "longitude": 26.015282, "height": 60, "width": 60, "photo_title": "\u0394\u03ad\u03bb\u03c4\u03b1 \u03c4\u03bf\u03c5 \u0388\u03b2\u03c1\u03bf\u03c5_004", "latitude": 40.817447, "owner_url": "http://www.panoramio.com/user/60538", "owner_id": 60538, "photo_file_url": "http://mw2.google.com/mw-panoramio/photos/square/858180.jpg", "photo_url": "http://www.panoramio.com/photo/858180"}, {"upload_date": "14 August 2012", "owner_name": "alexandros_parotidis", "photo_id": 77073624, "longitude": 26.013411, "height": 60, "width": 60, "photo_title": "river", "latitude": 40.813081, "owner_url": "http://www.panoramio.com/user/456886", "owner_id": 456886, "photo_file_url": "http://mw2.google.com/mw-panoramio/photos/square/77073624.jpg", "photo_url": "http://www.panoramio.com/photo/77073624"}, {"upload_date": "10 April 2009", "owner_name": "Gregory cy", "photo_id": 21003224, "longitude": 26.031675, "height": 60, "width": 60, "photo_title": "Evros - Delta", "latitude": 40.740494, "owner_url": "http://www.panoramio.com/user/2301383", "owner_id": 2301383, "photo_file_url": "http://mw2.google.com/mw-panoramio/photos/square/21003224.jpg", "photo_url": "http://www.panoramio.com/photo/21003224"}, {"upload_date": "10 April 2009", "owner_name": "Gregory cy", "photo_id": 21003231, "longitude": 26.034272, "height": 60, "width": 60, "photo_title": "Evros - Delta", "latitude": 40.742868, "owner_url": "http://www.panoramio.com/user/2301383", "owner_id": 2301383, "photo_file_url": "http://mw2.google.com/mw-panoramio/photos/square/21003231.jpg", "photo_url": "http://www.panoramio.com/photo/21003231"}, {"upload_date": "10 April 2009", "owner_name": "Gregory cy", "photo_id": 21003033, "longitude": 26.054463, "height": 60, "width": 60, "photo_title": "Boating in the delta", "latitude": 40.762016, "owner_url": "http://www.panoramio.com/user/2301383", "owner_id": 2301383, "photo_file_url": "http://mw2.google.com/mw-panoramio/photos/square/21003033.jpg", "photo_url": "http://www.panoramio.com/photo/21003033"}, {"upload_date": "14 August 2012", "owner_name": "alexandros_parotidis", "photo_id": 77073447, "longitude": 26.033321, "height": 60, "width": 60, "photo_title": "alexandroupoli", "latitude": 40.762892, "owner_url": "http://www.panoramio.com/user/456886", "owner_id": 456886, "photo_file_url": "http://mw2.google.com/mw-panoramio/photos/square/77073447.jpg", "photo_url": "http://www.panoramio.com/photo/77073447"}, {"upload_date": "29 August 2008", "owner_name": "dimilouk", "photo_id": 13619873, "longitude": 26.078453, "height": 60, "width": 60, "photo_title": "delta evrou", "latitude": 40.763641, "owner_url": "http://www.panoramio.com/user/938791", "owner_id": 938791, "photo_file_url": "http://mw2.google.com/mw-panoramio/photos/square/13619873.jpg", "photo_url": "http://www.panoramio.com/photo/13619873"}, {"upload_date": "29 August 2008", "owner_name": "dimilouk", "photo_id": 13619774, "longitude": 26.050644, "height": 60, "width": 60, "photo_title": "delta evrou", "latitude": 40.786001, "owner_url": "http://www.panoramio.com/user/938791", "owner_id": 938791, "photo_file_url": "http://mw2.google.com/mw-panoramio/photos/square/13619774.jpg", "photo_url": "http://www.panoramio.com/photo/13619774"}, {"upload_date": "25 August 2012", "owner_name": "\u25c4Maria \u0397-S\u25ba", "photo_id": 77665170, "longitude": 26.026445, "height": 60, "width": 60, "photo_title": "\u0391\u03bb\u03b5\u03be\u03b1\u03bd\u03b4\u03c1\u03bf\u03cd\u03c0\u03bf\u03bb\u03b7 \u0394\u03ad\u03bb\u03c4\u03b1 \u0388\u03b2\u03c1\u03bf\u03c5 - Alexandroupoli Evros Delta ", "latitude": 40.813795, "owner_url": "http://www.panoramio.com/user/1698637", "owner_id": 1698637, "photo_file_url": "http://mw2.google.com/mw-panoramio/photos/square/77665170.jpg", "photo_url": "http://www.panoramio.com/photo/77665170"}, {"upload_date": "02 November 2012", "owner_name": "Xanthos Nerantzis", "photo_id": 81505763, "longitude": 26.042965, "height": 60, "width": 60, "photo_title": "\u03c3\u03c4\u03bf \u0394\u03ad\u03bb\u03c4\u03b1 \u03c4\u03bf\u03c5 \u0388\u03b2\u03c1\u03bf\u03c5", "latitude": 40.77864, "owner_url": "http://www.panoramio.com/user/3934915", "owner_id": 3934915, "photo_file_url": "http://mw2.google.com/mw-panoramio/photos/square/81505763.jpg", "photo_url": "http://www.panoramio.com/photo/81505763"}, {"upload_date": "10 April 2009", "owner_name": "Gregory cy", "photo_id": 21003465, "longitude": 26.036181, "height": 60, "width": 60, "photo_title": "In the finish of delta with boat", "latitude": 40.745501, "owner_url": "http://www.panoramio.com/user/2301383", "owner_id": 2301383, "photo_file_url": "http://mw2.google.com/mw-panoramio/photos/square/21003465.jpg", "photo_url": "http://www.panoramio.com/photo/21003465"}, {"upload_date": "18 December 2007", "owner_name": "MERAKLIS", "photo_id": 6554520, "longitude": 26.035495, "height": 60, "width": 60, "photo_title": "FISHERMANS SETTLEMENT IN EVROS DELTA", "latitude": 40.738836, "owner_url": "http://www.panoramio.com/user/1194013", "owner_id": 1194013, "photo_file_url": "http://mw2.google.com/mw-panoramio/photos/square/6554520.jpg", "photo_url": "http://www.panoramio.com/photo/6554520"}, {"upload_date": "17 March 2009", "owner_name": "giannisk8", "photo_id": 20139043, "longitude": 26.0762, "height": 60, "width": 60, "photo_title": "delta evrou (euthigramisi)", "latitude": 40.749972, "owner_url": "http://www.panoramio.com/user/2977182", "owner_id": 2977182, "photo_file_url": "http://mw2.google.com/mw-panoramio/photos/square/20139043.jpg", "photo_url": "http://www.panoramio.com/photo/20139043"}, {"upload_date": "09 April 2011", "owner_name": "studiostaralexpoli", "photo_id": 50759625, "longitude": 26.10579, "height": 60, "width": 60, "photo_title": "\u039e\u0395\u03a1\u0397 \u03a0\u0395\u03a4\u03a1\u0391 [\u03ba\u03bf\u03c5\u03c1\u03bf\u03c5\u03c4\u03b1\u03c2] \u0394\u0395\u039b\u03a4\u0391 \u0395\u0392\u03a1\u039f\u03a5", "latitude": 40.744493, "owner_url": "http://www.panoramio.com/user/5758887", "owner_id": 5758887, "photo_file_url": "http://mw2.google.com/mw-panoramio/photos/square/50759625.jpg", "photo_url": "http://www.panoramio.com/photo/50759625"}, {"upload_date": "05 June 2008", "owner_name": "Constantinos17", "photo_id": 10930066, "longitude": 26.031933, "height": 60, "width": 60, "photo_title": "Wetland birds (Ardea Cinerea-Grey Heron and egret)", "latitude": 40.784571, "owner_url": "http://www.panoramio.com/user/1776904", "owner_id": 1776904, "photo_file_url": "http://mw2.google.com/mw-panoramio/photos/square/10930066.jpg", "photo_url": "http://www.panoramio.com/photo/10930066"}, {"upload_date": "20 December 2013", "owner_name": "TANJU KORAY UCAR", "photo_id": 100726375, "longitude": 26.116192, "height": 60, "width": 60, "photo_title": "Edirne Enez ", "latitude": 40.740429, "owner_url": "http://www.panoramio.com/user/526150", "owner_id": 526150, "photo_file_url": "http://mw2.google.com/mw-panoramio/photos/square/100726375.jpg", "photo_url": "http://www.panoramio.com/photo/100726375"}, {"upload_date": "04 March 2007", "owner_name": "Andreas Zervas", "photo_id": 1169588, "longitude": 26.091413, "height": 60, "width": 60, "photo_title": "Evros River - Fishermen hut 2", "latitude": 40.75545, "owner_url": "http://www.panoramio.com/user/240356", "owner_id": 240356, "photo_file_url": "http://mw2.google.com/mw-panoramio/photos/square/1169588.jpg", "photo_url": "http://www.panoramio.com/photo/1169588"}, {"upload_date": "17 March 2009", "owner_name": "giannisk8", "photo_id": 20139164, "longitude": 26.016397, "height": 60, "width": 60, "photo_title": "delta evrou (xarama koutsoures)", "latitude": 40.748427, "owner_url": "http://www.panoramio.com/user/2977182", "owner_id": 2977182, "photo_file_url": "http://mw2.google.com/mw-panoramio/photos/square/20139164.jpg", "photo_url": "http://www.panoramio.com/photo/20139164"}, {"upload_date": "17 April 2009", "owner_name": "giannisk8", "photo_id": 21292811, "longitude": 26.077423, "height": 60, "width": 60, "photo_title": "delta evrou", "latitude": 40.761301, "owner_url": "http://www.panoramio.com/user/2977182", "owner_id": 2977182, "photo_file_url": "http://mw2.google.com/mw-panoramio/photos/square/21292811.jpg", "photo_url": "http://www.panoramio.com/photo/21292811"}, {"upload_date": "14 April 2011", "owner_name": "studiostaralexpoli", "photo_id": 51039909, "longitude": 26.115146, "height": 60, "width": 60, "photo_title": "\u0394\u0395\u039b\u03a4\u0391 \u0395\u0392\u03a1\u039f\u03a5 [\u03a4\u039f\u03a0\u039f\u0398\u0395\u03a3\u0399\u0391  \u0391\u03a1\u039c\u0395\u039d\u0399]", "latitude": 40.754962, "owner_url": "http://www.panoramio.com/user/5758887", "owner_id": 5758887, "photo_file_url": "http://mw2.google.com/mw-panoramio/photos/square/51039909.jpg", "photo_url": "http://www.panoramio.com/photo/51039909"}, {"upload_date": "19 April 2011", "owner_name": "studiostaralexpoli", "photo_id": 51307998, "longitude": 26.025238, "height": 60, "width": 60, "photo_title": "\u0394\u03a1\u0391\u039d\u0391 \u039a\u0391\u039b\u039f\u039a\u0391\u0399\u03a1\u0399\u039d\u0397 \u03a0\u0395\u03a1\u0399\u039f\u0394\u039f\u03a3 1993", "latitude": 40.822383, "owner_url": "http://www.panoramio.com/user/5758887", "owner_id": 5758887, "photo_file_url": "http://mw2.google.com/mw-panoramio/photos/square/51307998.jpg", "photo_url": "http://www.panoramio.com/photo/51307998"}, {"upload_date": "20 April 2011", "owner_name": "studiostaralexpoli", "photo_id": 51362809, "longitude": 25.984619, "height": 60, "width": 60, "photo_title": "\u0391\u039d\u0398\u0395\u0399\u0391  (\u03a0\u0391\u03a1\u0391\u039b\u0399\u0391 \u0391\u039d\u0398\u0395\u0399\u0391\u03a3)", "latitude": 40.823845, "owner_url": "http://www.panoramio.com/user/5758887", "owner_id": 5758887, "photo_file_url": "http://mw2.google.com/mw-panoramio/photos/square/51362809.jpg", "photo_url": "http://www.panoramio.com/photo/51362809"}, {"upload_date": "26 May 2011", "owner_name": "studiostaralexpoli", "photo_id": 53250894, "longitude": 26.069956, "height": 60, "width": 60, "photo_title": "\u0394\u0395\u039b\u03a4\u0391 \u0395\u0392\u03a1\u039f\u03a5 ( \u039b\u0399\u039c\u039d\u0397 \u03a3\u03a0\u0399\u03a4\u0399\u0391 )", "latitude": 40.738348, "owner_url": "http://www.panoramio.com/user/5758887", "owner_id": 5758887, "photo_file_url": "http://mw2.google.com/mw-panoramio/photos/square/53250894.jpg", "photo_url": "http://www.panoramio.com/photo/53250894"}, {"upload_date": "15 April 2011", "owner_name": "studiostaralexpoli", "photo_id": 51089720, "longitude": 26.030216, "height": 60, "width": 60, "photo_title": "\u0394\u0395\u039b\u03a4\u0391 \u0395\u0392\u03a1\u039f\u03a5 [ \u0394\u03a1\u0391\u039d\u0391 ]", "latitude": 40.795618, "owner_url": "http://www.panoramio.com/user/5758887", "owner_id": 5758887, "photo_file_url": "http://mw2.google.com/mw-panoramio/photos/square/51089720.jpg", "photo_url": "http://www.panoramio.com/photo/51089720"}, {"upload_date": "20 April 2011", "owner_name": "studiostaralexpoli", "photo_id": 51360962, "longitude": 26.054764, "height": 60, "width": 60, "photo_title": "\u0397\u039b\u0399\u039f\u0392\u0391\u03a3\u0399\u039b\u0395\u039c\u0391  \u03a3\u03a4\u039f \u0394\u0395\u039b\u03a4\u0391  \u03a4\u039f\u03a5 \u0395\u0392\u03a1\u039f\u03a5", "latitude": 40.744786, "owner_url": "http://www.panoramio.com/user/5758887", "owner_id": 5758887, "photo_file_url": "http://mw2.google.com/mw-panoramio/photos/square/51360962.jpg", "photo_url": "http://www.panoramio.com/photo/51360962"}, {"upload_date": "07 July 2011", "owner_name": "studiostaralexpoli", "photo_id": 55349250, "longitude": 26.026095999999995, "height": 60, "width": 60, "photo_title": "\u0391\u0393\u0395\u039b\u0391\u0394\u0395\u03a3 \u03a3\u03a4\u039f \u039dH\u03a3\u0391\u039a\u0399 \u0391\u039d\u0391\u039c\u0395\u03a3\u0391 \u0395\u0392\u03a1\u039f & \u0395\u03a5\u0398\u03a5\u0393\u03a1\u0391\u039c\u039c\u0399\u03a3\u0397", "latitude": 40.736982, "owner_url": "http://www.panoramio.com/user/5758887", "owner_id": 5758887, "photo_file_url": "http://mw2.google.com/mw-panoramio/photos/square/55349250.jpg", "photo_url": "http://www.panoramio.com/photo/55349250"}, {"upload_date": "16 April 2011", "owner_name": "studiostaralexpoli", "photo_id": 51138377, "longitude": 26.051159, "height": 60, "width": 60, "photo_title": "\u03a3\u03a4\u0391\u0398\u039c\u039f\u03a3 13  \u039b\u039fY\u03a4\u03a1\u0391 \u0391\u039b\u0395\u039e/\u03a0\u039f\u039b\u0397\u03a3", "latitude": 40.842385, "owner_url": "http://www.panoramio.com/user/5758887", "owner_id": 5758887, "photo_file_url": "http://mw2.google.com/mw-panoramio/photos/square/51138377.jpg", "photo_url": "http://www.panoramio.com/photo/51138377"}, {"upload_date": "15 September 2011", "owner_name": "studiostaralexpoli", "photo_id": 59025840, "longitude": 26.030388, "height": 60, "width": 60, "photo_title": "\u03a0\u03b5\u03bb\u03b5\u03ba\u03b1\u03bd\u03bf\u03b9             (\u03c3\u03c4\u03bf \u03be\u03b5\u03c1\u03b1\u03b4\u03b9 \u03c4\u03bf\u03c5 \u03ba\u03b1\u03c1\u03b1\u03b2\u03b9\u03bf\u03c5 )", "latitude": 40.753499, "owner_url": "http://www.panoramio.com/user/5758887", "owner_id": 5758887, "photo_file_url": "http://mw2.google.com/mw-panoramio/photos/square/59025840.jpg", "photo_url": "http://www.panoramio.com/photo/59025840"}, {"upload_date": "16 November 2011", "owner_name": "studiostaralexpoli", "photo_id": 62236587, "longitude": 26.004639, "height": 60, "width": 60, "photo_title": "\u0394\u0395\u039b\u03a4\u0391 \u0395\u0392\u03a1\u039f\u03a5", "latitude": 40.78678, "owner_url": "http://www.panoramio.com/user/5758887", "owner_id": 5758887, "photo_file_url": "http://mw2.google.com/mw-panoramio/photos/square/62236587.jpg", "photo_url": "http://www.panoramio.com/photo/62236587"}, {"upload_date": "14 February 2010", "owner_name": "aegeandive", "photo_id": 32158200, "longitude": 26.017470000000003, "height": 60, "width": 60, "photo_title": "Drana, near Alexandroupolis", "latitude": 40.83534, "owner_url": "http://www.panoramio.com/user/538533", "owner_id": 538533, "photo_file_url": "http://mw2.google.com/mw-panoramio/photos/square/32158200.jpg", "photo_url": "http://www.panoramio.com/photo/32158200"}, {"upload_date": "19 September 2013", "owner_name": "ylz_", "photo_id": 96511143, "longitude": 26.08017, "height": 60, "width": 60, "photo_title": "fere ", "latitude": 40.847937, "owner_url": "http://www.panoramio.com/user/7904151", "owner_id": 7904151, "photo_file_url": "http://mw2.google.com/mw-panoramio/photos/square/96511143.jpg", "photo_url": "http://www.panoramio.com/photo/96511143"}, {"upload_date": "10 April 2009", "owner_name": "Gregory cy", "photo_id": 21003252, "longitude": 26.033521, "height": 60, "width": 60, "photo_title": "Evros - Delta", "latitude": 40.745209, "owner_url": "http://www.panoramio.com/user/2301383", "owner_id": 2301383, "photo_file_url": "http://mw2.google.com/mw-panoramio/photos/square/21003252.jpg", "photo_url": "http://www.panoramio.com/photo/21003252"}, {"upload_date": "13 April 2011", "owner_name": "studiostaralexpoli", "photo_id": 51022141, "longitude": 26.059399, "height": 60, "width": 60, "photo_title": "\u039b\u03b9\u03bc\u03bd\u03b7 \u03a0\u03b1\u03bb\u03bf\u03c5\u03ba\u03b9\u03b1 [ \u03ba\u03b1\u03b6\u03b9\u03ba\u03bb\u03b9 ] \u0394\u0395\u039b\u03a4\u0391 \u0395\u0392\u03a1\u039f\u03a5", "latitude": 40.780151, "owner_url": "http://www.panoramio.com/user/5758887", "owner_id": 5758887, "photo_file_url": "http://mw2.google.com/mw-panoramio/photos/square/51022141.jpg", "photo_url": "http://www.panoramio.com/photo/51022141"}, {"upload_date": "28 May 2008", "owner_name": "Constantinos17", "photo_id": 10695330, "longitude": 26.027212, "height": 60, "width": 60, "photo_title": "Swamp at Evros delta", "latitude": 40.791589, "owner_url": "http://www.panoramio.com/user/1776904", "owner_id": 1776904, "photo_file_url": "http://mw2.google.com/mw-panoramio/photos/square/10695330.jpg", "photo_url": "http://www.panoramio.com/photo/10695330"}, {"upload_date": "14 April 2011", "owner_name": "studiostaralexpoli", "photo_id": 51040722, "longitude": 26.051669, "height": 60, "width": 60, "photo_title": "\u0394\u0395\u039b\u03a4\u0391 \u0395\u0392\u03a1\u039f\u03a5 [\u0391\u03a0\u039f\u03a8\u0397 \u0395\u03a5\u0398\u03a5\u0393\u03a1\u0391\u039c\u0399\u03a3\u0397\u03a3 ]", "latitude": 40.743514, "owner_url": "http://www.panoramio.com/user/5758887", "owner_id": 5758887, "photo_file_url": "http://mw2.google.com/mw-panoramio/photos/square/51040722.jpg", "photo_url": "http://www.panoramio.com/photo/51040722"}, {"upload_date": "31 August 2008", "owner_name": "dimilouk", "photo_id": 13680831, "longitude": 26.06369, "height": 60, "width": 60, "photo_title": "delta evrou", "latitude": 40.784701, "owner_url": "http://www.panoramio.com/user/938791", "owner_id": 938791, "photo_file_url": "http://mw2.google.com/mw-panoramio/photos/square/13680831.jpg", "photo_url": "http://www.panoramio.com/photo/13680831"}, {"upload_date": "09 April 2009", "owner_name": "giannisk8", "photo_id": 20983106, "longitude": 26.073883, "height": 60, "width": 60, "photo_title": "gr xarama eu8igramisi delta evrou", "latitude": 40.749744, "owner_url": "http://www.panoramio.com/user/2977182", "owner_id": 2977182, "photo_file_url": "http://mw2.google.com/mw-panoramio/photos/square/20983106.jpg", "photo_url": "http://www.panoramio.com/photo/20983106"}, {"upload_date": "31 August 2008", "owner_name": "dimilouk", "photo_id": 13681079, "longitude": 26.086864, "height": 60, "width": 60, "photo_title": "delta evrou", "latitude": 40.805234, "owner_url": "http://www.panoramio.com/user/938791", "owner_id": 938791, "photo_file_url": "http://mw2.google.com/mw-panoramio/photos/square/13681079.jpg", "photo_url": "http://www.panoramio.com/photo/13681079"}, {"upload_date": "09 April 2011", "owner_name": "studiostaralexpoli", "photo_id": 50760925, "longitude": 26.04706, "height": 60, "width": 60, "photo_title": "\u039a\u0391\u039d\u0391\u039b\u0399 \u03a6\u03a9\u03a4\u039f\u0393\u03a1\u0391\u03a6\u039f\u03a5 \u0394\u0395\u039b\u03a4\u0391 \u0395\u0392\u03a1\u039f\u03a5", "latitude": 40.744656, "owner_url": "http://www.panoramio.com/user/5758887", "owner_id": 5758887, "photo_file_url": "http://mw2.google.com/mw-panoramio/photos/square/50760925.jpg", "photo_url": "http://www.panoramio.com/photo/50760925"}, {"upload_date": "31 August 2008", "owner_name": "dimilouk", "photo_id": 13680656, "longitude": 26.069698, "height": 60, "width": 60, "photo_title": "delta evrou", "latitude": 40.782751, "owner_url": "http://www.panoramio.com/user/938791", "owner_id": 938791, "photo_file_url": "http://mw2.google.com/mw-panoramio/photos/square/13680656.jpg", "photo_url": "http://www.panoramio.com/photo/13680656"}, {"upload_date": "26 July 2008", "owner_name": "papferes", "photo_id": 12497615, "longitude": 26.127548, "height": 60, "width": 60, "photo_title": "\u039a\u0391\u039b\u03a5\u0392\u0395\u03a3 \u0394\u0395\u039b\u03a4\u0391 \u03a4\u039f\u03a5 \u0395\u0392\u03a1\u039f\u03a5", "latitude": 40.768582, "owner_url": "http://www.panoramio.com/user/622842", "owner_id": 622842, "photo_file_url": "http://mw2.google.com/mw-panoramio/photos/square/12497615.jpg", "photo_url": "http://www.panoramio.com/photo/12497615"}, {"upload_date": "13 April 2011", "owner_name": "studiostaralexpoli", "photo_id": 51021466, "longitude": 26.022663, "height": 60, "width": 60, "photo_title": "\u039c\u03a5\u0394\u039f\u03a4\u03a1\u039f\u03a6\u0395\u0399\u039f \u0394\u03a1\u0391\u039d\u0391-\u0394\u0395\u039b\u03a4\u0391 \u0395\u0392\u03a1\u039f\u03a5", "latitude": 40.798656, "owner_url": "http://www.panoramio.com/user/5758887", "owner_id": 5758887, "photo_file_url": "http://mw2.google.com/mw-panoramio/photos/square/51021466.jpg", "photo_url": "http://www.panoramio.com/photo/51021466"}, {"upload_date": "20 December 2013", "owner_name": "TANJU KORAY UCAR", "photo_id": 100726398, "longitude": 26.103867, "height": 60, "width": 60, "photo_title": "Edirne Enez ", "latitude": 40.737466, "owner_url": "http://www.panoramio.com/user/526150", "owner_id": 526150, "photo_file_url": "http://mw2.google.com/mw-panoramio/photos/square/100726398.jpg", "photo_url": "http://www.panoramio.com/photo/100726398"}, {"upload_date": "29 December 2013", "owner_name": "TANJU KORAY UCAR", "photo_id": 101093186, "longitude": 26.124461, "height": 60, "width": 60, "photo_title": "Edirne Enez Meri\u00e7 Nehri", "latitude": 40.741778, "owner_url": "http://www.panoramio.com/user/526150", "owner_id": 526150, "photo_file_url": "http://mw2.google.com/mw-panoramio/photos/square/101093186.jpg", "photo_url": "http://www.panoramio.com/photo/101093186"}, {"upload_date": "20 December 2013", "owner_name": "TANJU KORAY UCAR", "photo_id": 100726415, "longitude": 26.113054, "height": 60, "width": 60, "photo_title": "Edirne Enez ", "latitude": 40.738823, "owner_url": "http://www.panoramio.com/user/526150", "owner_id": 526150, "photo_file_url": "http://mw2.google.com/mw-panoramio/photos/square/100726415.jpg", "photo_url": "http://www.panoramio.com/photo/100726415"}, {"upload_date": "20 December 2013", "owner_name": "TANJU KORAY UCAR", "photo_id": 100726410, "longitude": 26.109392, "height": 60, "width": 60, "photo_title": "Edirne Enez ", "latitude": 40.737909, "owner_url": "http://www.panoramio.com/user/526150", "owner_id": 526150, "photo_file_url": "http://mw2.google.com/mw-panoramio/photos/square/100726410.jpg", "photo_url": "http://www.panoramio.com/photo/100726410"}, {"upload_date": "29 December 2013", "owner_name": "TANJU KORAY UCAR", "photo_id": 101093061, "longitude": 26.121449, "height": 60, "width": 60, "photo_title": "Edirne Enez Meri\u00e7 Nehri", "latitude": 40.741717, "owner_url": "http://www.panoramio.com/user/526150", "owner_id": 526150, "photo_file_url": "http://mw2.google.com/mw-panoramio/photos/square/101093061.jpg", "photo_url": "http://www.panoramio.com/photo/101093061"}, {"upload_date": "17 December 2011", "owner_name": "studiostaralexpoli", "photo_id": 63604380, "longitude": 26.018887, "height": 60, "width": 60, "photo_title": "flamigo  \u03c3\u03c4\u03b7\u03bd drana (delta evrou )", "latitude": 40.809262, "owner_url": "http://www.panoramio.com/user/5758887", "owner_id": 5758887, "photo_file_url": "http://mw2.google.com/mw-panoramio/photos/square/63604380.jpg", "photo_url": "http://www.panoramio.com/photo/63604380"}, {"upload_date": "10 May 2011", "owner_name": "studiostaralexpoli", "photo_id": 52471183, "longitude": 26.127119, "height": 60, "width": 60, "photo_title": "delta evrou (\u039c\u03b1\u03c5\u03c1\u03bf\u03ba\u03bf\u03c4\u03b1 \u03c3\u03b5 \u03b1\u03c0\u03bf\u03b3\u03b9\u03c9\u03c3\u03b7 )", "latitude": 40.771767, "owner_url": "http://www.panoramio.com/user/5758887", "owner_id": 5758887, "photo_file_url": "http://mw2.google.com/mw-panoramio/photos/square/52471183.jpg", "photo_url": "http://www.panoramio.com/photo/52471183"}, {"upload_date": "29 March 2009", "owner_name": "Panos T", "photo_id": 20592642, "longitude": 26.062317, "height": 60, "width": 60, "photo_title": "fishing boats", "latitude": 40.764161, "owner_url": "http://www.panoramio.com/user/142698", "owner_id": 142698, "photo_file_url": "http://mw2.google.com/mw-panoramio/photos/square/20592642.jpg", "photo_url": "http://www.panoramio.com/photo/20592642"}, {"upload_date": "23 May 2011", "owner_name": "studiostaralexpoli", "photo_id": 53103543, "longitude": 26.010389, "height": 60, "width": 60, "photo_title": "\u0392\u039f\u03a5\u0392\u0391\u039b\u0399\u0391 \u03a3\u03a4\u0397\u039d \u039b\u0399\u039c\u039d\u0397 \u039b\u0391\u039a\u0399 \u0394\u0399\u03a0\u039b\u0391 \u03a3\u03a4\u0397\u039d \u0394\u03a1\u0391\u039d\u0391", "latitude": 40.82011, "owner_url": "http://www.panoramio.com/user/5758887", "owner_id": 5758887, "photo_file_url": "http://mw2.google.com/mw-panoramio/photos/square/53103543.jpg", "photo_url": "http://www.panoramio.com/photo/53103543"}, {"upload_date": "22 August 2011", "owner_name": "studiostaralexpoli", "photo_id": 57738870, "longitude": 25.944557000000003, "height": 60, "width": 60, "photo_title": "\u0397\u039b\u0399\u039f\u0392\u0391\u03a3\u0399\u039b\u0395\u039c\u0391 \u03a3\u03a4\u0397\u039d \u0391\u039b\u0395\u039e/\u03a0\u039f\u039b\u0397", "latitude": 40.842515, "owner_url": "http://www.panoramio.com/user/5758887", "owner_id": 5758887, "photo_file_url": "http://mw2.google.com/mw-panoramio/photos/square/57738870.jpg", "photo_url": "http://www.panoramio.com/photo/57738870"}, {"upload_date": "20 January 2013", "owner_name": "Grigorij Starodubcev", "photo_id": 84956778, "longitude": 26.046352, "height": 60, "width": 60, "photo_title": "FLAMINGO - DELTA EVROS", "latitude": 40.740784, "owner_url": "http://www.panoramio.com/user/4015825", "owner_id": 4015825, "photo_file_url": "http://mw2.google.com/mw-panoramio/photos/square/84956778.jpg", "photo_url": "http://www.panoramio.com/photo/84956778"}, {"upload_date": "29 March 2009", "owner_name": "Panos T", "photo_id": 20592614, "longitude": 26.123772, "height": 60, "width": 60, "photo_title": "Calf", "latitude": 40.78704, "owner_url": "http://www.panoramio.com/user/142698", "owner_id": 142698, "photo_file_url": "http://mw2.google.com/mw-panoramio/photos/square/20592614.jpg", "photo_url": "http://www.panoramio.com/photo/20592614"}, {"upload_date": "04 March 2007", "owner_name": "Andreas Zervas", "photo_id": 1169579, "longitude": 26.097336, "height": 60, "width": 60, "photo_title": "Evros river - Fishermen hut 1", "latitude": 40.757855, "owner_url": "http://www.panoramio.com/user/240356", "owner_id": 240356, "photo_file_url": "http://mw2.google.com/mw-panoramio/photos/square/1169579.jpg", "photo_url": "http://www.panoramio.com/photo/1169579"}, {"upload_date": "22 April 2011", "owner_name": "studiostaralexpoli", "photo_id": 51469922, "longitude": 26.019316, "height": 60, "width": 60, "photo_title": "DELTA EVROU (DRANA  ANOIJH 2011 )", "latitude": 40.819396, "owner_url": "http://www.panoramio.com/user/5758887", "owner_id": 5758887, "photo_file_url": "http://mw2.google.com/mw-panoramio/photos/square/51469922.jpg", "photo_url": "http://www.panoramio.com/photo/51469922"}, {"upload_date": "28 June 2010", "owner_name": "\u039f\u039c\u0397\u03a1\u039f\u03a3", "photo_id": 37281153, "longitude": 26.032104, "height": 60, "width": 60, "photo_title": "\u039a\u0391\u039b\u03a5\u0392\u0395\u03a3 \u03a8\u0391\u03a1\u0391\u0394\u03a9\u039d \u03a3\u03a4\u039f \u0394\u0395\u039b\u03a4\u0391 \u03a4\u039f\u03a5 \u0395\u0392\u03a1\u039f\u03a5", "latitude": 40.738153, "owner_url": "http://www.panoramio.com/user/4277760", "owner_id": 4277760, "photo_file_url": "http://mw2.google.com/mw-panoramio/photos/square/37281153.jpg", "photo_url": "http://www.panoramio.com/photo/37281153"}, {"upload_date": "17 April 2009", "owner_name": "giannisk8", "photo_id": 21292715, "longitude": 26.021805, "height": 60, "width": 60, "photo_title": "delta evrou me 8ea ti samo8raki", "latitude": 40.739974, "owner_url": "http://www.panoramio.com/user/2977182", "owner_id": 2977182, "photo_file_url": "http://mw2.google.com/mw-panoramio/photos/square/21292715.jpg", "photo_url": "http://www.panoramio.com/photo/21292715"}, {"upload_date": "17 April 2009", "owner_name": "giannisk8", "photo_id": 21292442, "longitude": 26.060858, "height": 60, "width": 60, "photo_title": "delta evrou ellada", "latitude": 40.766209, "owner_url": "http://www.panoramio.com/user/2977182", "owner_id": 2977182, "photo_file_url": "http://mw2.google.com/mw-panoramio/photos/square/21292442.jpg", "photo_url": "http://www.panoramio.com/photo/21292442"}, {"upload_date": "14 April 2011", "owner_name": "studiostaralexpoli", "photo_id": 51043970, "longitude": 26.039658, "height": 60, "width": 60, "photo_title": "\u0394\u0395\u039b\u03a4\u0391 \u0395\u0392\u03a1\u039f\u03a5 \u0391\u03a0\u039f\u03a8\u0397 \u0391\u03a0\u039f \u03a4\u039f \u039a\u0391\u039d\u0391\u039b\u0399 [\u03a0\u0391\u039b\u0391\u0399\u0391 \u039c\u0391\u03a1\u0399\u03a4\u03a3\u0391 ]", "latitude": 40.747883, "owner_url": "http://www.panoramio.com/user/5758887", "owner_id": 5758887, "photo_file_url": "http://mw2.google.com/mw-panoramio/photos/square/51043970.jpg", "photo_url": "http://www.panoramio.com/photo/51043970"}, {"upload_date": "14 April 2011", "owner_name": "studiostaralexpoli", "photo_id": 51041585, "longitude": 26.049185, "height": 60, "width": 60, "photo_title": "\u0394\u0395\u039b\u03a4\u0391 \u0395\u0392\u03a1\u039f\u03a5 \u03a4\u039f\u03a0\u039f\u0398\u0395\u03a3\u0399\u0391 [\u039d\u03a4\u0399\u039c\u03a4\u03a3\u0399\u039a\u039b\u0399\u039a]", "latitude": 40.740689, "owner_url": "http://www.panoramio.com/user/5758887", "owner_id": 5758887, "photo_file_url": "http://mw2.google.com/mw-panoramio/photos/square/51041585.jpg", "photo_url": "http://www.panoramio.com/photo/51041585"}, {"upload_date": "18 September 2012", "owner_name": "studiostaralexpoli", "photo_id": 79103300, "longitude": 25.956169, "height": 60, "width": 60, "photo_title": "\u03a3\u03b1\u03bc\u03bf\u03b8\u03c1\u03b1\u03ba\u03b7 & \u0399\u03bc\u03b2\u03c1\u03bf\u03c2   17.9.2012", "latitude": 40.83745, "owner_url": "http://www.panoramio.com/user/5758887", "owner_id": 5758887, "photo_file_url": "http://mw2.google.com/mw-panoramio/photos/square/79103300.jpg", "photo_url": "http://www.panoramio.com/photo/79103300"}, {"upload_date": "16 December 2011", "owner_name": "Grigorij Starodubcev", "photo_id": 63567884, "longitude": 26.045837, "height": 60, "width": 60, "photo_title": "Delta of Evros", "latitude": 40.759871, "owner_url": "http://www.panoramio.com/user/4015825", "owner_id": 4015825, "photo_file_url": "http://mw2.google.com/mw-panoramio/photos/square/63567884.jpg", "photo_url": "http://www.panoramio.com/photo/63567884"}, {"upload_date": "03 May 2011", "owner_name": "studiostaralexpoli", "photo_id": 52097272, "longitude": 26.040215, "height": 60, "width": 60, "photo_title": "\u039b\u03a5\u0392\u0391\u0394\u0399 (\u0394\u0395\u039b\u03a4\u0391 \u0395\u0392\u03a1\u039f\u03a5 ) DRANA", "latitude": 40.781484, "owner_url": "http://www.panoramio.com/user/5758887", "owner_id": 5758887, "photo_file_url": "http://mw2.google.com/mw-panoramio/photos/square/52097272.jpg", "photo_url": "http://www.panoramio.com/photo/52097272"}, {"upload_date": "03 May 2011", "owner_name": "studiostaralexpoli", "photo_id": 52097561, "longitude": 26.045065, "height": 60, "width": 60, "photo_title": "DELTA EBROY (\u039a\u039f\u03a1\u039c\u039f\u03a3 \u0394\u0395\u039d\u03a4\u03a1\u039f\u03a5 )", "latitude": 40.745176, "owner_url": "http://www.panoramio.com/user/5758887", "owner_id": 5758887, "photo_file_url": "http://mw2.google.com/mw-panoramio/photos/square/52097561.jpg", "photo_url": "http://www.panoramio.com/photo/52097561"}, {"upload_date": "14 April 2011", "owner_name": "studiostaralexpoli", "photo_id": 51042713, "longitude": 26.125649, "height": 60, "width": 60, "photo_title": "\u03a4\u039f\u03a0\u039f\u0398\u0395\u03a3\u0399\u0391 \u039d\u0395\u03a1\u0391\u0399\u0394\u039f\u03a4\u039f\u03a0\u039f\u03a3 2009 \u0394\u0395\u039b\u03a4\u0391 \u0395\u0392\u03a1\u039f\u03a5", "latitude": 40.769849, "owner_url": "http://www.panoramio.com/user/5758887", "owner_id": 5758887, "photo_file_url": "http://mw2.google.com/mw-panoramio/photos/square/51042713.jpg", "photo_url": "http://www.panoramio.com/photo/51042713"}, {"upload_date": "17 April 2009", "owner_name": "giannisk8", "photo_id": 21292496, "longitude": 26.057854, "height": 60, "width": 60, "photo_title": "delta evrou gr", "latitude": 40.770662, "owner_url": "http://www.panoramio.com/user/2977182", "owner_id": 2977182, "photo_file_url": "http://mw2.google.com/mw-panoramio/photos/square/21292496.jpg", "photo_url": "http://www.panoramio.com/photo/21292496"}, {"upload_date": "09 April 2011", "owner_name": "studiostaralexpoli", "photo_id": 50760537, "longitude": 26.034894, "height": 60, "width": 60, "photo_title": "\u0394\u03a1\u0391\u039d\u0391-\u03a7\u0397\u039d\u039f\u03a4\u039f\u03a0\u039f\u03a3", "latitude": 40.782719, "owner_url": "http://www.panoramio.com/user/5758887", "owner_id": 5758887, "photo_file_url": "http://mw2.google.com/mw-panoramio/photos/square/50760537.jpg", "photo_url": "http://www.panoramio.com/photo/50760537"}, {"upload_date": "17 April 2009", "owner_name": "giannisk8", "photo_id": 21293232, "longitude": 26.05957, "height": 60, "width": 60, "photo_title": "delta evrou (xarama sti skepi)", "latitude": 40.762081, "owner_url": "http://www.panoramio.com/user/2977182", "owner_id": 2977182, "photo_file_url": "http://mw2.google.com/mw-panoramio/photos/square/21293232.jpg", "photo_url": "http://www.panoramio.com/photo/21293232"}, {"upload_date": "14 April 2011", "owner_name": "studiostaralexpoli", "photo_id": 51044070, "longitude": 26.114502, "height": 60, "width": 60, "photo_title": "[Kurutas] -[Armeni] DELTA EBROY", "latitude": 40.751418, "owner_url": "http://www.panoramio.com/user/5758887", "owner_id": 5758887, "photo_file_url": "http://mw2.google.com/mw-panoramio/photos/square/51044070.jpg", "photo_url": "http://www.panoramio.com/photo/51044070"}, {"upload_date": "17 March 2009", "owner_name": "giannisk8", "photo_id": 20138925, "longitude": 26.06987, "height": 60, "width": 60, "photo_title": "rigkiol delta evrou", "latitude": 40.761561, "owner_url": "http://www.panoramio.com/user/2977182", "owner_id": 2977182, "photo_file_url": "http://mw2.google.com/mw-panoramio/photos/square/20138925.jpg", "photo_url": "http://www.panoramio.com/photo/20138925"}, {"upload_date": "01 June 2011", "owner_name": "studiostaralexpoli", "photo_id": 53546430, "longitude": 26.120424000000014, "height": 60, "width": 60, "photo_title": "(\u039d\u03a4\u0391\u039f\u03a5\u039b\u0399 \u03a3\u03a4\u039f \u039d\u0395\u03a1\u0391\u0399\u0394\u039f\u03a4\u039f\u03a0\u039f ) \u0399\u03a7\u0398\u03a5\u039f\u03a0\u0391\u0393\u0399\u0394\u0391", "latitude": 40.774302, "owner_url": "http://www.panoramio.com/user/5758887", "owner_id": 5758887, "photo_file_url": "http://mw2.google.com/mw-panoramio/photos/square/53546430.jpg", "photo_url": "http://www.panoramio.com/photo/53546430"}, {"upload_date": "14 April 2011", "owner_name": "studiostaralexpoli", "photo_id": 51044034, "longitude": 26.117635, "height": 60, "width": 60, "photo_title": "[armeni]\u0394\u0395\u039b\u03a4\u0391 \u0395\u0392\u03a1\u039f\u03a5", "latitude": 40.75714, "owner_url": "http://www.panoramio.com/user/5758887", "owner_id": 5758887, "photo_file_url": "http://mw2.google.com/mw-panoramio/photos/square/51044034.jpg", "photo_url": "http://www.panoramio.com/photo/51044034"}, {"upload_date": "23 May 2011", "owner_name": "studiostaralexpoli", "photo_id": 53123738, "longitude": 26.099052, "height": 60, "width": 60, "photo_title": "delta ebroy", "latitude": 40.743095, "owner_url": "http://www.panoramio.com/user/5758887", "owner_id": 5758887, "photo_file_url": "http://mw2.google.com/mw-panoramio/photos/square/53123738.jpg", "photo_url": "http://www.panoramio.com/photo/53123738"}, {"upload_date": "23 May 2011", "owner_name": "studiostaralexpoli", "photo_id": 53100527, "longitude": 26.119738, "height": 60, "width": 60, "photo_title": "DELTA EBROY  \u0395\u03a5\u0398\u03a5\u0393\u03a1\u0391\u039c\u0399\u03a3\u0397", "latitude": 40.766177, "owner_url": "http://www.panoramio.com/user/5758887", "owner_id": 5758887, "photo_file_url": "http://mw2.google.com/mw-panoramio/photos/square/53100527.jpg", "photo_url": "http://www.panoramio.com/photo/53100527"}, {"upload_date": "14 April 2011", "owner_name": "studiostaralexpoli", "photo_id": 51042078, "longitude": 26.06854, "height": 60, "width": 60, "photo_title": "\u03a0\u0395\u03a1\u0399\u039f\u03a7\u0397 \u039a\u0399\u039d\u0395\u039b\u0399 [\u03a0\u0395\u03a4\u03a1\u0395\u03a3] \u0394\u0395\u039b\u03a4\u0391 \u0395\u0392\u03a1\u039f\u03a5", "latitude": 40.773912, "owner_url": "http://www.panoramio.com/user/5758887", "owner_id": 5758887, "photo_file_url": "http://mw2.google.com/mw-panoramio/photos/square/51042078.jpg", "photo_url": "http://www.panoramio.com/photo/51042078"}, {"upload_date": "14 April 2011", "owner_name": "studiostaralexpoli", "photo_id": 51059134, "longitude": 26.065063, "height": 60, "width": 60, "photo_title": "[delta evru]\u0394\u0395\u039b\u03a4\u0391 \u0395\u0392\u03a1\u039f\u03a5", "latitude": 40.764421, "owner_url": "http://www.panoramio.com/user/5758887", "owner_id": 5758887, "photo_file_url": "http://mw2.google.com/mw-panoramio/photos/square/51059134.jpg", "photo_url": "http://www.panoramio.com/photo/51059134"}, {"upload_date": "15 April 2011", "owner_name": "studiostaralexpoli", "photo_id": 51088147, "longitude": 26.051631, "height": 60, "width": 60, "photo_title": "\u0394\u0395\u039b\u03a4\u0391 \u0395\u0392\u03a1\u039f\u03a5", "latitude": 40.758018, "owner_url": "http://www.panoramio.com/user/5758887", "owner_id": 5758887, "photo_file_url": "http://mw2.google.com/mw-panoramio/photos/square/51088147.jpg", "photo_url": "http://www.panoramio.com/photo/51088147"}, {"upload_date": "15 April 2011", "owner_name": "studiostaralexpoli", "photo_id": 51109112, "longitude": 26.029615000000007, "height": 60, "width": 60, "photo_title": "FLAMIGO (DELTA EVRU )", "latitude": 40.8129, "owner_url": "http://www.panoramio.com/user/5758887", "owner_id": 5758887, "photo_file_url": "http://mw2.google.com/mw-panoramio/photos/square/51109112.jpg", "photo_url": "http://www.panoramio.com/photo/51109112"}, {"upload_date": "15 April 2011", "owner_name": "studiostaralexpoli", "photo_id": 51090586, "longitude": 26.061459, "height": 60, "width": 60, "photo_title": "\u0394\u0395\u039b\u03a4\u0391 \u0395\u0392\u03a1\u039f\u03a5 [\u0394\u03a1\u0391\u039d\u0391 \u0397\u039b\u0399\u039f\u0392\u0391\u03a3\u0399\u039b\u0395\u039c\u0391 ]", "latitude": 40.778137, "owner_url": "http://www.panoramio.com/user/5758887", "owner_id": 5758887, "photo_file_url": "http://mw2.google.com/mw-panoramio/photos/square/51090586.jpg", "photo_url": "http://www.panoramio.com/photo/51090586"}, {"upload_date": "16 April 2011", "owner_name": "studiostaralexpoli", "photo_id": 51138096, "longitude": 26.067231, "height": 60, "width": 60, "photo_title": "DELTA EVROU (LIMNI SPITIA)", "latitude": 40.7376, "owner_url": "http://www.panoramio.com/user/5758887", "owner_id": 5758887, "photo_file_url": "http://mw2.google.com/mw-panoramio/photos/square/51138096.jpg", "photo_url": "http://www.panoramio.com/photo/51138096"}, {"upload_date": "01 June 2011", "owner_name": "studiostaralexpoli", "photo_id": 53550527, "longitude": 26.039872, "height": 60, "width": 60, "photo_title": "\u0394\u0395\u039b\u03a4\u0391 \u0395\u0392\u03a1\u039f\u03a5", "latitude": 40.739193, "owner_url": "http://www.panoramio.com/user/5758887", "owner_id": 5758887, "photo_file_url": "http://mw2.google.com/mw-panoramio/photos/square/53550527.jpg", "photo_url": "http://www.panoramio.com/photo/53550527"}, {"upload_date": "10 May 2011", "owner_name": "studiostaralexpoli", "photo_id": 52455472, "longitude": 26.099782, "height": 60, "width": 60, "photo_title": "\u039b\u03a5\u039c\u039d\u0397 \u03a4\u03a3\u0395\u039a\u039f\u03a5\u03a1\u0399  DELTA  EVROU", "latitude": 40.749013, "owner_url": "http://www.panoramio.com/user/5758887", "owner_id": 5758887, "photo_file_url": "http://mw2.google.com/mw-panoramio/photos/square/52455472.jpg", "photo_url": "http://www.panoramio.com/photo/52455472"}, {"upload_date": "09 November 2011", "owner_name": "studiostaralexpoli", "photo_id": 61891298, "longitude": 26.12875, "height": 60, "width": 60, "photo_title": "\u039c\u0391\u03a5\u03a1\u039f\u039a\u039f\u03a4\u0391 \u03a3\u0395 \u0391\u03a0\u039f\u0393\u0395\u0399\u03a9\u03a3\u0397 ( \u0394\u0395\u039b\u03a4\u0391 \u0395\u0392\u03a1\u039f\u03a5)", "latitude": 40.773847, "owner_url": "http://www.panoramio.com/user/5758887", "owner_id": 5758887, "photo_file_url": "http://mw2.google.com/mw-panoramio/photos/square/61891298.jpg", "photo_url": "http://www.panoramio.com/photo/61891298"}, {"upload_date": "16 May 2011", "owner_name": "studiostaralexpoli", "photo_id": 52752619, "longitude": 26.029036, "height": 60, "width": 60, "photo_title": "\u0394\u0395\u039b\u03a4\u0391 \u0395\u0392\u03a1\u039f\u03a5   \u03a6\u039f\u03a5\u039d\u03a4\u0391 \u0391\u03a0\u039f \u039a\u0391\u039b\u0391\u039c\u0399\u0391", "latitude": 40.73886, "owner_url": "http://www.panoramio.com/user/5758887", "owner_id": 5758887, "photo_file_url": "http://mw2.google.com/mw-panoramio/photos/square/52752619.jpg", "photo_url": "http://www.panoramio.com/photo/52752619"}, {"upload_date": "06 October 2010", "owner_name": "alex-lambrinos", "photo_id": 41782056, "longitude": 26.022320000000008, "height": 60, "width": 60, "photo_title": "Aufsteigender Reiher", "latitude": 40.795228, "owner_url": "http://www.panoramio.com/user/1517142", "owner_id": 1517142, "photo_file_url": "http://mw2.google.com/mw-panoramio/photos/square/41782056.jpg", "photo_url": "http://www.panoramio.com/photo/41782056"}, {"upload_date": "19 October 2007", "owner_name": "\u0394\u03b7\u03bc\u03ae\u03c4\u03c1\u03b7\u03c2 \u039a\u03b1\u03c1\u03c1\u03ac\u03c2", "photo_id": 5406829, "longitude": 26.032786, "height": 60, "width": 60, "photo_title": "\u039a\u03bf\u03c1\u03bc\u03bf\u03c1\u03ac\u03bd\u03bf\u03b9 \u03c3\u03c4\u03bf \u0394\u03ad\u03bb\u03c4\u03b1 \u03c4\u03bf\u03c5 \u0388\u03b2\u03c1\u03bf\u03c5", "latitude": 40.779858, "owner_url": "http://www.panoramio.com/user/366438", "owner_id": 366438, "photo_file_url": "http://mw2.google.com/mw-panoramio/photos/square/5406829.jpg", "photo_url": "http://www.panoramio.com/photo/5406829"}, {"upload_date": "09 November 2011", "owner_name": "studiostaralexpoli", "photo_id": 61891387, "longitude": 26.039743, "height": 60, "width": 60, "photo_title": "\u0394\u03a5\u03a3\u0397 \u0397\u039b\u0399\u039f\u03a5 \u0394\u0395\u039b\u03a4\u0391 \u0395\u0392\u03a1\u039f\u03a5", "latitude": 40.746021, "owner_url": "http://www.panoramio.com/user/5758887", "owner_id": 5758887, "photo_file_url": "http://mw2.google.com/mw-panoramio/photos/square/61891387.jpg", "photo_url": "http://www.panoramio.com/photo/61891387"}, {"upload_date": "13 January 2011", "owner_name": "john liko", "photo_id": 46492521, "longitude": 26.057703000000004, "height": 60, "width": 60, "photo_title": "\u0397\u03bb\u03b9\u03bf\u03b2\u03b1\u03c3\u03af\u03bb\u03b5\u03bc\u03b1 \u03c3\u03c4\u03bf \u0394\u03ad\u03bb\u03c4\u03b1", "latitude": 40.765201, "owner_url": "http://www.panoramio.com/user/2477350", "owner_id": 2477350, "photo_file_url": "http://mw2.google.com/mw-panoramio/photos/square/46492521.jpg", "photo_url": "http://www.panoramio.com/photo/46492521"}, {"upload_date": "17 November 2011", "owner_name": "studiostaralexpoli", "photo_id": 62279418, "longitude": 26.122699, "height": 60, "width": 60, "photo_title": "NE\u03a1\u0391\u0399\u0394\u039f\u03a4\u039f\u03a0\u039f\u03a3  \u0394\u0395\u039b\u03a4\u0391 \u0395\u0392\u03a1\u039f\u03a5", "latitude": 40.772287, "owner_url": "http://www.panoramio.com/user/5758887", "owner_id": 5758887, "photo_file_url": "http://mw2.google.com/mw-panoramio/photos/square/62279418.jpg", "photo_url": "http://www.panoramio.com/photo/62279418"}, {"upload_date": "11 April 2007", "owner_name": "Driving", "photo_id": 1734274, "longitude": 26.06781, "height": 60, "width": 60, "photo_title": "\u0412\u0438\u0434 \u0441 \u0433\u043e\u0440\u044b \u0431\u043b\u0438\u0437 Loutros", "latitude": 40.777422, "owner_url": "http://www.panoramio.com/user/130263", "owner_id": 130263, "photo_file_url": "http://mw2.google.com/mw-panoramio/photos/square/1734274.jpg", "photo_url": "http://www.panoramio.com/photo/1734274"}, {"upload_date": "05 July 2010", "owner_name": "\u039f\u039c\u0397\u03a1\u039f\u03a3", "photo_id": 37531532, "longitude": 26.052704, "height": 60, "width": 60, "photo_title": "\u03a5\u0394\u03a1\u039f\u0392\u0399\u039f\u03a4\u039f\u03a0\u039f\u03a3 \u0394\u0395\u039b\u03a4\u0391 \u0395\u0392\u03a1\u039f\u03a5", "latitude": 40.772222, "owner_url": "http://www.panoramio.com/user/4277760", "owner_id": 4277760, "photo_file_url": "http://mw2.google.com/mw-panoramio/photos/square/37531532.jpg", "photo_url": "http://www.panoramio.com/photo/37531532"}, {"upload_date": "22 October 2011", "owner_name": "studiostaralexpoli", "photo_id": 60950601, "longitude": 26.023521, "height": 60, "width": 60, "photo_title": "\u039e\u0395\u03a1\u0391\u0394\u0399 \u039a\u0391\u03a1\u0391\u0392\u0399\u039f\u03a5 \u0394\u0395\u039b\u03a4\u0391 \u0395\u0392\u03a1\u039f\u03a5", "latitude": 40.779762, "owner_url": "http://www.panoramio.com/user/5758887", "owner_id": 5758887, "photo_file_url": "http://mw2.google.com/mw-panoramio/photos/square/60950601.jpg", "photo_url": "http://www.panoramio.com/photo/60950601"}, {"upload_date": "15 November 2011", "owner_name": "studiostaralexpoli", "photo_id": 62188044, "longitude": 26.010303, "height": 60, "width": 60, "photo_title": "\u039a\u039f\u03a1\u039c\u039f\u03a1\u0391\u039d\u039f\u0399 \u03a3\u03a4\u0395\u0393\u039d\u039f\u039d\u039f\u03a5\u039d \u03a4\u0391 \u03a6\u03a4\u0395\u03a1\u0391 \u03a4\u039f\u03a5\u03a3", "latitude": 40.814784, "owner_url": "http://www.panoramio.com/user/5758887", "owner_id": 5758887, "photo_file_url": "http://mw2.google.com/mw-panoramio/photos/square/62188044.jpg", "photo_url": "http://www.panoramio.com/photo/62188044"}, {"upload_date": "22 October 2011", "owner_name": "studiostaralexpoli", "photo_id": 60948737, "longitude": 26.026783, "height": 60, "width": 60, "photo_title": "\u039e\u0395\u03a1\u0391\u0394\u0399 \u039a\u0391\u03a1\u0391\u0392\u0399\u039f\u03a5 \u0394\u0395\u039b\u03a4\u0391 \u0395\u0392\u03a1\u039f\u03a5", "latitude": 40.777552, "owner_url": "http://www.panoramio.com/user/5758887", "owner_id": 5758887, "photo_file_url": "http://mw2.google.com/mw-panoramio/photos/square/60948737.jpg", "photo_url": "http://www.panoramio.com/photo/60948737"}, {"upload_date": "28 June 2012", "owner_name": "studiostaralexpoli", "photo_id": 74529281, "longitude": 26.011959, "height": 60, "width": 60, "photo_title": "\u03a8\u0391\u03a1\u0391\u0394\u0395\u03a3 \u03a3\u03a4\u0399\u03a3 \u0395\u039a\u0392\u039f\u039b\u0395\u03a3 \u03a4\u039f\u03a5 \u0395\u0392\u03a1\u039f\u03a5", "latitude": 40.78834, "owner_url": "http://www.panoramio.com/user/5758887", "owner_id": 5758887, "photo_file_url": "http://mw2.google.com/mw-panoramio/photos/square/74529281.jpg", "photo_url": "http://www.panoramio.com/photo/74529281"}, {"upload_date": "14 November 2011", "owner_name": "studiostaralexpoli", "photo_id": 62142700, "longitude": 26.035538, "height": 60, "width": 60, "photo_title": "\u0394\u0395\u039b\u03a4\u0391 \u0395\u0392\u03a1\u039f\u03a5", "latitude": 40.748818, "owner_url": "http://www.panoramio.com/user/5758887", "owner_id": 5758887, "photo_file_url": "http://mw2.google.com/mw-panoramio/photos/square/62142700.jpg", "photo_url": "http://www.panoramio.com/photo/62142700"}, {"upload_date": "23 July 2012", "owner_name": "studiostaralexpoli", "photo_id": 75851168, "longitude": 26.04509, "height": 60, "width": 60, "photo_title": "\u0394\u03a5\u03a4\u0399\u039a\u0391 \u03a4\u0397\u03a3 \u0394\u03a1\u0391\u039d\u0391\u03a3 ", "latitude": 40.767152, "owner_url": "http://www.panoramio.com/user/5758887", "owner_id": 5758887, "photo_file_url": "http://mw2.google.com/mw-panoramio/photos/square/75851168.jpg", "photo_url": "http://www.panoramio.com/photo/75851168"}, {"upload_date": "15 November 2011", "owner_name": "studiostaralexpoli", "photo_id": 62187968, "longitude": 26.035881, "height": 60, "width": 60, "photo_title": "\u0394\u0395\u039b\u03a4\u0391 \u0395\u0392\u03a1\u039f\u03a5", "latitude": 40.736852, "owner_url": "http://www.panoramio.com/user/5758887", "owner_id": 5758887, "photo_file_url": "http://mw2.google.com/mw-panoramio/photos/square/62187968.jpg", "photo_url": "http://www.panoramio.com/photo/62187968"}, {"upload_date": "10 September 2012", "owner_name": "studiostaralexpoli", "photo_id": 78632349, "longitude": 26.078392, "height": 60, "width": 60, "photo_title": "\u03a4\u0391 \u039a\u0391\u039c\u0395\u039d\u0391 \u03a4\u039f\u03a5 \u0394\u0395\u039b\u03a4\u0391 10-9-2012", "latitude": 40.750248, "owner_url": "http://www.panoramio.com/user/5758887", "owner_id": 5758887, "photo_file_url": "http://mw2.google.com/mw-panoramio/photos/square/78632349.jpg", "photo_url": "http://www.panoramio.com/photo/78632349"}, {"upload_date": "22 October 2011", "owner_name": "\u03a3\u03a9\u03a4\u0397\u03a1\u0397\u03a3 \u0396\u03a9\u0391\u039a\u0397\u03a3", "photo_id": 60980088, "longitude": 25.960692999999992, "height": 60, "width": 60, "photo_title": "\u039a\u039f\u03a1\u039c\u039f\u03a3 \u03a3\u03a4\u0397 \u0398\u0391\u039b\u0391\u03a3\u03a3\u0391", "latitude": 40.834074, "owner_url": "http://www.panoramio.com/user/4197922", "owner_id": 4197922, "photo_file_url": "http://mw2.google.com/mw-panoramio/photos/square/60980088.jpg", "photo_url": "http://www.panoramio.com/photo/60980088"}, {"upload_date": "13 April 2008", "owner_name": "frits.teg", "photo_id": 9349430, "longitude": 26.016655, "height": 60, "width": 60, "photo_title": "Evros delta", "latitude": 40.829138, "owner_url": "http://www.panoramio.com/user/1611330", "owner_id": 1611330, "photo_file_url": "http://mw2.google.com/mw-panoramio/photos/square/9349430.jpg", "photo_url": "http://www.panoramio.com/photo/9349430"}, {"upload_date": "22 October 2011", "owner_name": "\u03a3\u03a9\u03a4\u0397\u03a1\u0397\u03a3 \u0396\u03a9\u0391\u039a\u0397\u03a3", "photo_id": 60980142, "longitude": 25.958632999999992, "height": 60, "width": 60, "photo_title": "\u03a4\u039f\u03a5\u03a1\u039b\u0399\u0394\u0391", "latitude": 40.835372, "owner_url": "http://www.panoramio.com/user/4197922", "owner_id": 4197922, "photo_file_url": "http://mw2.google.com/mw-panoramio/photos/square/60980142.jpg", "photo_url": "http://www.panoramio.com/photo/60980142"}, {"upload_date": "02 September 2008", "owner_name": "atanagio", "photo_id": 13752778, "longitude": 26.038113, "height": 60, "width": 60, "photo_title": "Pelekanoi", "latitude": 40.810691, "owner_url": "http://www.panoramio.com/user/2204875", "owner_id": 2204875, "photo_file_url": "http://mw2.google.com/mw-panoramio/photos/square/13752778.jpg", "photo_url": "http://www.panoramio.com/photo/13752778"}, {"upload_date": "02 November 2008", "owner_name": "atanagio", "photo_id": 15609166, "longitude": 26.053734, "height": 60, "width": 60, "photo_title": "Birds", "latitude": 40.78847, "owner_url": "http://www.panoramio.com/user/2204875", "owner_id": 2204875, "photo_file_url": "http://mw2.google.com/mw-panoramio/photos/square/15609166.jpg", "photo_url": "http://www.panoramio.com/photo/15609166"}, {"upload_date": "22 June 2008", "owner_name": "gmask", "photo_id": 11421843, "longitude": 26.115189, "height": 60, "width": 60, "photo_title": "\u03ba\u03bf\u03c1\u03bc\u03bf\u03c1\u03ac\u03bd\u03bf\u03c2 \u03c3\u03c4\u03bf \u03b4\u03ad\u03bb\u03c4\u03b1 \u03c4\u03bf\u03c5 \u03ad\u03b2\u03c1\u03bf\u03c5", "latitude": 40.780021, "owner_url": "http://www.panoramio.com/user/1912530", "owner_id": 1912530, "photo_file_url": "http://mw2.google.com/mw-panoramio/photos/square/11421843.jpg", "photo_url": "http://www.panoramio.com/photo/11421843"}, {"upload_date": "20 June 2011", "owner_name": "xordakis", "photo_id": 54490258, "longitude": 26.04249, "height": 60, "width": 60, "photo_title": "delta evrou", "latitude": 40.766014, "owner_url": "http://www.panoramio.com/user/5684116", "owner_id": 5684116, "photo_file_url": "http://mw2.google.com/mw-panoramio/photos/square/54490258.jpg", "photo_url": "http://www.panoramio.com/photo/54490258"}, {"upload_date": "22 June 2008", "owner_name": "gmask", "photo_id": 11421122, "longitude": 26.094418, "height": 60, "width": 60, "photo_title": "evros delta", "latitude": 40.772222, "owner_url": "http://www.panoramio.com/user/1912530", "owner_id": 1912530, "photo_file_url": "http://mw2.google.com/mw-panoramio/photos/square/11421122.jpg", "photo_url": "http://www.panoramio.com/photo/11421122"}, {"upload_date": "17 November 2009", "owner_name": "glyr", "photo_id": 28957632, "longitude": 26.06969799999999, "height": 60, "width": 60, "photo_title": "View of Delta from levee", "latitude": 40.767802, "owner_url": "http://www.panoramio.com/user/3867412", "owner_id": 3867412, "photo_file_url": "http://mw2.google.com/mw-panoramio/photos/square/28957632.jpg", "photo_url": "http://www.panoramio.com/photo/28957632"}, {"upload_date": "02 August 2009", "owner_name": "Yiota Siapera", "photo_id": 25167499, "longitude": 26.077895, "height": 60, "width": 60, "photo_title": "Ducks", "latitude": 40.769329, "owner_url": "http://www.panoramio.com/user/3502794", "owner_id": 3502794, "photo_file_url": "http://mw2.google.com/mw-panoramio/photos/square/25167499.jpg", "photo_url": "http://www.panoramio.com/photo/25167499"}, {"upload_date": "14 February 2010", "owner_name": "aegeandive", "photo_id": 32159785, "longitude": 26.02124699999999, "height": 60, "width": 60, "photo_title": "Drana area, east of Alexandroupolis, greater Evros estuary area", "latitude": 40.839431, "owner_url": "http://www.panoramio.com/user/538533", "owner_id": 538533, "photo_file_url": "http://mw2.google.com/mw-panoramio/photos/square/32159785.jpg", "photo_url": "http://www.panoramio.com/photo/32159785"}, {"upload_date": "02 August 2009", "owner_name": "Yiota Siapera", "photo_id": 25165899, "longitude": 26.06957, "height": 60, "width": 60, "photo_title": "cow at Delta ", "latitude": 40.779339, "owner_url": "http://www.panoramio.com/user/3502794", "owner_id": 3502794, "photo_file_url": "http://mw2.google.com/mw-panoramio/photos/square/25165899.jpg", "photo_url": "http://www.panoramio.com/photo/25165899"}, {"upload_date": "13 July 2010", "owner_name": "PapnikO", "photo_id": 37881130, "longitude": 25.98903899999999, "height": 60, "width": 60, "photo_title": "Alexandroupoli_ Anthia_ near Delta Ebrou", "latitude": 40.820386, "owner_url": "http://www.panoramio.com/user/2178074", "owner_id": 2178074, "photo_file_url": "http://mw2.google.com/mw-panoramio/photos/square/37881130.jpg", "photo_url": "http://www.panoramio.com/photo/37881130"}, {"upload_date": "14 February 2010", "owner_name": "aegeandive", "photo_id": 32158013, "longitude": 26.01571100000001, "height": 60, "width": 60, "photo_title": "Drana area of the Evros estuary, Samothraki island to southwest", "latitude": 40.83245, "owner_url": "http://www.panoramio.com/user/538533", "owner_id": 538533, "photo_file_url": "http://mw2.google.com/mw-panoramio/photos/square/32158013.jpg", "photo_url": "http://www.panoramio.com/photo/32158013"}, {"upload_date": "09 January 2011", "owner_name": "371963", "photo_id": 46308634, "longitude": 26.059914, "height": 60, "width": 60, "photo_title": "\u0395\u03b2\u03c1\u03bf\u03c2 \u0394\u03b5\u03bb\u03c4\u03b1", "latitude": 40.790874, "owner_url": "http://www.panoramio.com/user/4488948", "owner_id": 4488948, "photo_file_url": "http://mw2.google.com/mw-panoramio/photos/square/46308634.jpg", "photo_url": "http://www.panoramio.com/photo/46308634"}, {"upload_date": "09 November 2010", "owner_name": "Lunar-captures", "photo_id": 43437643, "longitude": 26.00129100000001, "height": 60, "width": 60, "photo_title": "Delta of Evros", "latitude": 40.816234, "owner_url": "http://www.panoramio.com/user/4590355", "owner_id": 4590355, "photo_file_url": "http://mw2.google.com/mw-panoramio/photos/square/43437643.jpg", "photo_url": "http://www.panoramio.com/photo/43437643"}, {"upload_date": "09 November 2010", "owner_name": "Lunar-captures", "photo_id": 43437648, "longitude": 25.999059999999986, "height": 60, "width": 60, "photo_title": "Sunset at Delta of Evros-Greece", "latitude": 40.816104, "owner_url": "http://www.panoramio.com/user/4590355", "owner_id": 4590355, "photo_file_url": "http://mw2.google.com/mw-panoramio/photos/square/43437648.jpg", "photo_url": "http://www.panoramio.com/photo/43437648"}, {"upload_date": "17 August 2011", "owner_name": "s_perd", "photo_id": 57483469, "longitude": 26.070384999999987, "height": 60, "width": 60, "photo_title": "\u0395\u0392\u03a1\u039f\u03a3", "latitude": 40.740071, "owner_url": "http://www.panoramio.com/user/6227976", "owner_id": 6227976, "photo_file_url": "http://mw2.google.com/mw-panoramio/photos/square/57483469.jpg", "photo_url": "http://www.panoramio.com/photo/57483469"}, {"upload_date": "30 October 2011", "owner_name": "\u03a3\u03a9\u03a4\u0397\u03a1\u0397\u03a3 \u0396\u03a9\u0391\u039a\u0397\u03a3", "photo_id": 61356470, "longitude": 26.064033999999992, "height": 60, "width": 60, "photo_title": "\u03a7\u0391\u039c\u0397\u039b\u0397 \u0392\u039b\u0391\u03a3\u03a4\u0397\u03a3\u0397 \u0394\u0395\u039b\u03a4\u0391 \u0395\u0392\u03a1\u039f\u03a5", "latitude": 40.798737, "owner_url": "http://www.panoramio.com/user/4197922", "owner_id": 4197922, "photo_file_url": "http://mw2.google.com/mw-panoramio/photos/square/61356470.jpg", "photo_url": "http://www.panoramio.com/photo/61356470"}, {"upload_date": "30 October 2011", "owner_name": "\u03a3\u03a9\u03a4\u0397\u03a1\u0397\u03a3 \u0396\u03a9\u0391\u039a\u0397\u03a3", "photo_id": 61356382, "longitude": 26.08360300000001, "height": 60, "width": 60, "photo_title": "\u039a\u03a5\u039a\u039d\u039f\u0399 \u03a3\u03a4\u039f \u0394\u0395\u039b\u03a4\u0391 \u0395\u0392\u03a1\u039f\u03a5", "latitude": 40.771052, "owner_url": "http://www.panoramio.com/user/4197922", "owner_id": 4197922, "photo_file_url": "http://mw2.google.com/mw-panoramio/photos/square/61356382.jpg", "photo_url": "http://www.panoramio.com/photo/61356382"}, {"upload_date": "20 November 2011", "owner_name": "iolef", "photo_id": 62456686, "longitude": 26.089461, "height": 60, "width": 60, "photo_title": "cow in evros' delta", "latitude": 40.771718, "owner_url": "http://www.panoramio.com/user/6484302", "owner_id": 6484302, "photo_file_url": "http://mw2.google.com/mw-panoramio/photos/square/62456686.jpg", "photo_url": "http://www.panoramio.com/photo/62456686"}, {"upload_date": "07 May 2012", "owner_name": "christos-loukia", "photo_id": 71656972, "longitude": 26.059767, "height": 60, "width": 60, "photo_title": "eyros delta - syderis boat!", "latitude": 40.818811, "owner_url": "http://www.panoramio.com/user/6885673", "owner_id": 6885673, "photo_file_url": "http://mw2.google.com/mw-panoramio/photos/square/71656972.jpg", "photo_url": "http://www.panoramio.com/photo/71656972"}, {"upload_date": "26 June 2012", "owner_name": "Dionisis Loukopoulos", "photo_id": 74447608, "longitude": 26.013762, "height": 60, "width": 60, "photo_title": "\u03a0\u03b1\u03c1\u03ac\u03b3\u03ba\u03b1 \u03c8\u03b1\u03c1\u03ac", "latitude": 40.797502, "owner_url": "http://www.panoramio.com/user/6209324", "owner_id": 6209324, "photo_file_url": "http://mw2.google.com/mw-panoramio/photos/square/74447608.jpg", "photo_url": "http://www.panoramio.com/photo/74447608"}, {"upload_date": "21 November 2012", "owner_name": "juago", "photo_id": 82414910, "place_id": "717c5e326819db4e7d6dee1c64311c76e8fe0c8d", "longitude": 26.029567, "height": 60, "width": 60, "photo_title": "Delta of Evros river, Greece", "latitude": 40.808517, "owner_url": "http://www.panoramio.com/user/6743158", "owner_id": 6743158, "photo_file_url": "http://mw2.google.com/mw-panoramio/photos/square/82414910.jpg", "photo_url": "http://www.panoramio.com/photo/82414910"},