{"count": 37, "has_more": false, "map_location": {"lat": 37.3911715, "panoramio_zoom": 3, "lon": 22.75124124324028}, "photos": [{"upload_date": "07 March 2012", "owner_name": "Panos Mourlas", "photo_id": 68084908, "longitude": 22.749819, "height": 60, "width": 60, "photo_title": "\u039c\u03c9\u03b2 \u03b2\u03c1\u03b1\u03b4\u03c5\u03bd\u03ae \u03b1\u03bd\u03c4\u03b1\u03bd\u03ac\u03ba\u03bb\u03b1\u03c3\u03b7 - A purple evening reflection - Panos Mourlas", "latitude": 37.385913, "owner_url": "http://www.panoramio.com/user/3496887", "owner_id": 3496887, "photo_file_url": "http://mw2.google.com/mw-panoramio/photos/square/68084908.jpg", "photo_url": "http://www.panoramio.com/photo/68084908"}, {"upload_date": "07 March 2012", "owner_name": "Panos Mourlas", "photo_id": 68082207, "longitude": 22.752474, "height": 60, "width": 60, "photo_title": "\u0391\u03bb\u03cc\u03c7\u03b1 \u03b1\u03c0\u03cc \u03c4\u03b7 \u03a7\u03b1\u03b2\u03ac\u03b7 - Aloha from Hawaii - Panos Mourlas", "latitude": 37.395499, "owner_url": "http://www.panoramio.com/user/3496887", "owner_id": 3496887, "photo_file_url": "http://mw2.google.com/mw-panoramio/photos/square/68082207.jpg", "photo_url": "http://www.panoramio.com/photo/68082207"}, {"upload_date": "24 June 2012", "owner_name": "diliapo & Mary C", "photo_id": 74309499, "longitude": 22.746145, "height": 60, "width": 60, "photo_title": "\u03a5\u03b3\u03c1\u03cc\u03c4\u03bf\u03c0\u03bf\u03c2 \u03a5\u03b4\u03c1\u03bf\u03b2\u03b9\u03cc\u03c4\u03bf\u03c0\u03bf\u03c2 \u039c\u03bf\u03c5\u03c3\u03c4\u03bf\u03cd", "latitude": 37.384444, "owner_url": "http://www.panoramio.com/user/21336", "owner_id": 21336, "photo_file_url": "http://mw2.google.com/mw-panoramio/photos/square/74309499.jpg", "photo_url": "http://www.panoramio.com/photo/74309499"}, {"upload_date": "24 June 2012", "owner_name": "diliapo & Mary C", "photo_id": 74309510, "longitude": 22.743227, "height": 60, "width": 60, "photo_title": "\u039f\u03b9\u03ba\u03bf\u03bb\u03bf\u03b3\u03b9\u03ba\u03cc \u03a0\u03ac\u03c1\u03ba\u03bf \u03a0\u03ac\u03c1\u03bd\u03c9\u03bd\u03b1, \u03a5\u03b3\u03c1\u03cc\u03c4\u03bf\u03c0\u03bf\u03c2 \u03a5\u03b4\u03c1\u03bf\u03b2\u03b9\u03cc\u03c4\u03bf\u03c0\u03bf\u03c2 \u039c\u03bf\u03c5\u03c3\u03c4\u03bf\u03cd", "latitude": 37.385365, "owner_url": "http://www.panoramio.com/user/21336", "owner_id": 21336, "photo_file_url": "http://mw2.google.com/mw-panoramio/photos/square/74309510.jpg", "photo_url": "http://www.panoramio.com/photo/74309510"}, {"upload_date": "07 March 2012", "owner_name": "Panos Mourlas", "photo_id": 68082221, "longitude": 22.752931, "height": 60, "width": 60, "photo_title": " \u03a7\u03c1\u03ce\u03bc\u03b1\u03c4\u03b1 \u03ba\u03b1\u03b9 \u03c3\u03ce\u03bc\u03b1\u03c4\u03b1 - Colors and shapes -Panos Mourlas", "latitude": 37.392102, "owner_url": "http://www.panoramio.com/user/3496887", "owner_id": 3496887, "photo_file_url": "http://mw2.google.com/mw-panoramio/photos/square/68082221.jpg", "photo_url": "http://www.panoramio.com/photo/68082221"}, {"upload_date": "07 March 2012", "owner_name": "Panos Mourlas", "photo_id": 68082215, "longitude": 22.751767, "height": 60, "width": 60, "photo_title": "\u039e\u03b7\u03bc\u03ad\u03c1\u03c9\u03c3\u03b5 \u03c0\u03c1\u03af\u03bd \u03bd\u03c5\u03c7\u03c4\u03ce\u03c3\u03b5\u03b9 - Dark before dawn - Panos Mourlas", "latitude": 37.394313, "owner_url": "http://www.panoramio.com/user/3496887", "owner_id": 3496887, "photo_file_url": "http://mw2.google.com/mw-panoramio/photos/square/68082215.jpg", "photo_url": "http://www.panoramio.com/photo/68082215"}, {"upload_date": "08 March 2012", "owner_name": "Panos T. Mourlas", "photo_id": 68132369, "longitude": 22.744157, "height": 60, "width": 60, "photo_title": "\u0391\u03b3\u03af\u03b1 \u0391\u03bd\u03b1\u03c3\u03c4\u03b1\u03c3\u03af\u03b1 - Panos Mourlas", "latitude": 37.398138, "owner_url": "http://www.panoramio.com/user/3413020", "owner_id": 3413020, "photo_file_url": "http://mw2.google.com/mw-panoramio/photos/square/68132369.jpg", "photo_url": "http://www.panoramio.com/photo/68132369"}, {"upload_date": "05 February 2009", "owner_name": "Sotiris Spyrakopoulos", "photo_id": 18597733, "longitude": 22.763371, "height": 60, "width": 60, "photo_title": "expectancy", "latitude": 37.386918, "owner_url": "http://www.panoramio.com/user/2321353", "owner_id": 2321353, "photo_file_url": "http://mw2.google.com/mw-panoramio/photos/square/18597733.jpg", "photo_url": "http://www.panoramio.com/photo/18597733"}, {"upload_date": "07 March 2012", "owner_name": "\u039f\u03bc\u03ac\u03b4\u03b1 \u0388\u03bb\u03b5\u03c5\u03c3\u03b9\u03c2  -  Elefsis", "photo_id": 68083769, "longitude": 22.749031, "height": 60, "width": 60, "photo_title": "120307 - \u039f\u03bc\u03ac\u03b4\u03b1 \u0388\u03bb\u03b5\u03c5\u03c3\u03b9\u03c2", "latitude": 37.384975, "owner_url": "http://www.panoramio.com/user/3926058", "owner_id": 3926058, "photo_file_url": "http://mw2.google.com/mw-panoramio/photos/square/68083769.jpg", "photo_url": "http://www.panoramio.com/photo/68083769"}, {"upload_date": "07 March 2012", "owner_name": "Panos Mourlas", "photo_id": 68082199, "longitude": 22.752721, "height": 60, "width": 60, "photo_title": "\u0391\u03c3\u03ba\u03b7\u03c4\u03b9\u03ba\u03ae \u03b5\u03b9\u03ba\u03cc\u03bd\u03b1  - \u0391scetic image - Panos Mourlas", "latitude": 37.397092, "owner_url": "http://www.panoramio.com/user/3496887", "owner_id": 3496887, "photo_file_url": "http://mw2.google.com/mw-panoramio/photos/square/68082199.jpg", "photo_url": "http://www.panoramio.com/photo/68082199"}, {"upload_date": "21 February 2010", "owner_name": "\u039f\u03bc\u03ac\u03b4\u03b1 \u0388\u03bb\u03b5\u03c5\u03c3\u03b9\u03c2  -  Elefsis", "photo_id": 32411833, "longitude": 22.757083999999992, "height": 60, "width": 60, "photo_title": "\u0388\u03bb\u03b5\u03c5\u03c3\u03b9\u03c2-Elefsis", "latitude": 37.388322, "owner_url": "http://www.panoramio.com/user/3926058", "owner_id": 3926058, "photo_file_url": "http://mw2.google.com/mw-panoramio/photos/square/32411833.jpg", "photo_url": "http://www.panoramio.com/photo/32411833"}, {"upload_date": "19 September 2009", "owner_name": "G.E.conom", "photo_id": 26996335, "longitude": 22.751213000000007, "height": 60, "width": 60, "photo_title": "..\u0394\u03a1\u039f\u039c\u039f\u0399..", "latitude": 37.385354, "owner_url": "http://www.panoramio.com/user/2566885", "owner_id": 2566885, "photo_file_url": "http://mw2.google.com/mw-panoramio/photos/square/26996335.jpg", "photo_url": "http://www.panoramio.com/photo/26996335"}, {"upload_date": "21 February 2010", "owner_name": "\u039f\u03bc\u03ac\u03b4\u03b1 \u0388\u03bb\u03b5\u03c5\u03c3\u03b9\u03c2  -  Elefsis", "photo_id": 32411849, "longitude": 22.753973000000002, "height": 60, "width": 60, "photo_title": "\u039e\u03b7\u03bc\u03ad\u03c1\u03c9\u03bc\u03b1.\u0388\u03bb\u03b5\u03c5\u03c3\u03b9\u03c2-Elefsis", "latitude": 37.390163, "owner_url": "http://www.panoramio.com/user/3926058", "owner_id": 3926058, "photo_file_url": "http://mw2.google.com/mw-panoramio/photos/square/32411849.jpg", "photo_url": "http://www.panoramio.com/photo/32411849"}, {"upload_date": "21 August 2010", "owner_name": "\u039f\u03bc\u03ac\u03b4\u03b1 \u0388\u03bb\u03b5\u03c5\u03c3\u03b9\u03c2  -  Elefsis", "photo_id": 39598551, "longitude": 22.755002999999988, "height": 60, "width": 60, "photo_title": "100821-Elefsis", "latitude": 37.389135, "owner_url": "http://www.panoramio.com/user/3926058", "owner_id": 3926058, "photo_file_url": "http://mw2.google.com/mw-panoramio/photos/square/39598551.jpg", "photo_url": "http://www.panoramio.com/photo/39598551"}, {"upload_date": "09 March 2007", "owner_name": "ajstait", "photo_id": 1239469, "longitude": 22.755432, "height": 60, "width": 60, "photo_title": "Astros, Peloppenese", "latitude": 37.391982, "owner_url": "http://www.panoramio.com/user/257357", "owner_id": 257357, "photo_file_url": "http://mw2.google.com/mw-panoramio/photos/square/1239469.jpg", "photo_url": "http://www.panoramio.com/photo/1239469"}, {"upload_date": "21 August 2009", "owner_name": "nemis+nikolas", "photo_id": 25894825, "longitude": 22.744832, "height": 60, "width": 60, "photo_title": "\u039b\u0399\u039c\u039d\u0397 \u039c\u039f\u03a5\u03a3\u03a4\u039f\u03a5", "latitude": 37.384071, "owner_url": "http://www.panoramio.com/user/1025626", "owner_id": 1025626, "photo_file_url": "http://mw2.google.com/mw-panoramio/photos/square/25894825.jpg", "photo_url": "http://www.panoramio.com/photo/25894825"}, {"upload_date": "26 August 2009", "owner_name": "nemis+nikolas", "photo_id": 26097639, "longitude": 22.755561, "height": 60, "width": 60, "photo_title": "MOUSTOS", "latitude": 37.385503, "owner_url": "http://www.panoramio.com/user/1025626", "owner_id": 1025626, "photo_file_url": "http://mw2.google.com/mw-panoramio/photos/square/26097639.jpg", "photo_url": "http://www.panoramio.com/photo/26097639"}, {"upload_date": "24 August 2007", "owner_name": "billkas", "photo_id": 4160433, "longitude": 22.746506, "height": 60, "width": 60, "photo_title": "Moustos_lake", "latitude": 37.385708, "owner_url": "http://www.panoramio.com/user/818229", "owner_id": 818229, "photo_file_url": "http://mw2.google.com/mw-panoramio/photos/square/4160433.jpg", "photo_url": "http://www.panoramio.com/photo/4160433"}, {"upload_date": "07 March 2012", "owner_name": "Panos T. Mourlas", "photo_id": 68083172, "longitude": 22.750108, "height": 60, "width": 60, "photo_title": "120307 - Panos Mourlas", "latitude": 37.385377, "owner_url": "http://www.panoramio.com/user/3413020", "owner_id": 3413020, "photo_file_url": "http://mw2.google.com/mw-panoramio/photos/square/68083172.jpg", "photo_url": "http://www.panoramio.com/photo/68083172"}, {"upload_date": "07 March 2012", "owner_name": "Panos T. Mourlas", "photo_id": 68083153, "longitude": 22.752802, "height": 60, "width": 60, "photo_title": "120307 - Panos Mourlas", "latitude": 37.397292, "owner_url": "http://www.panoramio.com/user/3413020", "owner_id": 3413020, "photo_file_url": "http://mw2.google.com/mw-panoramio/photos/square/68083153.jpg", "photo_url": "http://www.panoramio.com/photo/68083153"}, {"upload_date": "04 February 2009", "owner_name": "\u611b Sylvietsak  \u5973", "photo_id": 18555606, "longitude": 22.74384, "height": 60, "width": 60, "photo_title": "Devoted to Syl de Canada and Janina Bielenko,Moustou (Aquatic place)...(by Sylvietsak)", "latitude": 37.384915, "owner_url": "http://www.panoramio.com/user/1992581", "owner_id": 1992581, "photo_file_url": "http://mw2.google.com/mw-panoramio/photos/square/18555606.jpg", "photo_url": "http://www.panoramio.com/photo/18555606"}, {"upload_date": "06 November 2008", "owner_name": "Sotiris Spyrakopoulos", "photo_id": 15726954, "longitude": 22.750561, "height": 60, "width": 60, "photo_title": "Golden river - Arkadia, Greece", "latitude": 37.385256, "owner_url": "http://www.panoramio.com/user/2321353", "owner_id": 2321353, "photo_file_url": "http://mw2.google.com/mw-panoramio/photos/square/15726954.jpg", "photo_url": "http://www.panoramio.com/photo/15726954"}, {"upload_date": "21 February 2010", "owner_name": "\u039f\u03bc\u03ac\u03b4\u03b1 \u0388\u03bb\u03b5\u03c5\u03c3\u03b9\u03c2  -  Elefsis", "photo_id": 32411842, "longitude": 22.75304, "height": 60, "width": 60, "photo_title": "\u0388\u03bb\u03b5\u03c5\u03c3\u03b9\u03c2-Elefsis", "latitude": 37.398153, "owner_url": "http://www.panoramio.com/user/3926058", "owner_id": 3926058, "photo_file_url": "http://mw2.google.com/mw-panoramio/photos/square/32411842.jpg", "photo_url": "http://www.panoramio.com/photo/32411842"}, {"upload_date": "21 August 2010", "owner_name": "\u039f\u03bc\u03ac\u03b4\u03b1 \u0388\u03bb\u03b5\u03c5\u03c3\u03b9\u03c2  -  Elefsis", "photo_id": 39598500, "longitude": 22.752342, "height": 60, "width": 60, "photo_title": "100821-Elefsis", "latitude": 37.392698, "owner_url": "http://www.panoramio.com/user/3926058", "owner_id": 3926058, "photo_file_url": "http://mw2.google.com/mw-panoramio/photos/square/39598500.jpg", "photo_url": "http://www.panoramio.com/photo/39598500"}, {"upload_date": "21 August 2010", "owner_name": "\u039f\u03bc\u03ac\u03b4\u03b1 \u0388\u03bb\u03b5\u03c5\u03c3\u03b9\u03c2  -  Elefsis", "photo_id": 39599457, "longitude": 22.753383, "height": 60, "width": 60, "photo_title": "100821-Elefsis", "latitude": 37.391343, "owner_url": "http://www.panoramio.com/user/3926058", "owner_id": 3926058, "photo_file_url": "http://mw2.google.com/mw-panoramio/photos/square/39599457.jpg", "photo_url": "http://www.panoramio.com/photo/39599457"}, {"upload_date": "21 August 2010", "owner_name": "\u039f\u03bc\u03ac\u03b4\u03b1 \u0388\u03bb\u03b5\u03c5\u03c3\u03b9\u03c2  -  Elefsis", "photo_id": 39599441, "longitude": 22.749553, "height": 60, "width": 60, "photo_title": "100821-Elefsis", "latitude": 37.386765, "owner_url": "http://www.panoramio.com/user/3926058", "owner_id": 3926058, "photo_file_url": "http://mw2.google.com/mw-panoramio/photos/square/39599441.jpg", "photo_url": "http://www.panoramio.com/photo/39599441"}, {"upload_date": "21 August 2010", "owner_name": "\u039f\u03bc\u03ac\u03b4\u03b1 \u0388\u03bb\u03b5\u03c5\u03c3\u03b9\u03c2  -  Elefsis", "photo_id": 39599467, "longitude": 22.752653, "height": 60, "width": 60, "photo_title": "100821 - \u039f\u03bc\u03ac\u03b4\u03b1 \u0388\u03bb\u03b5\u03c5\u03c3\u03b9\u03c2", "latitude": 37.393653, "owner_url": "http://www.panoramio.com/user/3926058", "owner_id": 3926058, "photo_file_url": "http://mw2.google.com/mw-panoramio/photos/square/39599467.jpg", "photo_url": "http://www.panoramio.com/photo/39599467"}, {"upload_date": "06 May 2010", "owner_name": "v_k", "photo_id": 35192035, "longitude": 22.744102, "height": 60, "width": 60, "photo_title": "Moustou wetland", "latitude": 37.384676, "owner_url": "http://www.panoramio.com/user/1450973", "owner_id": 1450973, "photo_file_url": "http://mw2.google.com/mw-panoramio/photos/square/35192035.jpg", "photo_url": "http://www.panoramio.com/photo/35192035"}, {"upload_date": "21 August 2009", "owner_name": "nemis+nikolas", "photo_id": 25895004, "longitude": 22.763371, "height": 60, "width": 60, "photo_title": "\u039c\u039f\u03a5\u03a3\u03a4\u039f\u03a3", "latitude": 37.38656, "owner_url": "http://www.panoramio.com/user/1025626", "owner_id": 1025626, "photo_file_url": "http://mw2.google.com/mw-panoramio/photos/square/25895004.jpg", "photo_url": "http://www.panoramio.com/photo/25895004"}, {"upload_date": "22 September 2007", "owner_name": "Ioannis Pantos", "photo_id": 4825719, "longitude": 22.754831, "height": 60, "width": 60, "photo_title": "Aerial photo of Paralio Astros", "latitude": 37.389663, "owner_url": "http://www.panoramio.com/user/642234", "owner_id": 642234, "photo_file_url": "http://mw2.google.com/mw-panoramio/photos/square/4825719.jpg", "photo_url": "http://www.panoramio.com/photo/4825719"}, {"upload_date": "14 November 2011", "owner_name": "gianniskall", "photo_id": 62177891, "longitude": 22.756119000000012, "height": 60, "width": 60, "photo_title": "\u039b\u0399\u039c\u039d\u0397 \u039c\u039f\u03a5\u03a3\u03a4\u039f\u03a5 \u0391\u03a3\u03a4\u03a1\u039f\u03a3", "latitude": 37.38847, "owner_url": "http://www.panoramio.com/user/2123079", "owner_id": 2123079, "photo_file_url": "http://mw2.google.com/mw-panoramio/photos/square/62177891.jpg", "photo_url": "http://www.panoramio.com/photo/62177891"}, {"upload_date": "14 April 2009", "owner_name": "sin77", "photo_id": 21181748, "longitude": 22.755368, "height": 60, "width": 60, "photo_title": "\u039a\u03cd\u03ba\u03bd\u03bf\u03c2 \u03c3\u03c4\u03bf \u039c\u03bf\u03c5\u03c3\u03c4\u03cc (Swan)", "latitude": 37.385691, "owner_url": "http://www.panoramio.com/user/1901634", "owner_id": 1901634, "photo_file_url": "http://mw2.google.com/mw-panoramio/photos/square/21181748.jpg", "photo_url": "http://www.panoramio.com/photo/21181748"}, {"upload_date": "30 May 2009", "owner_name": "pariskos13", "photo_id": 22878355, "longitude": 22.743416, "height": 60, "width": 60, "photo_title": "\u03b7 \u03bb\u03b9\u03bc\u03bd\u03b7 \u03c4\u03bf\u03c5 \u039c\u03bf\u03c5\u03c3\u03c4\u03bf\u03cd", "latitude": 37.386254, "owner_url": "http://www.panoramio.com/user/2539440", "owner_id": 2539440, "photo_file_url": "http://mw2.google.com/mw-panoramio/photos/square/22878355.jpg", "photo_url": "http://www.panoramio.com/photo/22878355"}, {"upload_date": "30 May 2009", "owner_name": "pariskos13", "photo_id": 22877635, "longitude": 22.743909, "height": 60, "width": 60, "photo_title": "\u0391\u03b3\u03b9\u03b1 \u0391\u03bd\u03b1\u03c3\u03c4\u03b1\u03c3\u03b9\u03b1", "latitude": 37.398324, "owner_url": "http://www.panoramio.com/user/2539440", "owner_id": 2539440, "photo_file_url": "http://mw2.google.com/mw-panoramio/photos/square/22877635.jpg", "photo_url": "http://www.panoramio.com/photo/22877635"}, {"upload_date": "30 June 2011", "owner_name": "Michalis B", "photo_id": 54993884, "longitude": 22.763119, "height": 60, "width": 60, "photo_title": "\u0392\u03b9\u03b2\u03ac\u03c1\u03b9", "latitude": 37.386396, "owner_url": "http://www.panoramio.com/user/6056039", "owner_id": 6056039, "photo_file_url": "http://mw2.google.com/mw-panoramio/photos/square/54993884.jpg", "photo_url": "http://www.panoramio.com/photo/54993884"}, {"upload_date": "07 September 2012", "owner_name": "Marigo Siavelis", "photo_id": 78481779, "longitude": 22.744588, "height": 60, "width": 60, "photo_title": "Moustos Lake, in Pelopnissos", "latitude": 37.384019, "owner_url": "http://www.panoramio.com/user/7149259", "owner_id": 7149259, "photo_file_url": "http://mw2.google.com/mw-panoramio/photos/square/78481779.jpg", "photo_url": "http://www.panoramio.com/photo/78481779"}, {"upload_date": "24 March 2014", "owner_name": "vasiliki.agl", "photo_id": 104801482, "longitude": 22.743574, "height": 60, "width": 60, "photo_title": "\u039b\u03af\u03bc\u03bd\u03b7 \u039c\u03bf\u03c5\u03c3\u03c4\u03bf\u03cd", "latitude": 37.385105, "owner_url": "http://www.panoramio.com/user/8224229", "owner_id": 8224229, "photo_file_url": "http://mw2.google.com/mw-panoramio/photos/square/104801482.jpg", "photo_url": "http://www.panoramio.com/photo/104801482"}]}