{"count": 2643, "has_more": true, "map_location": {"lat": 40.658699, "panoramio_zoom": 8, "lon": 21.55533463210731}, "photos": [{"upload_date": "01 February 2011", "owner_name": "NIKOS1954", "photo_id": 47426241, "longitude": 21.247987999999992, "height": 60, "width": 60, "photo_title": "\u0397 \u03a0\u039f\u039b\u0397 \u03a4\u0397\u03a3 \u039a\u0391\u03a3\u03a4\u039f\u03a1\u0399\u0391\u03a3-THE CITY OF Kastoria-Greece!!", "latitude": 40.514017, "owner_url": "http://www.panoramio.com/user/3302630", "photo_url": "http://www.panoramio.com/photo/47426241", "photo_file_url": "http://mw2.google.com/mw-panoramio/photos/square/47426241.jpg", "owner_id": 3302630}, {"upload_date": "01 October 2011", "owner_name": "NIKOS1954", "photo_id": 59858004, "longitude": 21.291504000000003, "height": 60, "width": 60, "photo_title": "\u039c\u03b5 \u03c6\u03cc\u03bd\u03c4\u03bf \u03c4\u03bf \u03c7\u03c9\u03c1\u03b9\u03cc \u039c\u03b1\u03c5\u03c1\u03bf\u03c7\u03ce\u03c1\u03b9 \u03c4\u03bf\u03c5 \u03bd\u03bf\u03bc\u03bf\u03cd \u039a\u03b1\u03c3\u03c4\u03bf\u03c1\u03b9\u03ac\u03c2.-With the backdrop of the village Mavrochori \u03bff Kastoria-Greece Macedonia.", "latitude": 40.51928, "owner_url": "http://www.panoramio.com/user/3302630", "photo_url": "http://www.panoramio.com/photo/59858004", "photo_file_url": "http://mw2.google.com/mw-panoramio/photos/square/59858004.jpg", "owner_id": 3302630}, {"upload_date": "02 September 2013", "owner_name": "varkos", "photo_id": 95656591, "place_id": "f68150cfeab6e4a869dc634169cfbeacb8cbb769", "longitude": 21.493423, "height": 60, "width": 60, "photo_title": "\u0397orses in the meadow", "latitude": 40.640086, "owner_url": "http://www.panoramio.com/user/3985322", "photo_url": "http://www.panoramio.com/photo/95656591", "photo_file_url": "http://mw2.google.com/mw-panoramio/photos/square/95656591.jpg", "owner_id": 3985322}, {"upload_date": "07 December 2010", "owner_name": "kelly79", "photo_id": 44726308, "longitude": 21.555626, "height": 60, "width": 60, "photo_title": "\u039b\u03b9\u03bc\u03bd\u03bf\u03c7\u03ce\u03c1\u03b9", "latitude": 40.623008, "owner_url": "http://www.panoramio.com/user/3062661", "photo_url": "http://www.panoramio.com/photo/44726308", "photo_file_url": "http://mw2.google.com/mw-panoramio/photos/square/44726308.jpg", "owner_id": 3062661}, {"upload_date": "25 January 2013", "owner_name": "Pantelis65", "photo_id": 85181989, "longitude": 21.499944, "height": 60, "width": 60, "photo_title": "\u0392\u03bb\u03ac\u03c3\u03c4\u03b7 \u039a\u03bf\u03b6\u03ac\u03bd\u03b7\u03c2 - village Vlasti", "latitude": 40.466997, "owner_url": "http://www.panoramio.com/user/5501361", "photo_url": "http://www.panoramio.com/photo/85181989", "photo_file_url": "http://mw2.google.com/mw-panoramio/photos/square/85181989.jpg", "owner_id": 5501361}, {"upload_date": "11 April 2013", "owner_name": "Pantelis65", "photo_id": 88656877, "longitude": 21.673606, "height": 60, "width": 60, "photo_title": "\u0391\u03c0\u03bf\u03b3\u03b5\u03c5\u03bc\u03b1\u03c4\u03b9\u03bd\u03cc\u03c2 \u03c0\u03b5\u03c1\u03af\u03c0\u03b1\u03c4\u03bf\u03c2 - evening walk", "latitude": 40.523945, "owner_url": "http://www.panoramio.com/user/5501361", "photo_url": "http://www.panoramio.com/photo/88656877", "photo_file_url": "http://mw2.google.com/mw-panoramio/photos/square/88656877.jpg", "owner_id": 5501361}, {"upload_date": "01 May 2011", "owner_name": "NIKOS1954", "photo_id": 51943997, "longitude": 21.266484, "height": 60, "width": 60, "photo_title": "\u0391\u03a0\u039f\u03a8\u0397 \u039a\u03a1\u0395\u039c\u0391\u03a3\u03a4\u0397\u03a3 \u039a\u0391\u03a3\u03a4\u039f\u03a1\u0399\u0391\u03a3.-View of Kastoria village Kremasti", "latitude": 40.45005, "owner_url": "http://www.panoramio.com/user/3302630", "photo_url": "http://www.panoramio.com/photo/51943997", "photo_file_url": "http://mw2.google.com/mw-panoramio/photos/square/51943997.jpg", "owner_id": 3302630}, {"upload_date": "06 February 2011", "owner_name": "kelly79", "photo_id": 47674843, "longitude": 21.800652000000014, "height": 60, "width": 60, "photo_title": "\u038c\u03c1\u03bf\u03c2 \u03a3\u03b9\u03bd\u03b9\u03ac\u03c4\u03c3\u03b9\u03ba\u03bf (2010) / mountain Siniatsiko", "latitude": 40.501596, "owner_url": "http://www.panoramio.com/user/3062661", "photo_url": "http://www.panoramio.com/photo/47674843", "photo_file_url": "http://mw2.google.com/mw-panoramio/photos/square/47674843.jpg", "owner_id": 3062661}, {"upload_date": "01 August 2013", "owner_name": "varkos", "photo_id": 93984030, "place_id": "d14c2e2294cdfc1e1c3d8269f147bc18db544b02", "longitude": 21.841744, "height": 60, "width": 60, "photo_title": "Lignite and power stations", "latitude": 40.451355, "owner_url": "http://www.panoramio.com/user/3985322", "photo_url": "http://www.panoramio.com/photo/93984030", "photo_file_url": "http://mw2.google.com/mw-panoramio/photos/square/93984030.jpg", "owner_id": 3985322}, {"upload_date": "19 November 2010", "owner_name": "KWO Tsoumenis", "photo_id": 43875576, "longitude": 21.679576999999995, "height": 60, "width": 60, "photo_title": "GRE Amyntaio {country area} by KWOT {Subtitle: Hitchcock Scene by KWOT}", "latitude": 40.697543, "owner_url": "http://www.panoramio.com/user/2549084", "photo_url": "http://www.panoramio.com/photo/43875576", "photo_file_url": "http://mw2.google.com/mw-panoramio/photos/square/43875576.jpg", "owner_id": 2549084}, {"upload_date": "19 April 2013", "owner_name": "Pantelis65", "photo_id": 89020861, "longitude": 21.599808, "height": 60, "width": 60, "photo_title": "\u03a3\u03c5\u03bd\u03bd\u03b5\u03c6\u03b9\u03b1\u03bc\u03ad\u03bd\u03b7 \u03b7\u03bc\u03ad\u03c1\u03b1 - Cloudy day", "latitude": 40.620207, "owner_url": "http://www.panoramio.com/user/5501361", "photo_url": "http://www.panoramio.com/photo/89020861", "photo_file_url": "http://mw2.google.com/mw-panoramio/photos/square/89020861.jpg", "owner_id": 5501361}, {"upload_date": "03 January 2011", "owner_name": "kelly79", "photo_id": 45978614, "longitude": 21.781768999999997, "height": 60, "width": 60, "photo_title": "\u0391\u0397\u03a3 \u039a\u0391\u03a1\u0394\u0399\u0391\u03a3-\u03a0\u03a4\u039f\u039b\u0395\u039c\u0391\u03aa\u0394\u0391", "latitude": 40.451519, "owner_url": "http://www.panoramio.com/user/3062661", "photo_url": "http://www.panoramio.com/photo/45978614", "photo_file_url": "http://mw2.google.com/mw-panoramio/photos/square/45978614.jpg", "owner_id": 3062661}, {"upload_date": "11 May 2013", "owner_name": "Jimli", "photo_id": 90148359, "longitude": 21.903434, "height": 60, "width": 60, "photo_title": "Lake in Vritta Village", "latitude": 40.809177, "owner_url": "http://www.panoramio.com/user/7392639", "photo_url": "http://www.panoramio.com/photo/90148359", "photo_file_url": "http://mw2.google.com/mw-panoramio/photos/square/90148359.jpg", "owner_id": 7392639}, {"upload_date": "03 May 2011", "owner_name": "kelly79", "photo_id": 52081535, "longitude": 21.529769999999985, "height": 60, "width": 60, "photo_title": "Nature in B/W ----> for all my friends from panoramio!", "latitude": 40.508497, "owner_url": "http://www.panoramio.com/user/3062661", "photo_url": "http://www.panoramio.com/photo/52081535", "photo_file_url": "http://mw2.google.com/mw-panoramio/photos/square/52081535.jpg", "owner_id": 3062661}, {"upload_date": "26 April 2013", "owner_name": "Pantelis65", "photo_id": 89342999, "longitude": 21.687012, "height": 60, "width": 60, "photo_title": "\u03a4\u03b5\u03bb\u03b5\u03c5\u03c4\u03b1\u03af\u03b5\u03c2 \u03b1\u03ba\u03c4\u03af\u03bd\u03b5\u03c2 \u03c4\u03b7\u03c2 \u03b7\u03bc\u03ad\u03c1\u03b1\u03c2 - last rays of the day", "latitude": 40.553461, "owner_url": "http://www.panoramio.com/user/5501361", "photo_url": "http://www.panoramio.com/photo/89342999", "photo_file_url": "http://mw2.google.com/mw-panoramio/photos/square/89342999.jpg", "owner_id": 5501361}, {"upload_date": "17 November 2013", "owner_name": "Pantelis65", "photo_id": 99405667, "longitude": 21.787734, "height": 60, "width": 60, "photo_title": "Cherry trees in autumn", "latitude": 40.804113, "owner_url": "http://www.panoramio.com/user/5501361", "photo_url": "http://www.panoramio.com/photo/99405667", "photo_file_url": "http://mw2.google.com/mw-panoramio/photos/square/99405667.jpg", "owner_id": 5501361}, {"upload_date": "18 January 2013", "owner_name": "Pantelis65", "photo_id": 84892361, "longitude": 21.558609, "height": 60, "width": 60, "photo_title": "\u039b\u03af\u03bc\u03bd\u03b7 \u03a7\u03b5\u03b9\u03bc\u03b1\u03b4\u03af\u03c4\u03b9\u03b4\u03b1 - lake Chimaditis", "latitude": 40.57563, "owner_url": "http://www.panoramio.com/user/5501361", "photo_url": "http://www.panoramio.com/photo/84892361", "photo_file_url": "http://mw2.google.com/mw-panoramio/photos/square/84892361.jpg", "owner_id": 5501361}, {"upload_date": "11 May 2013", "owner_name": "Jimli", "photo_id": 90148113, "longitude": 21.945029, "height": 60, "width": 60, "photo_title": "Rays of Light", "latitude": 40.798457, "owner_url": "http://www.panoramio.com/user/7392639", "photo_url": "http://www.panoramio.com/photo/90148113", "photo_file_url": "http://mw2.google.com/mw-panoramio/photos/square/90148113.jpg", "owner_id": 7392639}, {"upload_date": "18 December 2008", "owner_name": "KWO Tsoumenis", "photo_id": 16974604, "place_id": "b968754d850fb17148513453ecb20070680d2fd3", "longitude": 22.044389, "height": 60, "width": 60, "photo_title": "GRE Ag.Nikolaos Naousas Park-1 by KWOT", "latitude": 40.611534, "owner_url": "http://www.panoramio.com/user/2549084", "photo_url": "http://www.panoramio.com/photo/16974604", "photo_file_url": "http://mw2.google.com/mw-panoramio/photos/square/16974604.jpg", "owner_id": 2549084}, {"upload_date": "15 February 2011", "owner_name": "Pantelis65", "photo_id": 48142298, "longitude": 21.752779000000004, "height": 60, "width": 60, "photo_title": "\u039b\u03af\u03bc\u03bd\u03b7 \u0392\u03b5\u03b3\u03bf\u03c1\u03af\u03c4\u03b9\u03b4\u03b1 - lake Vegoritida", "latitude": 40.721258, "owner_url": "http://www.panoramio.com/user/5501361", "photo_url": "http://www.panoramio.com/photo/48142298", "photo_file_url": "http://mw2.google.com/mw-panoramio/photos/square/48142298.jpg", "owner_id": 5501361}, {"upload_date": "30 March 2013", "owner_name": "Pantelis65", "photo_id": 88088322, "longitude": 21.623712, "height": 60, "width": 60, "photo_title": "\u0397\u03bb\u03b9\u03bf\u03b2\u03b1\u03c3\u03af\u03bb\u03b5\u03bc\u03b1 \u03c3\u03c4\u03bf\u03bd \u03ba\u03ac\u03bc\u03c0\u03bf - Sunset in the valley", "latitude": 40.544983, "owner_url": "http://www.panoramio.com/user/5501361", "photo_url": "http://www.panoramio.com/photo/88088322", "photo_file_url": "http://mw2.google.com/mw-panoramio/photos/square/88088322.jpg", "owner_id": 5501361}, {"upload_date": "07 February 2013", "owner_name": "Pantelis65", "photo_id": 85772425, "longitude": 21.586075, "height": 60, "width": 60, "photo_title": "\u039b\u03b5\u03ba\u03b1\u03bd\u03bf\u03c0\u03ad\u03b4\u03b9\u03bf \u03a0\u03c4\u03bf\u03bb\u03b5\u03bc\u03b1\u0390\u03b4\u03b1\u03c2 - Ptolemais basin", "latitude": 40.470457, "owner_url": "http://www.panoramio.com/user/5501361", "photo_url": "http://www.panoramio.com/photo/85772425", "photo_file_url": "http://mw2.google.com/mw-panoramio/photos/square/85772425.jpg", "owner_id": 5501361}, {"upload_date": "26 May 2010", "owner_name": "Maria Pantazi", "photo_id": 35986851, "longitude": 21.359245999999985, "height": 60, "width": 60, "photo_title": "\u0398\u03ad\u03b1 \u03c0\u03bf\u03c5 \u03ba\u03cc\u03b2\u03b5\u03b9 \u03c4\u03b7\u03bd \u03b1\u03bd\u03ac\u03c3\u03b1.../// Breathtaking view...", "latitude": 40.466131, "owner_url": "http://www.panoramio.com/user/1728041", "photo_url": "http://www.panoramio.com/photo/35986851", "photo_file_url": "http://mw2.google.com/mw-panoramio/photos/square/35986851.jpg", "owner_id": 1728041}, {"upload_date": "09 November 2012", "owner_name": "KxKosmas", "photo_id": 81859252, "longitude": 21.2891, "height": 60, "width": 60, "photo_title": "\u03a0\u03c1\u03bf\u03ca\u03c3\u03c4\u03bf\u03c1\u03b9\u03ba\u03cc\u03c2 \u039b\u03b9\u03bc\u03bd\u03b1\u03af\u03bf\u03c2 \u03bf\u03b9\u03ba\u03b9\u03c3\u03bc\u03cc\u03c2 \u0394\u03b9\u03c3\u03c0\u03b7\u03bb\u03b9\u03bf\u03c5 - Prehistoric lakeside settlement Dispilio", "latitude": 40.485254, "owner_url": "http://www.panoramio.com/user/1240363", "photo_url": "http://www.panoramio.com/photo/81859252", "photo_file_url": "http://mw2.google.com/mw-panoramio/photos/square/81859252.jpg", "owner_id": 1240363}, {"upload_date": "19 December 2012", "owner_name": "Pantelis65", "photo_id": 83594917, "longitude": 21.404918, "height": 60, "width": 60, "photo_title": "\u03a6\u03bb\u03ce\u03c1\u03b9\u03bd\u03b1, \u03bf \u03b4\u03c1\u03cc\u03bc\u03bf\u03c2 \u03b4\u03af\u03c0\u03bb\u03b1 \u03c3\u03c4\u03bf\u03bd \u03c0\u03bf\u03c4\u03b1\u03bc\u03cc \u03a3\u03b1\u03ba\u03bf\u03c5\u03bb\u03ad\u03b2\u03b1 - Florina, the road beside the river Sakouleva", "latitude": 40.777893, "owner_url": "http://www.panoramio.com/user/5501361", "photo_url": "http://www.panoramio.com/photo/83594917", "photo_file_url": "http://mw2.google.com/mw-panoramio/photos/square/83594917.jpg", "owner_id": 5501361}, {"upload_date": "28 September 2010", "owner_name": "Maria Pantazi", "photo_id": 41425125, "longitude": 21.465064, "height": 60, "width": 60, "photo_title": "\u039c\u03b7\u03bd \u03c0\u03ac\u03c4\u03b5 \u03b5\u03ba\u03b5\u03af \u03c4\u03b7 \u03bd\u03cd\u03c7\u03c4\u03b1!!!...///Do not go there at night!!! :-)))", "latitude": 40.536005, "owner_url": "http://www.panoramio.com/user/1728041", "photo_url": "http://www.panoramio.com/photo/41425125", "photo_file_url": "http://mw2.google.com/mw-panoramio/photos/square/41425125.jpg", "owner_id": 1728041}, {"upload_date": "13 September 2008", "owner_name": "Drosoula", "photo_id": 14083575, "longitude": 22.113419, "height": 60, "width": 60, "photo_title": "cracked clay, Nea Zoi, Pella", "latitude": 40.843343, "owner_url": "http://www.panoramio.com/user/2057514", "photo_url": "http://www.panoramio.com/photo/14083575", "photo_file_url": "http://mw2.google.com/mw-panoramio/photos/square/14083575.jpg", "owner_id": 2057514}, {"upload_date": "07 December 2009", "owner_name": "NIKOS1954", "photo_id": 29635097, "longitude": 21.696281, "height": 60, "width": 60, "photo_title": "\u03a0\u03a4\u039f\u039b\u0391\u039c\u0391\u03aa\u0394\u0391-\u0395\u03a1\u0393\u039f\u03a3\u03a4\u0391\u03a3\u0399\u039f \u0394.\u0395.\u0397.", "latitude": 40.490957, "owner_url": "http://www.panoramio.com/user/3302630", "photo_url": "http://www.panoramio.com/photo/29635097", "photo_file_url": "http://mw2.google.com/mw-panoramio/photos/square/29635097.jpg", "owner_id": 3302630}, {"upload_date": "03 May 2013", "owner_name": "Jimli", "photo_id": 89716106, "longitude": 22.085599, "height": 60, "width": 60, "photo_title": "Church of the 318 \u0395minent Fathers in Rizarion Village, Edessa", "latitude": 40.784494, "owner_url": "http://www.panoramio.com/user/7392639", "photo_url": "http://www.panoramio.com/photo/89716106", "photo_file_url": "http://mw2.google.com/mw-panoramio/photos/square/89716106.jpg", "owner_id": 7392639}, {"upload_date": "05 January 2014", "owner_name": "\u03a7\u03c1\u03b7\u03c3\u03c4\u03bf\u03c2 \u0391\u03c1\u03b3\u03c5\u03c1\u03b9\u03bf\u03c5", "photo_id": 101368634, "longitude": 21.752414, "height": 60, "width": 60, "photo_title": "In White Top Kaimamtsalan!", "latitude": 40.855111, "owner_url": "http://www.panoramio.com/user/7209414", "photo_url": "http://www.panoramio.com/photo/101368634", "photo_file_url": "http://mw2.google.com/mw-panoramio/photos/square/101368634.jpg", "owner_id": 7209414}, {"upload_date": "05 January 2013", "owner_name": "diliapo & Mary C", "photo_id": 84288389, "longitude": 21.499557, "height": 60, "width": 60, "photo_title": "Snowy landscape", "latitude": 40.591014, "owner_url": "http://www.panoramio.com/user/21336", "photo_url": "http://www.panoramio.com/photo/84288389", "photo_file_url": "http://mw2.google.com/mw-panoramio/photos/square/84288389.jpg", "owner_id": 21336}, {"upload_date": "13 January 2014", "owner_name": "Pantelis65", "photo_id": 101718693, "longitude": 21.856699, "height": 60, "width": 60, "photo_title": "\u039a\u03b1\u03bb\u03cd\u03b2\u03b5\u03c2 \u03c3\u03c4\u03bf \u03cc\u03c1\u03bf\u03c2 \u0392\u03cc\u03c1\u03b1\u03c2.  - Huts on the mountain Voras.", "latitude": 40.894116, "owner_url": "http://www.panoramio.com/user/5501361", "photo_url": "http://www.panoramio.com/photo/101718693", "photo_file_url": "http://mw2.google.com/mw-panoramio/photos/square/101718693.jpg", "owner_id": 5501361}, {"upload_date": "01 February 2011", "owner_name": "Pantelis65", "photo_id": 47405659, "longitude": 21.54307399999999, "height": 60, "width": 60, "photo_title": "\u038c\u03c1\u03bf\u03c2 \u0386\u03c3\u03ba\u03b9\u03bf - Mount Askio", "latitude": 40.450735, "owner_url": "http://www.panoramio.com/user/5501361", "photo_url": "http://www.panoramio.com/photo/47405659", "photo_file_url": "http://mw2.google.com/mw-panoramio/photos/square/47405659.jpg", "owner_id": 5501361}, {"upload_date": "08 April 2013", "owner_name": "Jimli", "photo_id": 88547873, "longitude": 21.717138, "height": 60, "width": 60, "photo_title": "Let's paint the sky!", "latitude": 40.610239, "owner_url": "http://www.panoramio.com/user/7392639", "photo_url": "http://www.panoramio.com/photo/88547873", "photo_file_url": "http://mw2.google.com/mw-panoramio/photos/square/88547873.jpg", "owner_id": 7392639}, {"upload_date": "01 March 2012", "owner_name": "NIKOS1954", "photo_id": 67725620, "longitude": 21.254976, "height": 60, "width": 60, "photo_title": "\u03a0\u03bf\u03c4\u03b1\u03bc\u03cc\u03c2 \u0391\u03bb\u03b9\u03ac\u03ba\u03bc\u03c9\u03bd\u03b1\u03c2 \u03c3\u03c4\u03bf \u0386\u03c1\u03b3\u03bf\u03c2 \u039f\u03c1\u03b5\u03c3\u03c4\u03b9\u03ba\u03cc.-River Aliakmonas near  Argos Orestico.", "latitude": 40.461127, "owner_url": "http://www.panoramio.com/user/3302630", "photo_url": "http://www.panoramio.com/photo/67725620", "photo_file_url": "http://mw2.google.com/mw-panoramio/photos/square/67725620.jpg", "owner_id": 3302630}, {"upload_date": "01 October 2011", "owner_name": "NIKOS1954", "photo_id": 59857975, "longitude": 21.276053999999988, "height": 60, "width": 60, "photo_title": "\u039c\u03b9\u03b1 \u03ac\u03c0\u03bf\u03c8\u03b7 \u03c4\u03b7\u03c2 \u03bb\u03af\u03bc\u03bd\u03b7\u03c2 \u03c4\u03b7\u03c2 \u039a\u03b1\u03c3\u03c4\u03bf\u03c1\u03b9\u03ac\u03c2.-A view of Lake Kastoria-Greece Macedonia.", "latitude": 40.505838, "owner_url": "http://www.panoramio.com/user/3302630", "photo_url": "http://www.panoramio.com/photo/59857975", "photo_file_url": "http://mw2.google.com/mw-panoramio/photos/square/59857975.jpg", "owner_id": 3302630}, {"upload_date": "01 November 2011", "owner_name": "NIKOS1954", "photo_id": 61454039, "longitude": 21.276955999999984, "height": 60, "width": 60, "photo_title": "\u03a0\u03b1\u03bd\u03bf\u03c1\u03b1\u03bc\u03b9\u03ba\u03ae \u03ac\u03c0\u03bf\u03c8\u03b7 \u039a\u03b1\u03c3\u03c4\u03bf\u03c1\u03b9\u03ac\u03c2.-Panoramic View of city Kastoria-Greece.", "latitude": 40.523342, "owner_url": "http://www.panoramio.com/user/3302630", "photo_url": "http://www.panoramio.com/photo/61454039", "photo_file_url": "http://mw2.google.com/mw-panoramio/photos/square/61454039.jpg", "owner_id": 3302630}, {"upload_date": "01 June 2013", "owner_name": "varkos", "photo_id": 91134932, "place_id": "f935fc146dc7c161979ea10e77fc0330d02a765d", "longitude": 21.255458, "height": 60, "width": 60, "photo_title": "View of the city of Kastoria and Lake.", "latitude": 40.515941, "owner_url": "http://www.panoramio.com/user/3985322", "photo_url": "http://www.panoramio.com/photo/91134932", "photo_file_url": "http://mw2.google.com/mw-panoramio/photos/square/91134932.jpg", "owner_id": 3985322}, {"upload_date": "01 June 2013", "owner_name": "varkos", "photo_id": 91135435, "place_id": "f935fc146dc7c161979ea10e77fc0330d02a765d", "longitude": 21.262563, "height": 60, "width": 60, "photo_title": "View of the city of Kastoria and Lake.", "latitude": 40.519902, "owner_url": "http://www.panoramio.com/user/3985322", "photo_url": "http://www.panoramio.com/photo/91135435", "photo_file_url": "http://mw2.google.com/mw-panoramio/photos/square/91135435.jpg", "owner_id": 3985322}, {"upload_date": "02 January 2011", "owner_name": "NIKOS1954", "photo_id": 45940075, "longitude": 21.269767, "height": 60, "width": 60, "photo_title": "\u039a\u0391\u03a3\u03a4\u039f\u03a1\u0399\u0391 \u039c\u0395 \u03a6\u039f\u039d\u03a4\u039f \u03a4\u039f \u0392\u0399\u03a4\u03a3\u0399-\u039aastoria in Greece Macedonia!!!", "latitude": 40.521357, "owner_url": "http://www.panoramio.com/user/3302630", "photo_url": "http://www.panoramio.com/photo/45940075", "photo_file_url": "http://mw2.google.com/mw-panoramio/photos/square/45940075.jpg", "owner_id": 3302630}, {"upload_date": "16 September 2012", "owner_name": "NIKOS1954", "photo_id": 79009410, "longitude": 21.265947, "height": 60, "width": 60, "photo_title": "\u03a3\u03c4\u03b7\u03bd \u03bb\u03af\u03bc\u03bd\u03b7 \u03c4\u03b7\u03c2 \u039a\u03b1\u03c3\u03c4\u03bf\u03c1\u03b9\u03ac\u03c2 \u03cc\u03bb\u03b1 \u03b5\u03af\u03bd\u03b1\u03b9 \u03ae\u03c1\u03b5\u03bc\u03b1!!!!-In Lake Kastoria all is calm!!", "latitude": 40.517562, "owner_url": "http://www.panoramio.com/user/3302630", "photo_url": "http://www.panoramio.com/photo/79009410", "photo_file_url": "http://mw2.google.com/mw-panoramio/photos/square/79009410.jpg", "owner_id": 3302630}, {"upload_date": "01 September 2011", "owner_name": "NIKOS1954", "photo_id": 58269002, "longitude": 21.259402999999992, "height": 60, "width": 60, "photo_title": "\u03a3\u03c4\u03b7\u03bd \u039a\u03b1\u03c3\u03c4\u03bf\u03c1\u03b9\u03ac \u03c3\u03c4\u03b7 \u03bd\u03ad\u03b1 \u03c0\u03cc\u03bb\u03b7.(In Kastoria, the new city.)", "latitude": 40.533633, "owner_url": "http://www.panoramio.com/user/3302630", "photo_url": "http://www.panoramio.com/photo/58269002", "photo_file_url": "http://mw2.google.com/mw-panoramio/photos/square/58269002.jpg", "owner_id": 3302630}, {"upload_date": "01 March 2011", "owner_name": "NIKOS1954", "photo_id": 48831908, "longitude": 21.256571000000008, "height": 60, "width": 60, "photo_title": "\u03a3\u03a4\u0397 \u039b\u0399\u039c\u039d\u0397 \u03a4\u0397\u03a3 \u039a\u0391\u03a3\u03a4\u039f\u03a1\u0399\u0391\u03a3.-In lake of Kastoria-Greece.", "latitude": 40.50681, "owner_url": "http://www.panoramio.com/user/3302630", "photo_url": "http://www.panoramio.com/photo/48831908", "photo_file_url": "http://mw2.google.com/mw-panoramio/photos/square/48831908.jpg", "owner_id": 3302630}, {"upload_date": "02 December 2012", "owner_name": "Pantelis65", "photo_id": 82873848, "longitude": 21.500888, "height": 60, "width": 60, "photo_title": "I. \u039c\u03bf\u03bd\u03ae \u0391\u03b3\u03af\u03bf\u03c5 \u03a0\u03b1\u03bd\u03c4\u03b5\u03bb\u03b5\u03ae\u03bc\u03bf\u03bd\u03b1 \u0392\u03bb\u03ac\u03c3\u03c4\u03b7\u03c2 - Monastery of St. Panteleimon Vlasti", "latitude": 40.471437, "owner_url": "http://www.panoramio.com/user/5501361", "photo_url": "http://www.panoramio.com/photo/82873848", "photo_file_url": "http://mw2.google.com/mw-panoramio/photos/square/82873848.jpg", "owner_id": 5501361}, {"upload_date": "01 March 2012", "owner_name": "NIKOS1954", "photo_id": 67725573, "longitude": 21.293484, "height": 60, "width": 60, "photo_title": "\u0397\u03bb\u03b9\u03bf\u03b2\u03b1\u03c3\u03af\u03bb\u03b5\u03bc\u03b1 \u03c3\u03c4\u03b7 \u03bb\u03af\u03bc\u03bd\u03b7 \u03c4\u03b7\u03c2 \u039a\u03b1\u03c3\u03c4\u03bf\u03c1\u03b9\u03ac\u03c2.-Sunset on Lake of Kastoria in Greece Macedonia.", "latitude": 40.50113, "owner_url": "http://www.panoramio.com/user/3302630", "photo_url": "http://www.panoramio.com/photo/67725573", "photo_file_url": "http://mw2.google.com/mw-panoramio/photos/square/67725573.jpg", "owner_id": 3302630}, {"upload_date": "18 January 2010", "owner_name": "Drosoula", "photo_id": 31201783, "longitude": 22.045065, "height": 60, "width": 60, "photo_title": "bridge in Edessa", "latitude": 40.802899, "owner_url": "http://www.panoramio.com/user/2057514", "photo_url": "http://www.panoramio.com/photo/31201783", "photo_file_url": "http://mw2.google.com/mw-panoramio/photos/square/31201783.jpg", "owner_id": 2057514}, {"upload_date": "14 December 2013", "owner_name": "NIKOS1954", "photo_id": 100533019, "longitude": 21.299164, "height": 60, "width": 60, "photo_title": "\u03a3\u03c4\u03bf \u03b2\u03ac\u03b8\u03bf\u03c2 \u03b7 \u03a0\u03bf\u03bb\u03c5\u03ba\u03ac\u03c1\u03c0\u03b7 \u03ba\u03b1\u03b9 \u03c4\u03bf \u039c\u03b1\u03c5\u03c1\u03bf\u03c7\u03ce\u03c1\u03b9 \u03c4\u03bf\u03c5 \u03bd\u03bf\u03bc\u03bf\u03cd \u039a\u03b1\u03c3\u03c4\u03bf\u03c1\u03b9\u03ac\u03c2.-In the background the villages Polykarpi and Mavrochori  of Kastoria.", "latitude": 40.516213, "owner_url": "http://www.panoramio.com/user/3302630", "photo_url": "http://www.panoramio.com/photo/100533019", "photo_file_url": "http://mw2.google.com/mw-panoramio/photos/square/100533019.jpg", "owner_id": 3302630}, {"upload_date": "07 February 2011", "owner_name": "kelly79", "photo_id": 47731943, "longitude": 21.64930000000001, "height": 60, "width": 60, "photo_title": "\u038c\u03c1\u03bf\u03c2 \u03a3\u03b9\u03bd\u03b9\u03ac\u03c4\u03c3\u03b9\u03ba\u03bf (2011)-Mountain Siniatsiko-Ptolemaida", "latitude": 40.537188, "owner_url": "http://www.panoramio.com/user/3062661", "photo_url": "http://www.panoramio.com/photo/47731943", "photo_file_url": "http://mw2.google.com/mw-panoramio/photos/square/47731943.jpg", "owner_id": 3062661}, {"upload_date": "24 April 2013", "owner_name": "NIKOS1954", "photo_id": 89262498, "longitude": 21.290922, "height": 60, "width": 60, "photo_title": "\u0397 \u03b5\u03ba\u03ba\u03bb\u03b7\u03c3\u03af\u03b1 \u03c4\u03b7\u03c2 \u03a0\u03b1\u03bd\u03b1\u03b3\u03af\u03b1\u03c2 \u03c4\u03b7\u03c2 \u039c\u03b1\u03c5\u03c1\u03b9\u03ce\u03c4\u03b9\u03c3\u03c3\u03b1\u03c2 \u03c3\u03c4\u03b7\u03bd \u039a\u03b1\u03c3\u03c4\u03bf\u03c1\u03b9\u03ac!!!-The church of Panagia Mavriotisa in Kastoria!", "latitude": 40.509372, "owner_url": "http://www.panoramio.com/user/3302630", "photo_url": "http://www.panoramio.com/photo/89262498", "photo_file_url": "http://mw2.google.com/mw-panoramio/photos/square/89262498.jpg", "owner_id": 3302630}, {"upload_date": "14 November 2010", "owner_name": "Alice Pires", "photo_id": 43678344, "longitude": 21.27840900000001, "height": 60, "width": 60, "photo_title": "KASTORIA - AUTUMN COLOURS", "latitude": 40.511088, "owner_url": "http://www.panoramio.com/user/2679868", "photo_url": "http://www.panoramio.com/photo/43678344", "photo_file_url": "http://mw2.google.com/mw-panoramio/photos/square/43678344.jpg", "owner_id": 2679868}, {"upload_date": "15 December 2010", "owner_name": "Drosoula", "photo_id": 45057047, "longitude": 22.051630999999986, "height": 60, "width": 60, "photo_title": "the plains viewed from Edessa", "latitude": 40.797973, "owner_url": "http://www.panoramio.com/user/2057514", "photo_url": "http://www.panoramio.com/photo/45057047", "photo_file_url": "http://mw2.google.com/mw-panoramio/photos/square/45057047.jpg", "owner_id": 2057514}, {"upload_date": "04 February 2012", "owner_name": "klerh", "photo_id": 66116202, "place_id": "dd444b033d5bd7059cea0cadb79d070141e25905", "longitude": 22.054919, "height": 60, "width": 60, "photo_title": "\u039f\u03b9 \u03ba\u03b1\u03c4\u03b1\u03c1\u03c1\u03ac\u03ba\u03c4\u03b5\u03c2 \u03c4\u03b7\u03c2 \u0388\u03b4\u03b5\u03c3\u03c3\u03b1\u03c2.", "latitude": 40.80386, "owner_url": "http://www.panoramio.com/user/3754241", "photo_url": "http://www.panoramio.com/photo/66116202", "photo_file_url": "http://mw2.google.com/mw-panoramio/photos/square/66116202.jpg", "owner_id": 3754241}, {"upload_date": "15 August 2012", "owner_name": "Pantelis65", "photo_id": 77096079, "longitude": 21.687213, "height": 60, "width": 60, "photo_title": "\u039f \u0397\u039b\u0399\u039f\u03a3 \u0394\u03a5\u0395\u0399 - the sun sets", "latitude": 40.519142, "owner_url": "http://www.panoramio.com/user/5501361", "photo_url": "http://www.panoramio.com/photo/77096079", "photo_file_url": "http://mw2.google.com/mw-panoramio/photos/square/77096079.jpg", "owner_id": 5501361}, {"upload_date": "19 December 2012", "owner_name": "diliapo & Mary C", "photo_id": 83578418, "longitude": 21.492176, "height": 60, "width": 60, "photo_title": "Winter Wonderland!", "latitude": 40.64408, "owner_url": "http://www.panoramio.com/user/21336", "photo_url": "http://www.panoramio.com/photo/83578418", "photo_file_url": "http://mw2.google.com/mw-panoramio/photos/square/83578418.jpg", "owner_id": 21336}, {"upload_date": "07 May 2013", "owner_name": "Pantelis65", "photo_id": 89939402, "longitude": 21.707504, "height": 60, "width": 60, "photo_title": "\u03a0\u03b1\u03c0\u03b1\u03c1\u03bf\u03cd\u03bd\u03b5\u03c2 \u03c3\u03c4\u03b1 \u03b1\u03bd\u03bf\u03b9\u03be\u03b9\u03ac\u03c4\u03b9\u03ba\u03b1 \u03c3\u03c0\u03b1\u03c1\u03c4\u03ac - poppies in spring crops", "latitude": 40.540988, "owner_url": "http://www.panoramio.com/user/5501361", "photo_url": "http://www.panoramio.com/photo/89939402", "photo_file_url": "http://mw2.google.com/mw-panoramio/photos/square/89939402.jpg", "owner_id": 5501361}, {"upload_date": "02 September 2013", "owner_name": "NIKOS1954", "photo_id": 95606552, "longitude": 21.27142, "height": 60, "width": 60, "photo_title": "\u0397\u03c3\u03c5\u03c7\u03af\u03b1!!!!!-Quiet!!", "latitude": 40.513408, "owner_url": "http://www.panoramio.com/user/3302630", "photo_url": "http://www.panoramio.com/photo/95606552", "photo_file_url": "http://mw2.google.com/mw-panoramio/photos/square/95606552.jpg", "owner_id": 3302630}, {"upload_date": "13 December 2010", "owner_name": "kelly79", "photo_id": 44977535, "longitude": 21.796703, "height": 60, "width": 60, "photo_title": "\u039f\u03c1\u03c5\u03c7\u03b5\u03af\u03bf \u039a\u03b1\u03c1\u03b4\u03b9\u03ac\u03c2", "latitude": 40.433621, "owner_url": "http://www.panoramio.com/user/3062661", "photo_url": "http://www.panoramio.com/photo/44977535", "photo_file_url": "http://mw2.google.com/mw-panoramio/photos/square/44977535.jpg", "owner_id": 3062661}, {"upload_date": "01 July 2011", "owner_name": "NIKOS1954", "photo_id": 55029266, "longitude": 21.25755799999999, "height": 60, "width": 60, "photo_title": "\u03a0\u03b1\u03bb\u03b9\u03cc \u03b1\u03c1\u03c7\u03bf\u03bd\u03c4\u03b9\u03ba\u03cc \u03c3\u03c4 \u0386\u03c1\u03b3\u03bf\u03c2 \u039f\u03c1\u03b5\u03c3\u03c4\u03b9\u03ba\u03cc \u039a\u03b1\u03c3\u03c4\u03bf\u03c1\u03b9\u03ac\u03c2.-Old manor house in Argos Orestiko of Kastoria.", "latitude": 40.453936, "owner_url": "http://www.panoramio.com/user/3302630", "photo_url": "http://www.panoramio.com/photo/55029266", "photo_file_url": "http://mw2.google.com/mw-panoramio/photos/square/55029266.jpg", "owner_id": 3302630}, {"upload_date": "25 June 2013", "owner_name": "Pantelis65", "photo_id": 92236367, "longitude": 21.510887, "height": 60, "width": 60, "photo_title": "\u03a3\u03b9\u03c3\u03ac\u03bd\u03b9 \u039a\u03bf\u03b6\u03ac\u03bd\u03b7\u03c2 - Village Sisani, Kozani", "latitude": 40.440154, "owner_url": "http://www.panoramio.com/user/5501361", "photo_url": "http://www.panoramio.com/photo/92236367", "photo_file_url": "http://mw2.google.com/mw-panoramio/photos/square/92236367.jpg", "owner_id": 5501361}, {"upload_date": "31 October 2011", "owner_name": "NIKOS1954", "photo_id": 61449731, "longitude": 21.277920999999992, "height": 60, "width": 60, "photo_title": "\u0391\u03bc\u03bc\u03bf\u03c5\u03b4\u03ac\u03c1\u03b1-\u039a\u03b1\u03c3\u03c4\u03bf\u03c1\u03b9\u03ac\u03c2.-Village Amoudara of Kastoria-Greece.", "latitude": 40.423282, "owner_url": "http://www.panoramio.com/user/3302630", "photo_url": "http://www.panoramio.com/photo/61449731", "photo_file_url": "http://mw2.google.com/mw-panoramio/photos/square/61449731.jpg", "owner_id": 3302630}, {"upload_date": "29 May 2011", "owner_name": "KWO Tsoumenis", "photo_id": 53408353, "longitude": 22.067187999999987, "height": 60, "width": 60, "photo_title": "GRE Naousa Imathias Clock Tower (Town Hall) by KWOT", "latitude": 40.630885, "owner_url": "http://www.panoramio.com/user/2549084", "photo_url": "http://www.panoramio.com/photo/53408353", "photo_file_url": "http://mw2.google.com/mw-panoramio/photos/square/53408353.jpg", "owner_id": 2549084}, {"upload_date": "01 November 2012", "owner_name": "KxKosmas", "photo_id": 81439396, "longitude": 21.284062, "height": 60, "width": 60, "photo_title": "\u039b\u03af\u03bc\u03bd\u03b7 \u039a\u03c3\u03c4\u03bf\u03c1\u03b9\u03ac\u03c2 - Kastoria lake", "latitude": 40.505253, "owner_url": "http://www.panoramio.com/user/1240363", "photo_url": "http://www.panoramio.com/photo/81439396", "photo_file_url": "http://mw2.google.com/mw-panoramio/photos/square/81439396.jpg", "owner_id": 1240363}, {"upload_date": "18 March 2012", "owner_name": "kelly79", "photo_id": 68714657, "longitude": 21.261306, "height": 60, "width": 60, "photo_title": "\u039a\u03b1\u03c3\u03c4\u03bf\u03c1\u03b9\u03ac", "latitude": 40.529393, "owner_url": "http://www.panoramio.com/user/3062661", "photo_url": "http://www.panoramio.com/photo/68714657", "photo_file_url": "http://mw2.google.com/mw-panoramio/photos/square/68714657.jpg", "owner_id": 3062661}, {"upload_date": "30 March 2013", "owner_name": "Pantelis65", "photo_id": 88088538, "longitude": 21.686465, "height": 60, "width": 60, "photo_title": "\u03a0\u03ac\u03c1\u03ba\u03bf \u03b5\u03ba\u03c4\u03ac\u03ba\u03c4\u03c9\u03bd \u03b1\u03bd\u03b1\u03b3\u03ba\u03ce\u03bd, \u03a0\u03c4\u03bf\u03bb\u03b5\u03bc\u03b1\u03ca\u03b4\u03b1 - Park emergencies, Ptolemais", "latitude": 40.507274, "owner_url": "http://www.panoramio.com/user/5501361", "photo_url": "http://www.panoramio.com/photo/88088538", "photo_file_url": "http://mw2.google.com/mw-panoramio/photos/square/88088538.jpg", "owner_id": 5501361}, {"upload_date": "14 January 2013", "owner_name": "Pantelis65", "photo_id": 84736729, "longitude": 21.54788, "height": 60, "width": 60, "photo_title": "\u039b\u03af\u03bc\u03bd\u03b7 \u0396\u03ac\u03b6\u03b1\u03c1\u03b7, \u039b\u03b9\u03bc\u03bd\u03bf\u03c7\u03ce\u03c1\u03b9 - Lake Zazari, Limnochori", "latitude": 40.639326, "owner_url": "http://www.panoramio.com/user/5501361", "photo_url": "http://www.panoramio.com/photo/84736729", "photo_file_url": "http://mw2.google.com/mw-panoramio/photos/square/84736729.jpg", "owner_id": 5501361}, {"upload_date": "07 February 2013", "owner_name": "Pantelis65", "photo_id": 85772396, "longitude": 21.540241, "height": 60, "width": 60, "photo_title": "\u039b\u03b5\u03ba\u03b1\u03bd\u03bf\u03c0\u03ad\u03b4\u03b9\u03bf \u03a0\u03c4\u03bf\u03bb\u03b5\u03bc\u03b1\u0390\u03b4\u03b1\u03c2 - Ptolemais basin", "latitude": 40.500747, "owner_url": "http://www.panoramio.com/user/5501361", "photo_url": "http://www.panoramio.com/photo/85772396", "photo_file_url": "http://mw2.google.com/mw-panoramio/photos/square/85772396.jpg", "owner_id": 5501361}, {"upload_date": "09 June 2014", "owner_name": "NIKOS1954", "photo_id": 107989563, "longitude": 21.266956, "height": 60, "width": 60, "photo_title": "\u0394\u03b5\u03bd \u03b5\u03af\u03bd\u03b1\u03b9 \u03cc\u03bc\u03bf\u03c1\u03c6\u03b1 \u03b5\u03b4\u03ce;-It is beautiful here?", "latitude": 40.514974, "owner_url": "http://www.panoramio.com/user/3302630", "photo_url": "http://www.panoramio.com/photo/107989563", "photo_file_url": "http://mw2.google.com/mw-panoramio/photos/square/107989563.jpg", "owner_id": 3302630}, {"upload_date": "07 December 2013", "owner_name": "Pantelis65", "photo_id": 100246006, "longitude": 21.777167, "height": 60, "width": 60, "photo_title": "\u039b\u03af\u03bc\u03bd\u03b7 \u0392\u03b5\u03b3\u03bf\u03c1\u03af\u03c4\u03b9\u03b4\u03b1, \u0386\u03b3\u03b9\u03bf\u03c2 \u03a0\u03b1\u03bd\u03c4\u03b5\u03bb\u03b5\u03ae\u03bc\u03bf\u03bd\u03b1\u03c2 \u03a6\u03bb\u03ce\u03c1\u03b9\u03bd\u03b1\u03c2. - Lake Vegoritida, Florina Agios Panteleimon.", "latitude": 40.787414, "owner_url": "http://www.panoramio.com/user/5501361", "photo_url": "http://www.panoramio.com/photo/100246006", "photo_file_url": "http://mw2.google.com/mw-panoramio/photos/square/100246006.jpg", "owner_id": 5501361}, {"upload_date": "19 June 2014", "owner_name": "NIKOS1954", "photo_id": 108354191, "longitude": 21.287727, "height": 60, "width": 60, "photo_title": "\u03a3\u03b1\u03c2 \u03b1\u03c1\u03ad\u03c3\u03b5\u03b9;-Like?", "latitude": 40.507535, "owner_url": "http://www.panoramio.com/user/3302630", "photo_url": "http://www.panoramio.com/photo/108354191", "photo_file_url": "http://mw2.google.com/mw-panoramio/photos/square/108354191.jpg", "owner_id": 3302630}, {"upload_date": "13 December 2010", "owner_name": "kelly79", "photo_id": 44977534, "longitude": 21.78915, "height": 60, "width": 60, "photo_title": "\u039f\u03c1\u03c5\u03c7\u03b5\u03af\u03bf \u039a\u03b1\u03c1\u03b4\u03b9\u03ac\u03c2", "latitude": 40.44342, "owner_url": "http://www.panoramio.com/user/3062661", "photo_url": "http://www.panoramio.com/photo/44977534", "photo_file_url": "http://mw2.google.com/mw-panoramio/photos/square/44977534.jpg", "owner_id": 3062661}, {"upload_date": "06 January 2013", "owner_name": "diliapo & Mary C", "photo_id": 84336896, "longitude": 21.273769, "height": 60, "width": 60, "photo_title": "Winter walk 1", "latitude": 40.521895, "owner_url": "http://www.panoramio.com/user/21336", "photo_url": "http://www.panoramio.com/photo/84336896", "photo_file_url": "http://mw2.google.com/mw-panoramio/photos/square/84336896.jpg", "owner_id": 21336}, {"upload_date": "25 October 2010", "owner_name": "Nik_the_Greek", "photo_id": 42748379, "longitude": 21.316524000000015, "height": 60, "width": 60, "photo_title": "Nice Tavern in Mavrochori (Kastoria)", "latitude": 40.511711, "owner_url": "http://www.panoramio.com/user/1991378", "photo_url": "http://www.panoramio.com/photo/42748379", "photo_file_url": "http://mw2.google.com/mw-panoramio/photos/square/42748379.jpg", "owner_id": 1991378}, {"upload_date": "07 May 2013", "owner_name": "Pantelis65", "photo_id": 89940705, "longitude": 21.712798, "height": 60, "width": 60, "photo_title": "\u0395\u03be\u03c9\u03ba\u03bb\u03ae\u03c3\u03b9 \u0396\u03c9\u03bf\u03b4\u03cc\u03c7\u03bf\u03c5 \u03a0\u03b7\u03b3\u03ae\u03c2 - chapel Life Giving Spring", "latitude": 40.547602, "owner_url": "http://www.panoramio.com/user/5501361", "photo_url": "http://www.panoramio.com/photo/89940705", "photo_file_url": "http://mw2.google.com/mw-panoramio/photos/square/89940705.jpg", "owner_id": 5501361}, {"upload_date": "03 November 2010", "owner_name": "giannap10", "photo_id": 43152973, "longitude": 22.081243, "height": 60, "width": 60, "photo_title": "\u03a4\u039f  \u0391\u039c\u03a0\u0395\u039b\u0399  \u03a4\u039f\u03a5  \u039a\u03a5\u03a1  \u0393\u0399\u0391\u039d\u039d\u0397", "latitude": 40.628499, "owner_url": "http://www.panoramio.com/user/4440177", "photo_url": "http://www.panoramio.com/photo/43152973", "photo_file_url": "http://mw2.google.com/mw-panoramio/photos/square/43152973.jpg", "owner_id": 4440177}, {"upload_date": "05 January 2013", "owner_name": "diliapo & Mary C", "photo_id": 84292795, "longitude": 21.263673, "height": 60, "width": 60, "photo_title": "A misty day in Kastoria", "latitude": 40.525071, "owner_url": "http://www.panoramio.com/user/21336", "photo_url": "http://www.panoramio.com/photo/84292795", "photo_file_url": "http://mw2.google.com/mw-panoramio/photos/square/84292795.jpg", "owner_id": 21336}, {"upload_date": "18 January 2013", "owner_name": "Pantelis65", "photo_id": 84892342, "longitude": 21.578865, "height": 60, "width": 60, "photo_title": "\u039b\u03af\u03bc\u03bd\u03b7 \u03a7\u03b5\u03b9\u03bc\u03b1\u03b4\u03af\u03c4\u03b9\u03b4\u03b1 - lake Chimaditis", "latitude": 40.58945, "owner_url": "http://www.panoramio.com/user/5501361", "photo_url": "http://www.panoramio.com/photo/84892342", "photo_file_url": "http://mw2.google.com/mw-panoramio/photos/square/84892342.jpg", "owner_id": 5501361}, {"upload_date": "05 November 2009", "owner_name": "Maria Pantazi", "photo_id": 28554930, "longitude": 21.274821000000003, "height": 60, "width": 60, "photo_title": "A sunny afternoon at the Lake...", "latitude": 40.515153, "owner_url": "http://www.panoramio.com/user/1728041", "photo_url": "http://www.panoramio.com/photo/28554930", "photo_file_url": "http://mw2.google.com/mw-panoramio/photos/square/28554930.jpg", "owner_id": 1728041}, {"upload_date": "16 January 2010", "owner_name": "Eleni K.", "photo_id": 31103885, "longitude": 21.526251000000002, "height": 60, "width": 60, "photo_title": "\u0392\u03bb\u03ac\u03c3\u03c4\u03b7..", "latitude": 40.455079, "owner_url": "http://www.panoramio.com/user/2354660", "photo_url": "http://www.panoramio.com/photo/31103885", "photo_file_url": "http://mw2.google.com/mw-panoramio/photos/square/31103885.jpg", "owner_id": 2354660}, {"upload_date": "16 February 2010", "owner_name": "Maria Pantazi", "photo_id": 32235509, "longitude": 21.326211999999998, "height": 60, "width": 60, "photo_title": "\u03a7\u03b5\u03b9\u03bc\u03c9\u03bd\u03b9\u03ac\u03c4\u03b9\u03ba\u03bf \u03c4\u03bf\u03c0\u03af\u03bf... \"\u039a\u03b1\u03b8\u03b1\u03c1\u03ae \u0394\u03b5\u03c5\u03c4\u03ad\u03c1\u03b1 2010\"/// Winter scenery...", "latitude": 40.446261, "owner_url": "http://www.panoramio.com/user/1728041", "photo_url": "http://www.panoramio.com/photo/32235509", "photo_file_url": "http://mw2.google.com/mw-panoramio/photos/square/32235509.jpg", "owner_id": 1728041}, {"upload_date": "02 March 2011", "owner_name": "KAROLOS TRIVIZAS", "photo_id": 48886177, "longitude": 21.96888, "height": 60, "width": 60, "photo_title": "FOGGY MORNING (GREECE - MACEDONIA - IMATHIA - PIGADIA)", "latitude": 40.644178, "owner_url": "http://www.panoramio.com/user/5469312", "photo_url": "http://www.panoramio.com/photo/48886177", "photo_file_url": "http://mw2.google.com/mw-panoramio/photos/square/48886177.jpg", "owner_id": 5469312}, {"upload_date": "09 December 2013", "owner_name": "\u03a7\u03c1\u03b7\u03c3\u03c4\u03bf\u03c2 \u0391\u03c1\u03b3\u03c5\u03c1\u03b9\u03bf\u03c5", "photo_id": 100328211, "longitude": 21.74778, "height": 60, "width": 60, "photo_title": "In White Top Kaimamtsalan! (Height 2524m)", "latitude": 40.849242, "owner_url": "http://www.panoramio.com/user/7209414", "photo_url": "http://www.panoramio.com/photo/100328211", "photo_file_url": "http://mw2.google.com/mw-panoramio/photos/square/100328211.jpg", "owner_id": 7209414}, {"upload_date": "12 May 2014", "owner_name": "NIKOS1954", "photo_id": 106900227, "longitude": 21.254253, "height": 60, "width": 60, "photo_title": "\u0397\u03c1\u03b5\u03bc\u03af\u03b1!!-Calm!", "latitude": 40.513147, "owner_url": "http://www.panoramio.com/user/3302630", "photo_url": "http://www.panoramio.com/photo/106900227", "photo_file_url": "http://mw2.google.com/mw-panoramio/photos/square/106900227.jpg", "owner_id": 3302630}, {"upload_date": "01 May 2010", "owner_name": "NIKOS1954", "photo_id": 34938163, "longitude": 21.491918999999996, "height": 60, "width": 60, "photo_title": "\u039d\u03a5\u039c\u03a6\u0391\u0399\u039f-\u03a0\u0391\u03a1\u0391\u0394\u039f\u03a3\u0399\u0391\u039a\u039f\u03a3 \u039f\u0399\u039a\u0399\u03a3\u039c\u039f\u03a3.", "latitude": 40.648172, "owner_url": "http://www.panoramio.com/user/3302630", "photo_url": "http://www.panoramio.com/photo/34938163", "photo_file_url": "http://mw2.google.com/mw-panoramio/photos/square/34938163.jpg", "owner_id": 3302630}, {"upload_date": "30 January 2010", "owner_name": "NIKOS1954", "photo_id": 31612025, "longitude": 21.277942999999993, "height": 60, "width": 60, "photo_title": "\u03a0\u0391\u039d\u039f\u03a1\u0391\u039c\u0399\u039a\u0397 \u0391\u03a0\u039f\u03a8\u0397 \u039a\u0391\u03a3\u03a4\u039f\u03a1\u0399\u0391\u03a3", "latitude": 40.516757, "owner_url": "http://www.panoramio.com/user/3302630", "photo_url": "http://www.panoramio.com/photo/31612025", "photo_file_url": "http://mw2.google.com/mw-panoramio/photos/square/31612025.jpg", "owner_id": 3302630}, {"upload_date": "09 January 2011", "owner_name": "augustina", "photo_id": 46296133, "longitude": 21.261619, "height": 60, "width": 60, "photo_title": "face to Kastoria lake", "latitude": 40.502881, "owner_url": "http://www.panoramio.com/user/4201068", "photo_url": "http://www.panoramio.com/photo/46296133", "photo_file_url": "http://mw2.google.com/mw-panoramio/photos/square/46296133.jpg", "owner_id": 4201068}, {"upload_date": "06 June 2014", "owner_name": "NIKOS1954", "photo_id": 107872639, "longitude": 21.262836, "height": 60, "width": 60, "photo_title": "\u0391\u03bd\u03c4\u03b1\u03bd\u03b1\u03ba\u03bb\u03ac\u03c3\u03b5\u03b9\u03c2 \u03bc\u03b5 \u03bc\u03c0\u03bb\u03b5 \u03b1\u03c0\u03bf\u03c7\u03c1\u03ce\u03c3\u03b5\u03b9\u03c2!!-Reflections in blue shades!", "latitude": 40.514452, "owner_url": "http://www.panoramio.com/user/3302630", "photo_url": "http://www.panoramio.com/photo/107872639", "photo_file_url": "http://mw2.google.com/mw-panoramio/photos/square/107872639.jpg", "owner_id": 3302630}, {"upload_date": "08 January 2010", "owner_name": "Paraskeuas Dimitracopulos", "photo_id": 30801165, "longitude": 21.252505, "height": 60, "width": 60, "photo_title": "\u0397 \u039a\u03b1\u03c3\u03c4\u03bf\u03c1\u03b9\u03ac \u03bb\u03b5\u03c5\u03ba\u03bf\u03bd\u03c4\u03c5\u03bc\u03ad\u03bd\u03b7...", "latitude": 40.503942, "owner_url": "http://www.panoramio.com/user/1429703", "photo_url": "http://www.panoramio.com/photo/30801165", "photo_file_url": "http://mw2.google.com/mw-panoramio/photos/square/30801165.jpg", "owner_id": 1429703}, {"upload_date": "24 December 2013", "owner_name": "Jimli", "photo_id": 100881198, "longitude": 21.767306, "height": 60, "width": 60, "photo_title": "Merry Chrismas and Happy Holidays for everyone!!!", "latitude": 40.838871, "owner_url": "http://www.panoramio.com/user/7392639", "photo_url": "http://www.panoramio.com/photo/100881198", "photo_file_url": "http://mw2.google.com/mw-panoramio/photos/square/100881198.jpg", "owner_id": 7392639}, {"upload_date": "05 February 2010", "owner_name": "Nik_the_Greek", "photo_id": 31834813, "longitude": 21.254167999999993, "height": 60, "width": 60, "photo_title": "Kastoria>Makedonien>Griechenland", "latitude": 40.510362, "owner_url": "http://www.panoramio.com/user/1991378", "photo_url": "http://www.panoramio.com/photo/31834813", "photo_file_url": "http://mw2.google.com/mw-panoramio/photos/square/31834813.jpg", "owner_id": 1991378}, {"upload_date": "25 October 2010", "owner_name": "Nik_the_Greek", "photo_id": 42748263, "longitude": 21.29382100000001, "height": 60, "width": 60, "photo_title": "Lake Orestidos Kastoria (view from Dispilio)", "latitude": 40.484124, "owner_url": "http://www.panoramio.com/user/1991378", "photo_url": "http://www.panoramio.com/photo/42748263", "photo_file_url": "http://mw2.google.com/mw-panoramio/photos/square/42748263.jpg", "owner_id": 1991378}, {"upload_date": "04 April 2012", "owner_name": "Dimitris Kaliakoudas", "photo_id": 69671657, "longitude": 21.658925, "height": 60, "width": 60, "photo_title": "\u03a6\u03c1\u03ac\u03b3\u03bc\u03b1 \u03a0\u03b5\u03c1\u03b4\u03af\u03ba\u03b1 ", "latitude": 40.557631, "owner_url": "http://www.panoramio.com/user/4362169", "photo_url": "http://www.panoramio.com/photo/69671657", "photo_file_url": "http://mw2.google.com/mw-panoramio/photos/square/69671657.jpg", "owner_id": 4362169}, {"upload_date": "31 December 2009", "owner_name": "NIKOS1954", "photo_id": 30468015, "longitude": 21.49826999999999, "height": 60, "width": 60, "photo_title": "\u0391\u03a1\u039a\u03a4\u039f\u03a5\u03a1\u039f\u03a3-\u039d\u03a5\u039c\u03a6\u0391\u0399\u039f \u03a6\u039b\u03a9\u03a1\u0399\u039d\u0391\u03a3", "latitude": 40.649301, "owner_url": "http://www.panoramio.com/user/3302630", "photo_url": "http://www.panoramio.com/photo/30468015", "photo_file_url": "http://mw2.google.com/mw-panoramio/photos/square/30468015.jpg", "owner_id": 3302630}, {"upload_date": "19 April 2013", "owner_name": "Pantelis65", "photo_id": 89020744, "longitude": 21.723061, "height": 60, "width": 60, "photo_title": "\u03a0\u03c1\u03b9\u03bd \u03c0\u03ad\u03c3\u03b5\u03b9 \u03b7 \u03bd\u03cd\u03c7\u03c4\u03b1 - before nightfall", "latitude": 40.539699, "owner_url": "http://www.panoramio.com/user/5501361", "photo_url": "http://www.panoramio.com/photo/89020744", "photo_file_url": "http://mw2.google.com/mw-panoramio/photos/square/89020744.jpg", "owner_id": 5501361}, {"upload_date": "15 February 2009", "owner_name": "Constantinos Borsis J.", "photo_id": 18986649, "longitude": 22.045269, "height": 60, "width": 60, "photo_title": "Sanset-Vermio-Noussa", "latitude": 40.590395, "owner_url": "http://www.panoramio.com/user/2123383", "photo_url": "http://www.panoramio.com/photo/18986649", "photo_file_url": "http://mw2.google.com/mw-panoramio/photos/square/18986649.jpg", "owner_id": 2123383}, {"upload_date": "15 November 2013", "owner_name": "Jimli", "photo_id": 99294085, "longitude": 22.036852, "height": 60, "width": 60, "photo_title": "Fall!!!", "latitude": 40.801957, "owner_url": "http://www.panoramio.com/user/7392639", "photo_url": "http://www.panoramio.com/photo/99294085", "photo_file_url": "http://mw2.google.com/mw-panoramio/photos/square/99294085.jpg", "owner_id": 7392639}, {"upload_date": "13 December 2013", "owner_name": "\u03a7\u03c1\u03b7\u03c3\u03c4\u03bf\u03c2 \u0391\u03c1\u03b3\u03c5\u03c1\u03b9\u03bf\u03c5", "photo_id": 100475143, "longitude": 21.763058, "height": 60, "width": 60, "photo_title": "Blue - White ....(1)", "latitude": 40.85654, "owner_url": "http://www.panoramio.com/user/7209414", "photo_url": "http://www.panoramio.com/photo/100475143", "photo_file_url": "http://mw2.google.com/mw-panoramio/photos/square/100475143.jpg", "owner_id": 7209414}, {"upload_date": "05 December 2009", "owner_name": "Eridanos", "photo_id": 29581210, "longitude": 21.670704, "height": 60, "width": 60, "photo_title": "sunset sky", "latitude": 40.51313, "owner_url": "http://www.panoramio.com/user/2730478", "photo_url": "http://www.panoramio.com/photo/29581210", "photo_file_url": "http://mw2.google.com/mw-panoramio/photos/square/29581210.jpg", "owner_id": 2730478}, {"upload_date": "13 December 2008", "owner_name": "D. George", "photo_id": 16829702, "longitude": 22.056706, "height": 60, "width": 60, "photo_title": "Apsalos village \\ \u0391\u03a8\u0391\u039b\u039f\u03a3  \u0394\u03ae\u03bc\u03bf\u03c5  \u0391\u03c1\u03b9\u03b4\u03b1\u03af\u03b1\u03c2 (\u039b\u03b5\u03ba\u03b1\u03bd\u03bf\u03c0\u03ad\u03b4\u03b9\u03bf \u0391\u03c1\u03b9\u03b4\u03b1\u03af\u03b1\u03c2 \u0391\u03bd\u03b1\u03c4\u03bf\u03bb\u03b9\u03ba\u03ae \u03a0\u03bb\u03b5\u03cd\u03c1\u03b1)", "latitude": 40.886833, "owner_url": "http://www.panoramio.com/user/2245773", "photo_url": "http://www.panoramio.com/photo/16829702", "photo_file_url": "http://mw2.google.com/mw-panoramio/photos/square/16829702.jpg", "owner_id": 2245773}, {"upload_date": "20 October 2007", "owner_name": "Kostikidis Georgios", "photo_id": 5431461, "longitude": 21.600151, "height": 60, "width": 60, "photo_title": "\u0391\u0397\u03a3 \u039c\u0395\u039b\u0399\u03a4\u0397", "latitude": 40.81225, "owner_url": "http://www.panoramio.com/user/749945", "photo_url": "http://www.panoramio.com/photo/5431461", "photo_file_url": "http://mw2.google.com/mw-panoramio/photos/square/5431461.jpg", "owner_id": 749945}, {"upload_date": "03 November 2008", "owner_name": "D. George", "photo_id": 15637699, "longitude": 21.961241, "height": 60, "width": 60, "photo_title": "\u039a\u03b5\u03c1\u03b1\u03c3\u03b9\u03ac \u0394\u03ae\u03bc\u03bf\u03c5 \u0388\u03b4\u03b5\u03c3\u03c3\u03b1\u03c2  Kerasia village ", "latitude": 40.880554, "owner_url": "http://www.panoramio.com/user/2245773", "photo_url": "http://www.panoramio.com/photo/15637699", "photo_file_url": "http://mw2.google.com/mw-panoramio/photos/square/15637699.jpg", "owner_id": 2245773}, {"upload_date": "01 March 2008", "owner_name": "Theodore Mantzios", "photo_id": 8211864, "longitude": 21.269553, "height": 60, "width": 60, "photo_title": "Night shot - Overlooking the lake of Kastoria from Longas Hotel", "latitude": 40.590541, "owner_url": "http://www.panoramio.com/user/939391", "photo_url": "http://www.panoramio.com/photo/8211864", "photo_file_url": "http://mw2.google.com/mw-panoramio/photos/square/8211864.jpg", "owner_id": 939391}, {"upload_date": "01 May 2010", "owner_name": "NIKOS1954", "photo_id": 34938236, "longitude": 21.538524999999993, "height": 60, "width": 60, "photo_title": "\u03a3\u03a4\u039f \u0392\u0391\u0398\u039f\u03a3 \u0397 \u039b\u0399\u039c\u039d\u0397 \u0396\u0391\u0396\u0391\u03a1\u0397 \u03a3\u03a4\u0397 \u03a6\u039b\u03a9\u03a1\u0399\u039d\u0391.", "latitude": 40.665188, "owner_url": "http://www.panoramio.com/user/3302630", "photo_url": "http://www.panoramio.com/photo/34938236", "photo_file_url": "http://mw2.google.com/mw-panoramio/photos/square/34938236.jpg", "owner_id": 3302630}, {"upload_date": "12 March 2007", "owner_name": "Ntinos Lagos", "photo_id": 1296176, "longitude": 21.80548, "height": 60, "width": 60, "photo_title": "Kaimaktsalan", "latitude": 40.892689, "owner_url": "http://www.panoramio.com/user/242446", "photo_url": "http://www.panoramio.com/photo/1296176", "photo_file_url": "http://mw2.google.com/mw-panoramio/photos/square/1296176.jpg", "owner_id": 242446}, {"upload_date": "10 July 2008", "owner_name": "DailyMadness", "photo_id": 11960205, "longitude": 22.044239, "height": 60, "width": 60, "photo_title": "Approaching the city - Edessa, Greece", "latitude": 40.791589, "owner_url": "http://www.panoramio.com/user/1287666", "photo_url": "http://www.panoramio.com/photo/11960205", "photo_file_url": "http://mw2.google.com/mw-panoramio/photos/square/11960205.jpg", "owner_id": 1287666}, {"upload_date": "22 April 2013", "owner_name": "Jimli", "photo_id": 89181228, "longitude": 21.72452, "height": 60, "width": 60, "photo_title": "Running down a dream...", "latitude": 40.65069, "owner_url": "http://www.panoramio.com/user/7392639", "photo_url": "http://www.panoramio.com/photo/89181228", "photo_file_url": "http://mw2.google.com/mw-panoramio/photos/square/89181228.jpg", "owner_id": 7392639}, {"upload_date": "08 May 2008", "owner_name": "Kostikidis Georgios", "photo_id": 10020436, "longitude": 21.380639, "height": 60, "width": 60, "photo_title": "AG.ANARGYRI KASTORIA", "latitude": 40.582866, "owner_url": "http://www.panoramio.com/user/749945", "photo_url": "http://www.panoramio.com/photo/10020436", "photo_file_url": "http://mw2.google.com/mw-panoramio/photos/square/10020436.jpg", "owner_id": 749945}, {"upload_date": "30 October 2013", "owner_name": "Pantelis65", "photo_id": 98544492, "longitude": 22.149897, "height": 60, "width": 60, "photo_title": "\u0397\u03bb\u03b9\u03bf\u03b2\u03b1\u03c3\u03af\u03bb\u03b5\u03bc\u03b1 - Sunset", "latitude": 40.440578, "owner_url": "http://www.panoramio.com/user/5501361", "photo_url": "http://www.panoramio.com/photo/98544492", "photo_file_url": "http://mw2.google.com/mw-panoramio/photos/square/98544492.jpg", "owner_id": 5501361}, {"upload_date": "05 November 2007", "owner_name": "Giorgos_s_Boukouvalas", "photo_id": 5729642, "longitude": 21.616667, "height": 60, "width": 60, "photo_title": "\u0391\u03bc\u03cd\u03bd\u03c4\u03b1\u03b9\u03bf", "latitude": 40.683333, "owner_url": "http://www.panoramio.com/user/178659", "photo_url": "http://www.panoramio.com/photo/5729642", "photo_file_url": "http://mw2.google.com/mw-panoramio/photos/square/5729642.jpg", "owner_id": 178659}, {"upload_date": "19 August 2008", "owner_name": "Kostikidis Georgios", "photo_id": 13288505, "longitude": 21.635342, "height": 60, "width": 60, "photo_title": "ARDASSA", "latitude": 40.478553, "owner_url": "http://www.panoramio.com/user/749945", "photo_url": "http://www.panoramio.com/photo/13288505", "photo_file_url": "http://mw2.google.com/mw-panoramio/photos/square/13288505.jpg", "owner_id": 749945}, {"upload_date": "06 November 2009", "owner_name": "art-A", "photo_id": 28586396, "longitude": 21.277084, "height": 60, "width": 60, "photo_title": "Kastoria - Agios Antonios", "latitude": 40.634441, "owner_url": "http://www.panoramio.com/user/3218228", "photo_url": "http://www.panoramio.com/photo/28586396", "photo_file_url": "http://mw2.google.com/mw-panoramio/photos/square/28586396.jpg", "owner_id": 3218228}, {"upload_date": "16 March 2008", "owner_name": "theodoros sirros", "photo_id": 8571298, "longitude": 21.575089, "height": 60, "width": 60, "photo_title": "\u0392\u03bb\u03ac\u03c3\u03c4\u03b7 \u039a\u03bf\u03b6\u03ac\u03bd\u03b7\u03c2", "latitude": 40.42186, "owner_url": "http://www.panoramio.com/user/830383", "photo_url": "http://www.panoramio.com/photo/8571298", "photo_file_url": "http://mw2.google.com/mw-panoramio/photos/square/8571298.jpg", "owner_id": 830383}, {"upload_date": "23 April 2007", "owner_name": "Michael Paraskevas", "photo_id": 1892143, "longitude": 21.763916, "height": 60, "width": 60, "photo_title": "\u0386\u03bd\u03bf\u03b9\u03be\u03b7 \u03c3\u03c4\u03bf \u03bf\u03c1\u03bf\u03c0\u03ad\u03b4\u03b9\u03bf \u03c4\u03b7\u03c2 \u03a0\u03c4\u03bf\u03bb\u03b5\u03bc\u03b1\u03ca\u03b4\u03b1\u03c2...", "latitude": 40.536242, "owner_url": "http://www.panoramio.com/user/43418", "photo_url": "http://www.panoramio.com/photo/1892143", "photo_file_url": "http://mw2.google.com/mw-panoramio/photos/square/1892143.jpg", "owner_id": 43418}, {"upload_date": "04 December 2011", "owner_name": "augustina", "photo_id": 63086260, "longitude": 21.412354, "height": 60, "width": 60, "photo_title": "the mountains'mist", "latitude": 40.538852, "owner_url": "http://www.panoramio.com/user/4201068", "photo_url": "http://www.panoramio.com/photo/63086260", "photo_file_url": "http://mw2.google.com/mw-panoramio/photos/square/63086260.jpg", "owner_id": 4201068}, {"upload_date": "17 February 2011", "owner_name": "Kostikidis Georgios", "photo_id": 48246726, "longitude": 21.845788, "height": 60, "width": 60, "photo_title": "Rafailidis Nikos Pyrgi", "latitude": 40.665324, "owner_url": "http://www.panoramio.com/user/749945", "photo_url": "http://www.panoramio.com/photo/48246726", "photo_file_url": "http://mw2.google.com/mw-panoramio/photos/square/48246726.jpg", "owner_id": 749945}, {"upload_date": "05 April 2007", "owner_name": "Petros Voucharas", "photo_id": 1639180, "longitude": 21.24773, "height": 60, "width": 60, "photo_title": "Pisoderi Winter view", "latitude": 40.787365, "owner_url": "http://www.panoramio.com/user/78551", "photo_url": "http://www.panoramio.com/photo/1639180", "photo_file_url": "http://mw2.google.com/mw-panoramio/photos/square/1639180.jpg", "owner_id": 78551}, {"upload_date": "11 July 2008", "owner_name": "DailyMadness", "photo_id": 12014442, "longitude": 22.08252, "height": 60, "width": 60, "photo_title": "The Ivy house - Naousa, Greece", "latitude": 40.622292, "owner_url": "http://www.panoramio.com/user/1287666", "photo_url": "http://www.panoramio.com/photo/12014442", "photo_file_url": "http://mw2.google.com/mw-panoramio/photos/square/12014442.jpg", "owner_id": 1287666}, {"upload_date": "11 July 2008", "owner_name": "DailyMadness", "photo_id": 12014524, "longitude": 22.100372, "height": 60, "width": 60, "photo_title": "Open fields - Naousa, Greece", "latitude": 40.657722, "owner_url": "http://www.panoramio.com/user/1287666", "photo_url": "http://www.panoramio.com/photo/12014524", "photo_file_url": "http://mw2.google.com/mw-panoramio/photos/square/12014524.jpg", "owner_id": 1287666}, {"upload_date": "11 July 2008", "owner_name": "DailyMadness", "photo_id": 12014460, "longitude": 22.122345, "height": 60, "width": 60, "photo_title": "Old plane tree - Naousa, Greece", "latitude": 40.619686, "owner_url": "http://www.panoramio.com/user/1287666", "photo_url": "http://www.panoramio.com/photo/12014460", "photo_file_url": "http://mw2.google.com/mw-panoramio/photos/square/12014460.jpg", "owner_id": 1287666}, {"upload_date": "13 May 2008", "owner_name": "Kostikidis Georgios", "photo_id": 10194155, "longitude": 21.846378, "height": 60, "width": 60, "photo_title": "LEVENTISARTSUITES PANAGITSA", "latitude": 40.849073, "owner_url": "http://www.panoramio.com/user/749945", "photo_url": "http://www.panoramio.com/photo/10194155", "photo_file_url": "http://mw2.google.com/mw-panoramio/photos/square/10194155.jpg", "owner_id": 749945}, {"upload_date": "28 January 2010", "owner_name": "lexovitis", "photo_id": 31555710, "longitude": 21.693438, "height": 60, "width": 60, "photo_title": "Greece,Florina-Kelli", "latitude": 40.775573, "owner_url": "http://www.panoramio.com/user/1455945", "photo_url": "http://www.panoramio.com/photo/31555710", "photo_file_url": "http://mw2.google.com/mw-panoramio/photos/square/31555710.jpg", "owner_id": 1455945}, {"upload_date": "05 December 2009", "owner_name": "Eridanos", "photo_id": 29581210, "longitude": 21.670704, "height": 60, "width": 60, "photo_title": "sunset sky", "latitude": 40.51313, "owner_url": "http://www.panoramio.com/user/2730478", "photo_url": "http://www.panoramio.com/photo/29581210", "photo_file_url": "http://mw2.google.com/mw-panoramio/photos/square/29581210.jpg", "owner_id": 2730478}, {"upload_date": "19 December 2012", "owner_name": "Pantelis65", "photo_id": 83594595, "longitude": 21.394007, "height": 60, "width": 60, "photo_title": "\u03a6\u03bb\u03ce\u03c1\u03b9\u03bd\u03b1, \u039d\u03b5\u03bf\u03ba\u03bb\u03b1\u03c3\u03b9\u03ba\u03cc \u03ba\u03c4\u03ae\u03c1\u03b9\u03bf \u03b4\u03af\u03c0\u03bb\u03b1 \u03c3\u03c4\u03ae\u03bd \u03cc\u03c7\u03b8\u03b7 \u03c4\u03bf\u03c5 \u03c0\u03bf\u03c4\u03b1\u03bc\u03bf\u03cd \u03a3\u03b1\u03ba\u03bf\u03c5\u03bb\u03ad\u03b2\u03b1 - Florina, Neoclassical building next to the bank of the river Sakouleva", "latitude": 40.77734, "owner_url": "http://www.panoramio.com/user/5501361", "photo_url": "http://www.panoramio.com/photo/83594595", "photo_file_url": "http://mw2.google.com/mw-panoramio/photos/square/83594595.jpg", "owner_id": 5501361}, {"upload_date": "12 November 2008", "owner_name": "D. George", "photo_id": 15906828, "longitude": 21.978707, "height": 60, "width": 60, "photo_title": "\u03a5\u03b4\u03c1\u03bf\u03b2\u03b9\u03cc\u03c4\u03bf\u03c0\u03bf\u03c2. \u0391\u03b3\u03c1\u03b1, - \u0392\u03c1\u03c5\u03c4\u03c4\u03ce\u03bd, \u039d\u03b7\u03c3\u03af, - \u0395\u03b4\u03ad\u03c3\u03c3\u03b7\u03c2 \u039d. \u03a0\u03ad\u03bb\u03bb\u03b7\u03c2.", "latitude": 40.804276, "owner_url": "http://www.panoramio.com/user/2245773", "photo_url": "http://www.panoramio.com/photo/15906828", "photo_file_url": "http://mw2.google.com/mw-panoramio/photos/square/15906828.jpg", "owner_id": 2245773}, {"upload_date": "26 April 2011", "owner_name": "Pantelis65", "photo_id": 51702186, "longitude": 21.546291999999994, "height": 60, "width": 60, "photo_title": "\u0399.\u039d.\u0391\u0393\u0399\u039f\u03a5 \u039a\u03a9\u039d/\u039d\u039f\u03a5 - Church Saints Constantine", "latitude": 40.487595, "owner_url": "http://www.panoramio.com/user/5501361", "photo_url": "http://www.panoramio.com/photo/51702186", "photo_file_url": "http://mw2.google.com/mw-panoramio/photos/square/51702186.jpg", "owner_id": 5501361}, {"upload_date": "13 December 2008", "owner_name": "D. George", "photo_id": 16829558, "longitude": 22.052307, "height": 60, "width": 60, "photo_title": "Village Sotira \\ \u03a3\u03a9\u03a4\u0397\u03a1\u0391  \u0394\u03ae\u03bc\u03bf\u03c5 \u0388\u03b4\u03b5\u03c3\u03c3\u03b1\u03c2", "latitude": 40.848099, "owner_url": "http://www.panoramio.com/user/2245773", "photo_url": "http://www.panoramio.com/photo/16829558", "photo_file_url": "http://mw2.google.com/mw-panoramio/photos/square/16829558.jpg", "owner_id": 2245773}, {"upload_date": "11 July 2008", "owner_name": "Kostikidis Georgios", "photo_id": 11997534, "longitude": 21.527195, "height": 60, "width": 60, "photo_title": "VLASTI", "latitude": 40.452695, "owner_url": "http://www.panoramio.com/user/749945", "photo_url": "http://www.panoramio.com/photo/11997534", "photo_file_url": "http://mw2.google.com/mw-panoramio/photos/square/11997534.jpg", "owner_id": 749945}, {"upload_date": "18 January 2013", "owner_name": "Pantelis65", "photo_id": 84892287, "longitude": 21.545219, "height": 60, "width": 60, "photo_title": "\u039b\u03af\u03bc\u03bd\u03b7 \u03a7\u03b5\u03b9\u03bc\u03b1\u03b4\u03af\u03c4\u03b9\u03b4\u03b1 - lake Chimaditis", "latitude": 40.572762, "owner_url": "http://www.panoramio.com/user/5501361", "photo_url": "http://www.panoramio.com/photo/84892287", "photo_file_url": "http://mw2.google.com/mw-panoramio/photos/square/84892287.jpg", "owner_id": 5501361}, {"upload_date": "15 February 2011", "owner_name": "Pantelis65", "photo_id": 48142373, "longitude": 21.747737, "height": 60, "width": 60, "photo_title": "\u039b\u03af\u03bc\u03bd\u03b7 \u0392\u03b5\u03b3\u03bf\u03c1\u03af\u03c4\u03b9\u03b4\u03b1 - lake Vegoritida", "latitude": 40.715712, "owner_url": "http://www.panoramio.com/user/5501361", "photo_url": "http://www.panoramio.com/photo/48142373", "photo_file_url": "http://mw2.google.com/mw-panoramio/photos/square/48142373.jpg", "owner_id": 5501361}, {"upload_date": "31 December 2009", "owner_name": "NIKOS1954", "photo_id": 30468091, "longitude": 21.556206000000003, "height": 60, "width": 60, "photo_title": "\u039b\u0399\u039c\u039d\u039f\u03a7\u03a9\u03a1\u0399 \u03a6\u039b\u03a9\u03a1\u0399\u039d\u0391\u03a3 2009", "latitude": 40.629284, "owner_url": "http://www.panoramio.com/user/3302630", "photo_url": "http://www.panoramio.com/photo/30468091", "photo_file_url": "http://mw2.google.com/mw-panoramio/photos/square/30468091.jpg", "owner_id": 3302630}, {"upload_date": "08 May 2008", "owner_name": "KOSiNAS", "photo_id": 10044035, "longitude": 22.073464, "height": 60, "width": 60, "photo_title": "Kos_Naousa_Spring", "latitude": 40.630516, "owner_url": "http://www.panoramio.com/user/217993", "photo_url": "http://www.panoramio.com/photo/10044035", "photo_file_url": "http://mw2.google.com/mw-panoramio/photos/square/10044035.jpg", "owner_id": 217993}, {"upload_date": "23 April 2007", "owner_name": "Michael Paraskevas", "photo_id": 1892130, "longitude": 21.83979, "height": 60, "width": 60, "photo_title": "\u03a7\u03b1\u03c1\u03b1\u03c5\u03b3\u03ae... \u03c7\u03c9\u03c1\u03b9\u03cc \u03c6\u03ac\u03bd\u03c4\u03b1\u03c3\u03bc\u03b1...", "latitude": 40.441983, "owner_url": "http://www.panoramio.com/user/43418", "photo_url": "http://www.panoramio.com/photo/1892130", "photo_file_url": "http://mw2.google.com/mw-panoramio/photos/square/1892130.jpg", "owner_id": 43418}, {"upload_date": "26 November 2010", "owner_name": "G.E.conom", "photo_id": 44200547, "longitude": 21.716516000000013, "height": 60, "width": 60, "photo_title": "\u0391\u03a5\u03a4\u039f \u03a4\u039f \u039a\u0391\u03a0\u039d\u0399\u03a3\u039c\u0391 \u0395\u03a0\u0399\u03a4\u03a1\u0395\u03a0\u0395\u03a4\u0391\u0399..???", "latitude": 40.584561, "owner_url": "http://www.panoramio.com/user/2566885", "photo_url": "http://www.panoramio.com/photo/44200547", "photo_file_url": "http://mw2.google.com/mw-panoramio/photos/square/44200547.jpg", "owner_id": 2566885}, {"upload_date": "16 April 2013", "owner_name": "Jimli", "photo_id": 88900102, "longitude": 22.057658, "height": 60, "width": 60, "photo_title": "Church of the Metamorphosis Of The Savior", "latitude": 40.812037, "owner_url": "http://www.panoramio.com/user/7392639", "photo_url": "http://www.panoramio.com/photo/88900102", "photo_file_url": "http://mw2.google.com/mw-panoramio/photos/square/88900102.jpg", "owner_id": 7392639}, {"upload_date": "25 January 2010", "owner_name": "art-A", "photo_id": 31457382, "longitude": 21.221015, "height": 60, "width": 60, "photo_title": "\u0386\u03bd\u03c9 \u039a\u03c1\u03b1\u03bd\u03b9\u03ce\u03bd\u03b1\u03c2-\u0391\u03c5\u03bb\u03ae \u03b5\u03ba\u03ba\u03bb\u03b7\u03c3\u03af\u03b1\u03c2", "latitude": 40.61734, "owner_url": "http://www.panoramio.com/user/3218228", "photo_url": "http://www.panoramio.com/photo/31457382", "photo_file_url": "http://mw2.google.com/mw-panoramio/photos/square/31457382.jpg", "owner_id": 3218228}, {"upload_date": "16 September 2008", "owner_name": "lexovitis", "photo_id": 14175860, "longitude": 21.751814, "height": 60, "width": 60, "photo_title": "Greece, Agios Panteleimon Florina- \u039b\u03af\u03bc\u03bd\u03b7 \u0392\u03b5\u03b3\u03bf\u03c1\u03af\u03c4\u03b9\u03b4\u03b1", "latitude": 40.733942, "owner_url": "http://www.panoramio.com/user/1455945", "photo_url": "http://www.panoramio.com/photo/14175860", "photo_file_url": "http://mw2.google.com/mw-panoramio/photos/square/14175860.jpg", "owner_id": 1455945}, {"upload_date": "13 September 2007", "owner_name": "1- \u0392\u03b1\u03b3\u03b3\u03ad\u03bb\u03b7\u03c2  \u0394\u03bf\u03cd\u03c4\u03c3\u03b9\u03bf\u03c2", "photo_id": 4622670, "longitude": 21.591225, "height": 60, "width": 60, "photo_title": "Vitsi - \u0392\u03af\u03c4\u03c3\u03b9 \u03bc\u03b5 \u03c5\u03c8\u03cc\u03bc\u03b5\u03c4\u03c1\u03bf >1.800 \u03bc.\u03c0\u03b5\u03c1\u03b9\u03bf\u03c7\u03ae \u03c0\u03bf\u03c5 \u03c0\u03c1\u03bf\u03c3\u03c4\u03b1\u03c4\u03b5\u03cd\u03b5\u03c4\u03b1\u03b9 \u03c3\u03b5 \u03b5\u03b8\u03bd\u03b9\u03ba\u03cc \u03b5\u03c0\u03af\u03c0\u03b5\u03b4\u03bf \u03c9\u03c2 \u03ba\u03b1\u03c4\u03b1\u03c6\u03cd\u03b3\u03b9\u03bf \u03b8\u03b7\u03c1\u03b1\u03bc\u03ac\u03c4\u03c9\u03bd \u03ba\u03b1\u03b9 \u03b1\u03c0\u03bf\u03c4\u03b5\u03bb\u03b5\u03af \u03b9\u03b4\u03b1\u03bd\u03b9\u03ba\u03cc \u03b2\u03b9\u03cc\u03c4\u03bf\u03c0\u03bf \u03ba\u03b1\u03b9 \u03b1\u03c0\u03ad\u03c7\u03b5\u03b9 \u03b1\u03c0\u03cc \u03c4\u03b7\u03bd \u03c0\u03cc\u03bb\u03b7 \u03c4\u03b7\u03c2 \u039a\u03b1\u03c3\u03c4\u03bf\u03c1\u03b9\u03ac\u03c2 25 \u03c7\u03bb\u03bc., ", "latitude": 40.774562, "owner_url": "http://www.panoramio.com/user/705253", "photo_url": "http://www.panoramio.com/photo/4622670", "photo_file_url": "http://mw2.google.com/mw-panoramio/photos/square/4622670.jpg", "owner_id": 705253}, {"upload_date": "29 February 2008", "owner_name": "Thodoris Kliafas", "photo_id": 8178704, "longitude": 21.280721, "height": 60, "width": 60, "photo_title": "Kastoria Lake #1", "latitude": 40.50397, "owner_url": "http://www.panoramio.com/user/686703", "photo_url": "http://www.panoramio.com/photo/8178704", "photo_file_url": "http://mw2.google.com/mw-panoramio/photos/square/8178704.jpg", "owner_id": 686703}, {"upload_date": "10 July 2008", "owner_name": "DailyMadness", "photo_id": 11961225, "longitude": 22.033081, "height": 60, "width": 60, "photo_title": "Path in the woods - Edessa, Greece ", "latitude": 40.784181, "owner_url": "http://www.panoramio.com/user/1287666", "photo_url": "http://www.panoramio.com/photo/11961225", "photo_file_url": "http://mw2.google.com/mw-panoramio/photos/square/11961225.jpg", "owner_id": 1287666}, {"upload_date": "16 July 2008", "owner_name": "lexovitis", "photo_id": 12165198, "longitude": 21.683857, "height": 60, "width": 60, "photo_title": "Greece, Florina Amyntaio,railway station-\u03a6\u03bb\u03ce\u03c1\u03b9\u03bd\u03b1,\u0391\u03bc\u03cd\u03bd\u03c4\u03b1\u03b9\u03bf, \u03a3\u03b9\u03b4\u03b7\u03c1\u03bf\u03b4\u03c1\u03bf\u03bc\u03b9\u03ba\u03cc\u03c2 \u03a3\u03c4\u03b1\u03b8\u03bc\u03cc\u03c2 ", "latitude": 40.690385, "owner_url": "http://www.panoramio.com/user/1455945", "photo_url": "http://www.panoramio.com/photo/12165198", "photo_file_url": "http://mw2.google.com/mw-panoramio/photos/square/12165198.jpg", "owner_id": 1455945}, {"upload_date": "18 March 2007", "owner_name": "Ntinos Lagos", "photo_id": 1387291, "longitude": 21.814041, "height": 60, "width": 60, "photo_title": "Kaimaktsalan Mountain", "latitude": 40.896517, "owner_url": "http://www.panoramio.com/user/242446", "photo_url": "http://www.panoramio.com/photo/1387291", "photo_file_url": "http://mw2.google.com/mw-panoramio/photos/square/1387291.jpg", "owner_id": 242446}, {"upload_date": "10 September 2007", "owner_name": "1- \u0392\u03b1\u03b3\u03b3\u03ad\u03bb\u03b7\u03c2  \u0394\u03bf\u03cd\u03c4\u03c3\u03b9\u03bf\u03c2", "photo_id": 4564266, "longitude": 21.265841, "height": 60, "width": 60, "photo_title": "Lake Kastoria - \u039a\u03b1\u03c3\u03c4\u03bf\u03c1\u03b9\u03ac ", "latitude": 40.521694, "owner_url": "http://www.panoramio.com/user/705253", "photo_url": "http://www.panoramio.com/photo/4564266", "photo_file_url": "http://mw2.google.com/mw-panoramio/photos/square/4564266.jpg", "owner_id": 705253}, {"upload_date": "10 July 2008", "owner_name": "Kostikidis Georgios", "photo_id": 11970345, "longitude": 21.667743, "height": 60, "width": 60, "photo_title": "\u03a3\u03a5\u039b\u039b\u039f\u0393\u039f\u03a3 \u039c\u0399\u039a\u03a1\u0391\u03a3\u0399\u0391\u03a4\u03a9\u039d \u03a0\u03a4\u039f\u039b\u0395\u039c\u0391\u03aa\u0394\u0391\u03a3", "latitude": 40.506833, "owner_url": "http://www.panoramio.com/user/749945", "photo_url": "http://www.panoramio.com/photo/11970345", "photo_file_url": "http://mw2.google.com/mw-panoramio/photos/square/11970345.jpg", "owner_id": 749945}, {"upload_date": "27 February 2009", "owner_name": "D. George", "photo_id": 19462770, "longitude": 21.831722, "height": 60, "width": 60, "photo_title": "\u0397 \u039b\u03af\u03bc\u03bd\u03b7 \u0392\u03b5\u03b3\u03bf\u03c1\u03af\u03c4\u03b9\u03b4\u03b1.  Lake Vegoritida.", "latitude": 40.791264, "owner_url": "http://www.panoramio.com/user/2245773", "photo_url": "http://www.panoramio.com/photo/19462770", "photo_file_url": "http://mw2.google.com/mw-panoramio/photos/square/19462770.jpg", "owner_id": 2245773}, {"upload_date": "22 November 2007", "owner_name": "vinasa", "photo_id": 6061979, "longitude": 21.271591, "height": 60, "width": 60, "photo_title": "Kastoria", "latitude": 40.517975, "owner_url": "http://www.panoramio.com/user/62074", "photo_url": "http://www.panoramio.com/photo/6061979", "photo_file_url": "http://mw2.google.com/mw-panoramio/photos/square/6061979.jpg", "owner_id": 62074}, {"upload_date": "08 May 2008", "owner_name": "Kostikidis Georgios", "photo_id": 10019531, "longitude": 21.679094, "height": 60, "width": 60, "photo_title": "CENTRUM PTOLEMAIDA", "latitude": 40.513669, "owner_url": "http://www.panoramio.com/user/749945", "photo_url": "http://www.panoramio.com/photo/10019531", "photo_file_url": "http://mw2.google.com/mw-panoramio/photos/square/10019531.jpg", "owner_id": 749945}, {"upload_date": "22 September 2011", "owner_name": "klerh", "photo_id": 59396507, "longitude": 21.267471, "height": 60, "width": 60, "photo_title": "Kastoria s lake", "latitude": 40.525805, "owner_url": "http://www.panoramio.com/user/3754241", "photo_url": "http://www.panoramio.com/photo/59396507", "photo_file_url": "http://mw2.google.com/mw-panoramio/photos/square/59396507.jpg", "owner_id": 3754241}, {"upload_date": "11 July 2008", "owner_name": "Nik_the_Greek", "photo_id": 12015563, "longitude": 21.234555, "height": 60, "width": 60, "photo_title": "\u0391\u03c1\u03b3\u03bf\u03c2 \u039f\u03c1\u03b5\u03c3\u03c4\u03b9\u03ba\u03cc", "latitude": 40.447478, "owner_url": "http://www.panoramio.com/user/1991378", "photo_url": "http://www.panoramio.com/photo/12015563", "photo_file_url": "http://mw2.google.com/mw-panoramio/photos/square/12015563.jpg", "owner_id": 1991378}, {"upload_date": "10 August 2008", "owner_name": "lexovitis", "photo_id": 12981030, "longitude": 21.623433, "height": 60, "width": 60, "photo_title": "Greece Xino Nero Florina - \u0394\u03b7\u03bc\u03bf\u03c4\u03b9\u03ba\u03cc \u03a3\u03c7\u03bf\u03bb\u03b5\u03af\u03bf", "latitude": 40.690173, "owner_url": "http://www.panoramio.com/user/1455945", "photo_url": "http://www.panoramio.com/photo/12981030", "photo_file_url": "http://mw2.google.com/mw-panoramio/photos/square/12981030.jpg", "owner_id": 1455945}, {"upload_date": "10 April 2007", "owner_name": "Nikos Papamarkos", "photo_id": 1713724, "longitude": 21.484923, "height": 60, "width": 60, "photo_title": "Monastiri Kleisouras", "latitude": 40.53422, "owner_url": "http://www.panoramio.com/user/337596", "photo_url": "http://www.panoramio.com/photo/1713724", "photo_file_url": "http://mw2.google.com/mw-panoramio/photos/square/1713724.jpg", "owner_id": 337596}, {"upload_date": "10 April 2007", "owner_name": "Nikos Papamarkos", "photo_id": 1713884, "longitude": 21.772156, "height": 60, "width": 60, "photo_title": "Begoritis from Agios Athanasios", "latitude": 40.801336, "owner_url": "http://www.panoramio.com/user/337596", "photo_url": "http://www.panoramio.com/photo/1713884", "photo_file_url": "http://mw2.google.com/mw-panoramio/photos/square/1713884.jpg", "owner_id": 337596}, {"upload_date": "01 March 2008", "owner_name": "Theodore Mantzios", "photo_id": 8208979, "longitude": 21.263351, "height": 60, "width": 60, "photo_title": "Sidirohori-Kastoria, Mountain view from Longas Hotel  - Wonderful layers!!!", "latitude": 40.616037, "owner_url": "http://www.panoramio.com/user/939391", "photo_url": "http://www.panoramio.com/photo/8208979", "photo_file_url": "http://mw2.google.com/mw-panoramio/photos/square/8208979.jpg", "owner_id": 939391}, {"upload_date": "11 July 2008", "owner_name": "DailyMadness", "photo_id": 12014483, "longitude": 22.087681, "height": 60, "width": 60, "photo_title": "View from a cafe -  Naousa, Greece", "latitude": 40.63747, "owner_url": "http://www.panoramio.com/user/1287666", "photo_url": "http://www.panoramio.com/photo/12014483", "photo_file_url": "http://mw2.google.com/mw-panoramio/photos/square/12014483.jpg", "owner_id": 1287666}, {"upload_date": "18 September 2007", "owner_name": "Nikos Papamarkos", "photo_id": 4735912, "longitude": 21.602315, "height": 60, "width": 60, "photo_title": "To Sxoleio mou snmera!!!", "latitude": 40.569231, "owner_url": "http://www.panoramio.com/user/337596", "photo_url": "http://www.panoramio.com/photo/4735912", "photo_file_url": "http://mw2.google.com/mw-panoramio/photos/square/4735912.jpg", "owner_id": 337596}, {"upload_date": "13 March 2013", "owner_name": "Jimli", "photo_id": 87306393, "longitude": 22.050505, "height": 60, "width": 60, "photo_title": "The one that watched the others go by....", "latitude": 40.808823, "owner_url": "http://www.panoramio.com/user/7392639", "photo_url": "http://www.panoramio.com/photo/87306393", "photo_file_url": "http://mw2.google.com/mw-panoramio/photos/square/87306393.jpg", "owner_id": 7392639}, {"upload_date": "17 January 2008", "owner_name": "Michael Paraskevas", "photo_id": 7185871, "longitude": 21.856613, "height": 60, "width": 60, "photo_title": "\u03a7\u03b1\u03c1\u03b1\u03c5\u03b3\u03ae \u039a\u03bf\u03b6\u03ac\u03bd\u03b7\u03c2", "latitude": 40.426042, "owner_url": "http://www.panoramio.com/user/43418", "photo_url": "http://www.panoramio.com/photo/7185871", "photo_file_url": "http://mw2.google.com/mw-panoramio/photos/square/7185871.jpg", "owner_id": 43418}, {"upload_date": "07 January 2010", "owner_name": "Paraskeuas Dimitracopulos", "photo_id": 30783901, "longitude": 21.366456, "height": 60, "width": 60, "photo_title": "\u03a0\u03bf\u03bb\u03c5\u03ba\u03ad\u03c1\u03b1\u03c3\u03bf \u039a\u03b1\u03c3\u03c4\u03bf\u03c1\u03b9\u03ac\u03c2....", "latitude": 40.591959, "owner_url": "http://www.panoramio.com/user/1429703", "photo_url": "http://www.panoramio.com/photo/30783901", "photo_file_url": "http://mw2.google.com/mw-panoramio/photos/square/30783901.jpg", "owner_id": 1429703}, {"upload_date": "10 July 2008", "owner_name": "Kostikidis Georgios", "photo_id": 11970366, "longitude": 21.689351, "height": 60, "width": 60, "photo_title": "\u03a0\u039f\u039b\u0399\u03a4\u0399\u03a3\u03a4\u0399\u039a\u039f\u03a3 \u03a3\u03a5\u039b\u039b\u039f\u0393\u039f\u03a3 \u039a\u0391\u03a1\u0394\u0399\u0391\u03a3, \u0397\u039c\u0395\u03a1\u0391", "latitude": 40.526522, "owner_url": "http://www.panoramio.com/user/749945", "photo_url": "http://www.panoramio.com/photo/11970366", "photo_file_url": "http://mw2.google.com/mw-panoramio/photos/square/11970366.jpg", "owner_id": 749945}, {"upload_date": "08 May 2008", "owner_name": "Kostikidis Georgios", "photo_id": 10019423, "longitude": 21.684093, "height": 60, "width": 60, "photo_title": "AHS.AMYNTEON", "latitude": 40.61721, "owner_url": "http://www.panoramio.com/user/749945", "photo_url": "http://www.panoramio.com/photo/10019423", "photo_file_url": "http://mw2.google.com/mw-panoramio/photos/square/10019423.jpg", "owner_id": 749945}, {"upload_date": "03 March 2009", "owner_name": "Eridanos", "photo_id": 19622062, "longitude": 21.678901, "height": 60, "width": 60, "photo_title": "\u03a0\u03b1\u03bb\u03b9\u03cc \u03a0\u03ac\u03c1\u03ba\u03bf", "latitude": 40.511107, "owner_url": "http://www.panoramio.com/user/2730478", "photo_url": "http://www.panoramio.com/photo/19622062", "photo_file_url": "http://mw2.google.com/mw-panoramio/photos/square/19622062.jpg", "owner_id": 2730478}, {"upload_date": "15 October 2013", "owner_name": "kukipecurka", "photo_id": 97787715, "longitude": 21.258545, "height": 60, "width": 60, "photo_title": "Orthodox church in Kastoria - Greece", "latitude": 40.51928, "owner_url": "http://www.panoramio.com/user/5690027", "photo_url": "http://www.panoramio.com/photo/97787715", "photo_file_url": "http://mw2.google.com/mw-panoramio/photos/square/97787715.jpg", "owner_id": 5690027}, {"upload_date": "26 May 2009", "owner_name": "Nik_the_Greek", "photo_id": 22762999, "longitude": 21.256276, "height": 60, "width": 60, "photo_title": "\u039f\u03b9\u03ba\u03bf\u03c4\u03c1\u03bf\u03c6\u03b5\u03af\u03bf \"\u039c\u03ad\u03b3\u03b1\u03c2 \u0392\u03b1\u03c3\u03af\u03bb\u03b5\u03b9\u03bf\u03c2\"", "latitude": 40.451605, "owner_url": "http://www.panoramio.com/user/1991378", "photo_url": "http://www.panoramio.com/photo/22762999", "photo_file_url": "http://mw2.google.com/mw-panoramio/photos/square/22762999.jpg", "owner_id": 1991378}, {"upload_date": "23 April 2007", "owner_name": "Michael Paraskevas", "photo_id": 1892098, "longitude": 21.790352, "height": 60, "width": 60, "photo_title": "\u0393\u03b9\u03b1 \u03bd\u03b1 \u03ad\u03c7\u03bf\u03c5\u03bc\u03b5 \u03b5\u03bc\u03b5\u03af\u03c2 \u03c4\u03bf \u03b7\u03bb\u03b5\u03ba\u03c4\u03c1\u03b9\u03ba\u03cc \u03bc\u03b1\u03c2...", "latitude": 40.487954, "owner_url": "http://www.panoramio.com/user/43418", "photo_url": "http://www.panoramio.com/photo/1892098", "photo_file_url": "http://mw2.google.com/mw-panoramio/photos/square/1892098.jpg", "owner_id": 43418}, {"upload_date": "19 December 2006", "owner_name": "Vassilis Pal", "photo_id": 188144, "longitude": 21.972828, "height": 60, "width": 60, "photo_title": "3-5pigadia", "latitude": 40.62594, "owner_url": "http://www.panoramio.com/user/36935", "photo_url": "http://www.panoramio.com/photo/188144", "photo_file_url": "http://mw2.google.com/mw-panoramio/photos/square/188144.jpg", "owner_id": 36935}, {"upload_date": "18 March 2007", "owner_name": "Giorgos_s_Boukouvalas", "photo_id": 1374527, "longitude": 21.721344, "height": 60, "width": 60, "photo_title": "Ptolemaida", "latitude": 40.50649, "owner_url": "http://www.panoramio.com/user/178659", "photo_url": "http://www.panoramio.com/photo/1374527", "photo_file_url": "http://mw2.google.com/mw-panoramio/photos/square/1374527.jpg", "owner_id": 178659}, {"upload_date": "18 May 2007", "owner_name": "Michael Paraskevas", "photo_id": 2280081, "longitude": 21.730614, "height": 60, "width": 60, "photo_title": "Electric power plant of Ptolemaida", "latitude": 40.481034, "owner_url": "http://www.panoramio.com/user/43418", "photo_url": "http://www.panoramio.com/photo/2280081", "photo_file_url": "http://mw2.google.com/mw-panoramio/photos/square/2280081.jpg", "owner_id": 43418}, {"upload_date": "20 February 2007", "owner_name": "Giorgos_s_Boukouvalas", "photo_id": 917193, "longitude": 21.429434, "height": 60, "width": 60, "photo_title": "Florina", "latitude": 40.795813, "owner_url": "http://www.panoramio.com/user/178659", "photo_url": "http://www.panoramio.com/photo/917193", "photo_file_url": "http://mw2.google.com/mw-panoramio/photos/square/917193.jpg", "owner_id": 178659}, {"upload_date": "16 September 2008", "owner_name": "lexovitis", "photo_id": 14177336, "longitude": 21.552773, "height": 60, "width": 60, "photo_title": "Greece,Aetos Florina-\u0395\u03ba\u03ba\u03bb\u03b7\u03c3\u03af\u03b1 \u0391\u03c1\u03c7\u03b1\u03b3\u03b3\u03ad\u03bb\u03bf\u03c5 \u039c\u03b9\u03c7\u03b1\u03ae\u03bb", "latitude": 40.663712, "owner_url": "http://www.panoramio.com/user/1455945", "photo_url": "http://www.panoramio.com/photo/14177336", "photo_file_url": "http://mw2.google.com/mw-panoramio/photos/square/14177336.jpg", "owner_id": 1455945}, {"upload_date": "04 March 2014", "owner_name": "Pantelis65", "photo_id": 103929006, "longitude": 21.501553, "height": 60, "width": 60, "photo_title": "\u039f\u03c1\u03b5\u03b9\u03bd\u03cc\u03c2 \u03be\u03b5\u03bd\u03ce\u03bd\u03b1\u03c2 \u03c3\u03c4\u03bf \u0386\u03c3\u03ba\u03b9\u03bf, \u03c0\u03b5\u03c1\u03af\u03c0\u03bf\u03c5 1.500 \u03bc\u03ad\u03c4\u03c1\u03b1 \u03c5\u03c8\u03cc\u03bc\u03b5\u03c4\u03c1\u03bf. -  Guest house on the mountain Askio, about 1,500 meters altitude.", "latitude": 40.477297, "owner_url": "http://www.panoramio.com/user/5501361", "photo_url": "http://www.panoramio.com/photo/103929006", "photo_file_url": "http://mw2.google.com/mw-panoramio/photos/square/103929006.jpg", "owner_id": 5501361}, {"upload_date": "23 September 2007", "owner_name": "Dr. Pincz\u00e9s S\u00e1ndor", "photo_id": 4854723, "longitude": 21.714821, "height": 60, "width": 60, "photo_title": "Elektromos er\u0151m\u0171 Filota (\u0391\u03c4\u03bc\u03bf\u03b7\u03bb\u03b5\u03ba\u03c4\u03c1\u03b9\u03ba\u03cc\u03c2 \u03a3\u03c4\u03b1\u03b8\u03bc\u03cc\u03c2 \u0391\u03bc\u03c5\u03bd\u03c4\u03b1\u03af\u03bf\u03c5 - \u03a6\u03b9\u03bb\u03ce\u03c4\u03b1)", "latitude": 40.65095, "owner_url": "http://www.panoramio.com/user/21091", "photo_url": "http://www.panoramio.com/photo/4854723", "photo_file_url": "http://mw2.google.com/mw-panoramio/photos/square/4854723.jpg", "owner_id": 21091}, {"upload_date": "02 October 2008", "owner_name": "lexovitis", "photo_id": 14622721, "longitude": 21.557579, "height": 60, "width": 60, "photo_title": "Greece, Emporio Eordaias Kozani", "latitude": 40.488737, "owner_url": "http://www.panoramio.com/user/1455945", "photo_url": "http://www.panoramio.com/photo/14622721", "photo_file_url": "http://mw2.google.com/mw-panoramio/photos/square/14622721.jpg", "owner_id": 1455945}, {"upload_date": "13 January 2010", "owner_name": "Kostas Z", "photo_id": 30997286, "longitude": 21.408577000000008, "height": 60, "width": 60, "photo_title": "\u03a3\u03c4\u03b7 \u03a6\u03bb\u03ce\u03c1\u03b9\u03bd\u03b1 -8\u03b7, \u03a0\u03a9\u039b\u0395\u0399\u03a4\u0391\u0399, \u03cc\u03c0\u03c9\u03c2 \u03b5\u03af\u03bd\u03b1\u03b9 \u03b5... \u03b5\u03c1\u03b5\u03b9\u03c0\u03c9\u03bc\u03ad\u03bd\u03bf", "latitude": 40.778348, "owner_url": "http://www.panoramio.com/user/3312695", "photo_url": "http://www.panoramio.com/photo/30997286", "photo_file_url": "http://mw2.google.com/mw-panoramio/photos/square/30997286.jpg", "owner_id": 3312695}, {"upload_date": "23 April 2007", "owner_name": "Michael Paraskevas", "photo_id": 1892160, "longitude": 21.808548, "height": 60, "width": 60, "photo_title": "\u0386\u03bd\u03bf\u03b9\u03be\u03b7 \u03c3\u03c4\u03bf \u03bf\u03c1\u03bf\u03c0\u03ad\u03b4\u03b9\u03bf \u03c4\u03b7\u03c2 \u03a0\u03c4\u03bf\u03bb\u03b5\u03bc\u03b1\u03ca\u03b4\u03b1\u03c2...", "latitude": 40.505316, "owner_url": "http://www.panoramio.com/user/43418", "photo_url": "http://www.panoramio.com/photo/1892160", "photo_file_url": "http://mw2.google.com/mw-panoramio/photos/square/1892160.jpg", "owner_id": 43418}, {"upload_date": "26 April 2011", "owner_name": "Pantelis65", "photo_id": 51702137, "longitude": 21.561785, "height": 60, "width": 60, "photo_title": "\u039a\u03b1\u03c3\u03c4\u03b1\u03bd\u03b9\u03ac - chestnut", "latitude": 40.4866, "owner_url": "http://www.panoramio.com/user/5501361", "photo_url": "http://www.panoramio.com/photo/51702137", "photo_file_url": "http://mw2.google.com/mw-panoramio/photos/square/51702137.jpg", "owner_id": 5501361}, {"upload_date": "16 July 2008", "owner_name": "lexovitis", "photo_id": 12165161, "longitude": 21.677098, "height": 60, "width": 60, "photo_title": "Greece, Amyntaio Florina -\u03a0\u03bd\u03b5\u03c5\u03bc\u03b1\u03c4\u03b9\u03ba\u03cc \u039a\u03ad\u03bd\u03c4\u03c1\u03bf", "latitude": 40.689766, "owner_url": "http://www.panoramio.com/user/1455945", "photo_url": "http://www.panoramio.com/photo/12165161", "photo_file_url": "http://mw2.google.com/mw-panoramio/photos/square/12165161.jpg", "owner_id": 1455945}, {"upload_date": "15 February 2011", "owner_name": "Pantelis65", "photo_id": 48142343, "longitude": 21.749217999999985, "height": 60, "width": 60, "photo_title": "\u039a\u03b1\u03c4\u03b1\u03c1\u03c1\u03ac\u03ba\u03c4\u03b7\u03c2 \u03c3\u03c4\u03b7\u03bd \u03bb\u03af\u03bc\u03bd\u03b7 \u0392\u03b5\u03b3\u03bf\u03c1\u03af\u03c4\u03b9\u03b4\u03b1 - Waterfall at Lake Vegoritida", "latitude": 40.718884, "owner_url": "http://www.panoramio.com/user/5501361", "photo_url": "http://www.panoramio.com/photo/48142343", "photo_file_url": "http://mw2.google.com/mw-panoramio/photos/square/48142343.jpg", "owner_id": 5501361}, {"upload_date": "24 March 2008", "owner_name": "theodoros sirros", "photo_id": 8812536, "longitude": 21.518097, "height": 60, "width": 60, "photo_title": "\u03a0\u03c1\u03bf\u03c6\u03ae\u03c4\u03b7\u03c2 \u0397\u03bb\u03af\u03b1\u03c2-\u039a\u03bb\u03b5\u03b9\u03c3\u03bf\u03cd\u03c1\u03b1", "latitude": 40.508579, "owner_url": "http://www.panoramio.com/user/830383", "photo_url": "http://www.panoramio.com/photo/8812536", "photo_file_url": "http://mw2.google.com/mw-panoramio/photos/square/8812536.jpg", "owner_id": 830383}, {"upload_date": "19 June 2010", "owner_name": "MAD maj", "photo_id": 36924139, "longitude": 22.072123, "height": 60, "width": 60, "photo_title": "\u039d\u03b5\u03c1\u03cc\u03bc\u03c5\u03bb\u03bf\u03c2 \u03a3\u03c4\u03b7\u03bd \u0395\u03af\u03c3\u03bf\u03b4\u03bf \u03c4\u03b7\u03c2 \u039d\u03ac\u03bf\u03c5\u03c3\u03b1\u03c2 - Watermill At Naoussa's Entrance (Nightview)", "latitude": 40.634082, "owner_url": "http://www.panoramio.com/user/2661849", "photo_url": "http://www.panoramio.com/photo/36924139", "photo_file_url": "http://mw2.google.com/mw-panoramio/photos/square/36924139.jpg", "owner_id": 2661849}, {"upload_date": "14 May 2008", "owner_name": "Maria Pantazi", "photo_id": 10211275, "longitude": 21.330766, "height": 60, "width": 60, "photo_title": "Militsa in winter", "latitude": 40.452997, "owner_url": "http://www.panoramio.com/user/1728041", "photo_url": "http://www.panoramio.com/photo/10211275", "photo_file_url": "http://mw2.google.com/mw-panoramio/photos/square/10211275.jpg", "owner_id": 1728041}, {"upload_date": "22 February 2009", "owner_name": "Maria Giakoumaki", "photo_id": 19280978, "longitude": 22.099428, "height": 60, "width": 60, "photo_title": "a tree near Aristoteles' School at Mieza", "latitude": 40.629979, "owner_url": "http://www.panoramio.com/user/1832830", "photo_url": "http://www.panoramio.com/photo/19280978", "photo_file_url": "http://mw2.google.com/mw-panoramio/photos/square/19280978.jpg", "owner_id": 1832830}, {"upload_date": "08 May 2008", "owner_name": "Kostikidis Georgios", "photo_id": 10019431, "longitude": 21.6465, "height": 60, "width": 60, "photo_title": "DEI.PTOLEMAIS", "latitude": 40.566503, "owner_url": "http://www.panoramio.com/user/749945", "photo_url": "http://www.panoramio.com/photo/10019431", "photo_file_url": "http://mw2.google.com/mw-panoramio/photos/square/10019431.jpg", "owner_id": 749945}, {"upload_date": "17 May 2010", "owner_name": "Kostikidis Georgios", "photo_id": 35614035, "longitude": 21.69250500000001, "height": 60, "width": 60, "photo_title": "TEK", "latitude": 40.577079, "owner_url": "http://www.panoramio.com/user/749945", "photo_url": "http://www.panoramio.com/photo/35614035", "photo_file_url": "http://mw2.google.com/mw-panoramio/photos/square/35614035.jpg", "owner_id": 749945}, {"upload_date": "16 September 2008", "owner_name": "lexovitis", "photo_id": 14176334, "longitude": 21.468315, "height": 60, "width": 60, "photo_title": "Greece, Asprogia Florina", "latitude": 40.615646, "owner_url": "http://www.panoramio.com/user/1455945", "photo_url": "http://www.panoramio.com/photo/14176334", "photo_file_url": "http://mw2.google.com/mw-panoramio/photos/square/14176334.jpg", "owner_id": 1455945}, {"upload_date": "05 February 2007", "owner_name": "Dr. Pincz\u00e9s S\u00e1ndor", "photo_id": 702456, "longitude": 21.538074, "height": 60, "width": 60, "photo_title": "Agrapidias", "latitude": 40.650397, "owner_url": "http://www.panoramio.com/user/21091", "photo_url": "http://www.panoramio.com/photo/702456", "photo_file_url": "http://mw2.google.com/mw-panoramio/photos/square/702456.jpg", "owner_id": 21091}, {"upload_date": "25 May 2008", "owner_name": "apanotous", "photo_id": 10576659, "longitude": 21.279488, "height": 60, "width": 60, "photo_title": "\u039a\u0391\u03a3\u03a4\u039f\u03a1\u0399\u0391", "latitude": 40.536503, "owner_url": "http://www.panoramio.com/user/1173362", "photo_url": "http://www.panoramio.com/photo/10576659", "photo_file_url": "http://mw2.google.com/mw-panoramio/photos/square/10576659.jpg", "owner_id": 1173362}, {"upload_date": "10 December 2008", "owner_name": "dukeveles-13-", "photo_id": 16737379, "longitude": 21.761856, "height": 60, "width": 60, "photo_title": " Vegoritida  Lake - \u039b\u03af\u03bc\u03bd\u03b7 \u0392\u03b5\u03b3\u03bf\u03c1\u03af\u03c4\u03b9\u03b4\u03b1 ", "latitude": 40.844983, "owner_url": "http://www.panoramio.com/user/2421342", "photo_url": "http://www.panoramio.com/photo/16737379", "photo_file_url": "http://mw2.google.com/mw-panoramio/photos/square/16737379.jpg", "owner_id": 2421342}, {"upload_date": "17 October 2007", "owner_name": "kostas_dinas", "photo_id": 5369828, "longitude": 21.291161, "height": 60, "width": 60, "photo_title": "Birds in Kastoria lake", "latitude": 40.521629, "owner_url": "http://www.panoramio.com/user/362121", "photo_url": "http://www.panoramio.com/photo/5369828", "photo_file_url": "http://mw2.google.com/mw-panoramio/photos/square/5369828.jpg", "owner_id": 362121}, {"upload_date": "11 January 2010", "owner_name": "lexovitis", "photo_id": 30939479, "longitude": 21.72173, "height": 60, "width": 60, "photo_title": "Greece,Florina,Amyntaio,Lake Petres-\u03a6\u03bb\u03ce\u03c1\u03b9\u03bd\u03b1,\u0391\u03bc\u03cd\u03bd\u03c4\u03b1\u03b9\u03bf,\u039b\u03af\u03bc\u03bd\u03b7 \u03a0\u03b5\u03c4\u03c1\u03ce\u03bd", "latitude": 40.730556, "owner_url": "http://www.panoramio.com/user/1455945", "photo_url": "http://www.panoramio.com/photo/30939479", "photo_file_url": "http://mw2.google.com/mw-panoramio/photos/square/30939479.jpg", "owner_id": 1455945}, {"upload_date": "10 July 2008", "owner_name": "Kostikidis Georgios", "photo_id": 11970328, "longitude": 21.66122, "height": 60, "width": 60, "photo_title": "\u039f\u03a1\u039f\u03a3 \u0391\u03a3\u039a\u0399\u039f", "latitude": 40.494971, "owner_url": "http://www.panoramio.com/user/749945", "photo_url": "http://www.panoramio.com/photo/11970328", "photo_file_url": "http://mw2.google.com/mw-panoramio/photos/square/11970328.jpg", "owner_id": 749945}, {"upload_date": "11 July 2008", "owner_name": "DailyMadness", "photo_id": 12014509, "longitude": 22.023125, "height": 60, "width": 60, "photo_title": "Woods in Naousa, Greece", "latitude": 40.607958, "owner_url": "http://www.panoramio.com/user/1287666", "photo_url": "http://www.panoramio.com/photo/12014509", "photo_file_url": "http://mw2.google.com/mw-panoramio/photos/square/12014509.jpg", "owner_id": 1287666}, {"upload_date": "23 July 2011", "owner_name": "A.Dimoulas", "photo_id": 56178501, "longitude": 21.452093, "height": 60, "width": 60, "photo_title": "\u03a6\u0398\u0399\u039d\u039f\u03a0\u03a9\u03a1\u0399\u039d\u0397 \u03a6\u03a5\u03a3\u0397,\u0392\u0395\u03a1\u0393\u0391 \u039a\u0391\u03a3\u03a4\u039f\u03a1\u0399\u0391\u03a3 - AUTUMN NATURE,BERGA KASTORIAS", "latitude": 40.551505, "owner_url": "http://www.panoramio.com/user/1829368", "photo_url": "http://www.panoramio.com/photo/56178501", "photo_file_url": "http://mw2.google.com/mw-panoramio/photos/square/56178501.jpg", "owner_id": 1829368}, {"upload_date": "13 March 2007", "owner_name": "kgram", "photo_id": 1309905, "longitude": 21.248589, "height": 60, "width": 60, "photo_title": "Ski center, Pisoderi 2", "latitude": 40.768842, "owner_url": "http://www.panoramio.com/user/181613", "photo_url": "http://www.panoramio.com/photo/1309905", "photo_file_url": "http://mw2.google.com/mw-panoramio/photos/square/1309905.jpg", "owner_id": 181613}, {"upload_date": "28 May 2007", "owner_name": "yannpapa", "photo_id": 2435296, "longitude": 22.049561, "height": 60, "width": 60, "photo_title": "Naousa - Greece", "latitude": 40.629197, "owner_url": "http://www.panoramio.com/user/97954", "photo_url": "http://www.panoramio.com/photo/2435296", "photo_file_url": "http://mw2.google.com/mw-panoramio/photos/square/2435296.jpg", "owner_id": 97954}, {"upload_date": "13 August 2008", "owner_name": "Kostikidis Georgios", "photo_id": 13084114, "longitude": 21.503677, "height": 60, "width": 60, "photo_title": "VARIKO GREECE", "latitude": 40.536634, "owner_url": "http://www.panoramio.com/user/749945", "photo_url": "http://www.panoramio.com/photo/13084114", "photo_file_url": "http://mw2.google.com/mw-panoramio/photos/square/13084114.jpg", "owner_id": 749945}, {"upload_date": "13 May 2008", "owner_name": "lekat", "photo_id": 10204764, "longitude": 21.283007, "height": 60, "width": 60, "photo_title": "Prespa fm Loutze", "latitude": 40.75597, "owner_url": "http://www.panoramio.com/user/32741", "photo_url": "http://www.panoramio.com/photo/10204764", "photo_file_url": "http://mw2.google.com/mw-panoramio/photos/square/10204764.jpg", "owner_id": 32741}, {"upload_date": "23 October 2008", "owner_name": "Kostikidis Georgios", "photo_id": 15291221, "longitude": 21.776512, "height": 60, "width": 60, "photo_title": "Dimotiko scholio Komninon", "latitude": 40.591079, "owner_url": "http://www.panoramio.com/user/749945", "photo_url": "http://www.panoramio.com/photo/15291221", "photo_file_url": "http://mw2.google.com/mw-panoramio/photos/square/15291221.jpg", "owner_id": 749945}, {"upload_date": "04 April 2012", "owner_name": "Dimitris Kaliakoudas", "photo_id": 69671607, "longitude": 21.704931, "height": 60, "width": 60, "photo_title": "\u039b\u03af\u03bc\u03bd\u03b7 \u03a0\u03b5\u03c4\u03c1\u03ce\u03bd", "latitude": 40.744132, "owner_url": "http://www.panoramio.com/user/4362169", "photo_url": "http://www.panoramio.com/photo/69671607", "photo_file_url": "http://mw2.google.com/mw-panoramio/photos/square/69671607.jpg", "owner_id": 4362169}, {"upload_date": "10 February 2008", "owner_name": "kgram", "photo_id": 7735005, "longitude": 21.967163, "height": 60, "width": 60, "photo_title": "3-5 Pigadia ski center panorama from the chalet", "latitude": 40.641638, "owner_url": "http://www.panoramio.com/user/181613", "photo_url": "http://www.panoramio.com/photo/7735005", "photo_file_url": "http://mw2.google.com/mw-panoramio/photos/square/7735005.jpg", "owner_id": 181613}, {"upload_date": "11 October 2008", "owner_name": "lexovitis", "photo_id": 14922071, "longitude": 21.66056499999999, "height": 60, "width": 60, "photo_title": "Greece Petres Florina-\u0397 \u03bb\u03af\u03bc\u03bd\u03b7 \u03c4\u03c9\u03bd \u03a0\u03b5\u03c4\u03c1\u03ce\u03bd \u03bc\u03b5 \u03c4\u03bf\u03bd \u03bf\u03bc\u03ce\u03bd\u03c5\u03bc\u03bf \u03bf\u03b9\u03ba\u03b9\u03c3\u03bc\u03cc \u03c4\u03b7\u03c2", "latitude": 40.729384, "owner_url": "http://www.panoramio.com/user/1455945", "photo_url": "http://www.panoramio.com/photo/14922071", "photo_file_url": "http://mw2.google.com/mw-panoramio/photos/square/14922071.jpg", "owner_id": 1455945}, {"upload_date": "24 May 2008", "owner_name": "theodoros sirros", "photo_id": 10531422, "longitude": 21.619034, "height": 60, "width": 60, "photo_title": "\u0391\u03c3\u03ba\u03b9\u03bf \u03cc\u03c1\u03bf\u03c2-\u03ba\u03b1\u03c4\u03b1\u03c6\u03cd\u03b3\u03b9\u03bf", "latitude": 40.428656, "owner_url": "http://www.panoramio.com/user/830383", "photo_url": "http://www.panoramio.com/photo/10531422", "photo_file_url": "http://mw2.google.com/mw-panoramio/photos/square/10531422.jpg", "owner_id": 830383},