{"count": 3279, "has_more": true, "map_location": {"lat": 43.5253155, "panoramio_zoom": 8, "lon": 4.570690052895268}, "photos": [{"upload_date": "27 February 2012", "owner_name": "Genevieve M.", "photo_id": 67583750, "longitude": 4.449709000000013, "height": 60, "width": 60, "photo_title": "Glacial sunrise! The Vaccar\u00e8s frozen, exceptional winter, near Les Saintes Maries de la Mer, Bouches du Rhone, France", "latitude": 43.504634, "owner_url": "http://www.panoramio.com/user/3846932", "photo_url": "http://www.panoramio.com/photo/67583750", "photo_file_url": "http://mw2.google.com/mw-panoramio/photos/square/67583750.jpg", "owner_id": 3846932}, {"upload_date": "04 June 2013", "owner_name": "Genevieve M.", "photo_id": 91307056, "longitude": 4.36134, "height": 60, "width": 60, "photo_title": "Fisherman at sunset, Grand Radeau Beach, near Les Saintes Maries de la Mer, Bouches du Rh\u00f4ne, Camargue, France", "latitude": 43.454126, "owner_url": "http://www.panoramio.com/user/3846932", "photo_url": "http://www.panoramio.com/photo/91307056", "photo_file_url": "http://mw2.google.com/mw-panoramio/photos/square/91307056.jpg", "owner_id": 3846932}, {"upload_date": "05 July 2010", "owner_name": "Chinappi", "photo_id": 37538286, "longitude": 4.597692, "height": 60, "width": 60, "photo_title": "Fleurs sauvages de Printemps, en Camargue", "latitude": 43.45429, "owner_url": "http://www.panoramio.com/user/3864530", "photo_url": "http://www.panoramio.com/photo/37538286", "photo_file_url": "http://mw2.google.com/mw-panoramio/photos/square/37538286.jpg", "owner_id": 3864530}, {"upload_date": "02 January 2012", "owner_name": "Genevieve M.", "photo_id": 64324785, "place_id": "3b7c94f5701712060d0d4376b67d8436f0bab7fd", "longitude": 4.5297999999999945, "height": 60, "width": 60, "photo_title": "Last Camargue sunset of the year, glorious! 31 12 2011, Les Saintes Maries de la Mer, Bouches du Rhone, France", "latitude": 43.452919, "owner_url": "http://www.panoramio.com/user/3846932", "photo_url": "http://www.panoramio.com/photo/64324785", "photo_file_url": "http://mw2.google.com/mw-panoramio/photos/square/64324785.jpg", "owner_id": 3846932}, {"upload_date": "03 November 2011", "owner_name": "Genevieve M.", "photo_id": 61593927, "longitude": 4.49034, "height": 60, "width": 60, "photo_title": "Almost sunrise on the Vaccar\u00e8s, near Les Saintes Maries de la Mer, Bouches du Rhone, Camargue, France", "latitude": 43.557008, "owner_url": "http://www.panoramio.com/user/3846932", "photo_url": "http://www.panoramio.com/photo/61593927", "photo_file_url": "http://mw2.google.com/mw-panoramio/photos/square/61593927.jpg", "owner_id": 3846932}, {"upload_date": "06 February 2012", "owner_name": "Genevieve M.", "photo_id": 66274424, "longitude": 4.63537199999999, "height": 60, "width": 60, "photo_title": "Camargue Banquise! Ice on Etang du Vaccares, unusual winter, Les Saintes Maries de la Mer, Bouches du Rhone, France", "latitude": 43.52173, "owner_url": "http://www.panoramio.com/user/3846932", "photo_url": "http://www.panoramio.com/photo/66274424", "photo_file_url": "http://mw2.google.com/mw-panoramio/photos/square/66274424.jpg", "owner_id": 3846932}, {"upload_date": "21 May 2011", "owner_name": "KWO Tsoumenis", "photo_id": 52993166, "place_id": "9359e1346c03e04bbd4a728acfef8584785b5eab", "longitude": 4.629757, "height": 60, "width": 60, "photo_title": "FRA Arles Theatre Antique (Jardin d'Ete) [KWOT & LeenieforLena{panor} Panorama by KWOT] {upload 21/5/2011 on our \"Name Day\"}", "latitude": 43.675815, "owner_url": "http://www.panoramio.com/user/2549084", "photo_url": "http://www.panoramio.com/photo/52993166", "photo_file_url": "http://mw2.google.com/mw-panoramio/photos/square/52993166.jpg", "owner_id": 2549084}, {"upload_date": "08 March 2007", "owner_name": "Philippe Stoop", "photo_id": 1226915, "longitude": 4.627304, "height": 60, "width": 60, "photo_title": "Flamants roses sur l'Etang de Vaccar\u00e8s", "latitude": 43.551285, "owner_url": "http://www.panoramio.com/user/78506", "photo_url": "http://www.panoramio.com/photo/1226915", "photo_file_url": "http://mw2.google.com/mw-panoramio/photos/square/1226915.jpg", "owner_id": 78506}, {"upload_date": "17 June 2011", "owner_name": "Natmara", "photo_id": 54345551, "longitude": 4.427029, "height": 60, "width": 60, "photo_title": "In search of the authentic.", "latitude": 43.45619, "owner_url": "http://www.panoramio.com/user/3327628", "photo_url": "http://www.panoramio.com/photo/54345551", "photo_file_url": "http://mw2.google.com/mw-panoramio/photos/square/54345551.jpg", "owner_id": 3327628}, {"upload_date": "12 June 2011", "owner_name": "KWO Tsoumenis", "photo_id": 54075545, "place_id": "41475af685a71d3bb293fb0eb0f37096cbdbfb6e", "longitude": 4.620899, "height": 60, "width": 60, "photo_title": "FRA Arles {country area} [Rhone Canal] Pont de Langlois aux Lavandieres [Pont Van-Gogh] [KWOT & LeenieforLena{panor} (M3) with members of Earth-Art-Group(Cyprus) Panorama by KWOT]", "latitude": 43.657048, "owner_url": "http://www.panoramio.com/user/2549084", "photo_url": "http://www.panoramio.com/photo/54075545", "photo_file_url": "http://mw2.google.com/mw-panoramio/photos/square/54075545.jpg", "owner_id": 2549084}, {"upload_date": "12 December 2010", "owner_name": "><((((\u00ba>  methysmena chromata<\u00ba))))><", "photo_id": 44933859, "longitude": 4.769568, "height": 60, "width": 60, "photo_title": "\u0391\u03bb\u03c5\u03ba\u03ae, Eine Saline, Salt evaporation pond.   Sunny Road to Salina", "latitude": 43.362658, "owner_url": "http://www.panoramio.com/user/1274389", "photo_url": "http://www.panoramio.com/photo/44933859", "photo_file_url": "http://mw2.google.com/mw-panoramio/photos/square/44933859.jpg", "owner_id": 1274389}, {"upload_date": "14 November 2011", "owner_name": "RoschM", "photo_id": 62158629, "longitude": 4.669157, "height": 60, "width": 60, "photo_title": "[Provence-Alpes-C\u00f4te d'Azur] Abbaye de Montmajour 07.11.2011 France", "latitude": 43.706787, "owner_url": "http://www.panoramio.com/user/1890590", "photo_url": "http://www.panoramio.com/photo/62158629", "photo_file_url": "http://mw2.google.com/mw-panoramio/photos/square/62158629.jpg", "owner_id": 1890590}, {"upload_date": "12 December 2010", "owner_name": "><((((\u00ba>  methysmena chromata<\u00ba))))><", "photo_id": 44933877, "longitude": 4.748454, "height": 60, "width": 60, "photo_title": "\u0391\u03c0\u03cc \u03c0\u03bf\u03c5 \u03c0\u03ac\u03bd\u03b5 \u03b3\u03b9\u03b1 \u03c4\u03bf \u03a7\u03cc\u03bb\u03b9\u03b3\u03bf\u03c5\u03bd\u03c4 \u03c0\u03b1\u03c1\u03b1\u03ba\u03b1\u03bb\u03ce; Wo bitte geht's nach Hollywood?", "latitude": 43.366901, "owner_url": "http://www.panoramio.com/user/1274389", "photo_url": "http://www.panoramio.com/photo/44933877", "photo_file_url": "http://mw2.google.com/mw-panoramio/photos/square/44933877.jpg", "owner_id": 1274389}, {"upload_date": "06 November 2012", "owner_name": "minusca", "photo_id": 81704406, "longitude": 4.406069, "height": 60, "width": 60, "photo_title": "Morning nap", "latitude": 43.487286, "owner_url": "http://www.panoramio.com/user/4058821", "photo_url": "http://www.panoramio.com/photo/81704406", "photo_file_url": "http://mw2.google.com/mw-panoramio/photos/square/81704406.jpg", "owner_id": 4058821}, {"upload_date": "29 June 2010", "owner_name": "><((((\u00ba>  methysmena chromata<\u00ba))))><", "photo_id": 37310561, "longitude": 4.5595189999999945, "height": 60, "width": 60, "photo_title": "\u03a3\u03c4\u03bf\u03bd \u03b4\u03c1\u03cc\u03bc\u03bf \u03b3\u03b9\u03b1  \u03c4\u03b7\u03bd \u03c0\u03cc\u03bb\u03b7 Arles, Auf den Weg nach Arles, On the road to Arles", "latitude": 43.70626, "owner_url": "http://www.panoramio.com/user/1274389", "photo_url": "http://www.panoramio.com/photo/37310561", "photo_file_url": "http://mw2.google.com/mw-panoramio/photos/square/37310561.jpg", "owner_id": 1274389}, {"upload_date": "17 February 2009", "owner_name": "majasa", "photo_id": 19091601, "longitude": 4.460419, "height": 60, "width": 60, "photo_title": "Camarqe fleming", "latitude": 43.470256, "owner_url": "http://www.panoramio.com/user/2706839", "photo_url": "http://www.panoramio.com/photo/19091601", "photo_file_url": "http://mw2.google.com/mw-panoramio/photos/square/19091601.jpg", "owner_id": 2706839}, {"upload_date": "06 January 2008", "owner_name": "J-F GHIRARDI 13/2A", "photo_id": 6947627, "longitude": 4.798303, "height": 60, "width": 60, "photo_title": "LE RHONE EN FEU @J-F", "latitude": 43.388332, "owner_url": "http://www.panoramio.com/user/305736", "photo_url": "http://www.panoramio.com/photo/6947627", "photo_file_url": "http://mw2.google.com/mw-panoramio/photos/square/6947627.jpg", "owner_id": 305736}, {"upload_date": "30 January 2012", "owner_name": "Olivier Faugeras", "photo_id": 65831049, "longitude": 4.607263, "height": 60, "width": 60, "photo_title": "3 petits Camargues", "latitude": 43.588225, "owner_url": "http://www.panoramio.com/user/629243", "photo_url": "http://www.panoramio.com/photo/65831049", "photo_file_url": "http://mw2.google.com/mw-panoramio/photos/square/65831049.jpg", "owner_id": 629243}, {"upload_date": "16 November 2009", "owner_name": "Genevieve M.", "photo_id": 28938661, "longitude": 4.444313, "height": 60, "width": 60, "photo_title": "Winter sunset on the wetlands, Saintes Maries de la Mer, Bouches du Rh\u00f4ne, Camargue, France", "latitude": 43.486307, "owner_url": "http://www.panoramio.com/user/3846932", "photo_url": "http://www.panoramio.com/photo/28938661", "photo_file_url": "http://mw2.google.com/mw-panoramio/photos/square/28938661.jpg", "owner_id": 3846932}, {"upload_date": "20 April 2008", "owner_name": "ch' caf'", "photo_id": 9532985, "longitude": 4.657345, "height": 60, "width": 60, "photo_title": "Ol\u00e0! Toro!", "latitude": 43.513607, "owner_url": "http://www.panoramio.com/user/1308510", "photo_url": "http://www.panoramio.com/photo/9532985", "photo_file_url": "http://mw2.google.com/mw-panoramio/photos/square/9532985.jpg", "owner_id": 1308510}, {"upload_date": "30 November 2012", "owner_name": "loamvalley", "photo_id": 82810687, "longitude": 4.567452, "height": 60, "width": 60, "photo_title": "Ein einsamer Leuchtturm in der Camargue: Le Phare de Gacholle/Lonely in the Camargue: the Lighthouse \"Phare de Gacholle\"", "latitude": 43.454788, "owner_url": "http://www.panoramio.com/user/4375335", "photo_url": "http://www.panoramio.com/photo/82810687", "photo_file_url": "http://mw2.google.com/mw-panoramio/photos/square/82810687.jpg", "owner_id": 4375335}, {"upload_date": "05 February 2011", "owner_name": "\u00a9 P. Amet", "photo_id": 47620924, "longitude": 4.588487, "height": 60, "width": 60, "photo_title": "Saintes-Maries-de-La-Mer, Bouches du Rh\u00f4ne, Provence-Alpes-C\u00f4te d'Azur, France (Concours F\u00e9vrier 2011)", "latitude": 43.565809, "owner_url": "http://www.panoramio.com/user/269255", "photo_url": "http://www.panoramio.com/photo/47620924", "photo_file_url": "http://mw2.google.com/mw-panoramio/photos/square/47620924.jpg", "owner_id": 269255}, {"upload_date": "01 September 2010", "owner_name": "karim SAARI \u00a9", "photo_id": 40173065, "longitude": 4.559047, "height": 60, "width": 60, "photo_title": "\u2605 Camargue, les dunes de beauduc ~ Karim SAARI \u00a9", "latitude": 43.38495, "owner_url": "http://www.panoramio.com/user/4439171", "photo_url": "http://www.panoramio.com/photo/40173065", "photo_file_url": "http://mw2.google.com/mw-panoramio/photos/square/40173065.jpg", "owner_id": 4439171}, {"upload_date": "03 July 2007", "owner_name": "Olivier Faugeras", "photo_id": 3098081, "longitude": 4.487228, "height": 60, "width": 60, "photo_title": "Flamand rose en Camargue", "latitude": 43.537101, "owner_url": "http://www.panoramio.com/user/629243", "photo_url": "http://www.panoramio.com/photo/3098081", "photo_file_url": "http://mw2.google.com/mw-panoramio/photos/square/3098081.jpg", "owner_id": 629243}, {"upload_date": "08 March 2009", "owner_name": "drku", "photo_id": 19819219, "longitude": 4.432533, "height": 60, "width": 60, "photo_title": "Abbaye de Saint-Gilles", "latitude": 43.676811, "owner_url": "http://www.panoramio.com/user/2938376", "photo_url": "http://www.panoramio.com/photo/19819219", "photo_file_url": "http://mw2.google.com/mw-panoramio/photos/square/19819219.jpg", "owner_id": 2938376}, {"upload_date": "20 April 2008", "owner_name": "ch' caf'", "photo_id": 9533023, "longitude": 4.410989, "height": 60, "width": 60, "photo_title": "Flamands roses # Camargue", "latitude": 43.473399, "owner_url": "http://www.panoramio.com/user/1308510", "photo_url": "http://www.panoramio.com/photo/9533023", "photo_file_url": "http://mw2.google.com/mw-panoramio/photos/square/9533023.jpg", "owner_id": 1308510}, {"upload_date": "02 February 2012", "owner_name": "Olivier Faugeras", "photo_id": 66029202, "longitude": 4.805574, "height": 60, "width": 60, "photo_title": "3 petites notes", "latitude": 43.369618, "owner_url": "http://www.panoramio.com/user/629243", "photo_url": "http://www.panoramio.com/photo/66029202", "photo_file_url": "http://mw2.google.com/mw-panoramio/photos/square/66029202.jpg", "owner_id": 629243}, {"upload_date": "20 April 2008", "owner_name": "ch' caf'", "photo_id": 9532958, "longitude": 4.481907, "height": 60, "width": 60, "photo_title": "Chevaux de Camargue", "latitude": 43.615635, "owner_url": "http://www.panoramio.com/user/1308510", "photo_url": "http://www.panoramio.com/photo/9532958", "photo_file_url": "http://mw2.google.com/mw-panoramio/photos/square/9532958.jpg", "owner_id": 1308510}, {"upload_date": "21 June 2010", "owner_name": "Bernard Bost", "photo_id": 37020004, "longitude": 4.876299, "height": 60, "width": 60, "photo_title": "Port-Saint-Louis-du-Rh\u00f4ne, la plage Napol\u00e9on", "latitude": 43.348307, "owner_url": "http://www.panoramio.com/user/1354090", "photo_url": "http://www.panoramio.com/photo/37020004", "photo_file_url": "http://mw2.google.com/mw-panoramio/photos/square/37020004.jpg", "owner_id": 1354090}, {"upload_date": "04 February 2008", "owner_name": "Falk Preusche", "photo_id": 7576044, "longitude": 4.777347, "height": 60, "width": 60, "photo_title": "An der Rhone", "latitude": 43.39312, "owner_url": "http://www.panoramio.com/user/30223", "photo_url": "http://www.panoramio.com/photo/7576044", "photo_file_url": "http://mw2.google.com/mw-panoramio/photos/square/7576044.jpg", "owner_id": 30223}, {"upload_date": "06 July 2010", "owner_name": "paolo savigni", "photo_id": 37570306, "longitude": 4.400839999999988, "height": 60, "width": 60, "photo_title": "I cavalli bianchi della Camargue", "latitude": 43.453262, "owner_url": "http://www.panoramio.com/user/603375", "photo_url": "http://www.panoramio.com/photo/37570306", "photo_file_url": "http://mw2.google.com/mw-panoramio/photos/square/37570306.jpg", "owner_id": 603375}, {"upload_date": "17 June 2007", "owner_name": "mue52", "photo_id": 2792012, "longitude": 4.733047, "height": 60, "width": 60, "photo_title": "Mittelmeer bei Salin de Giraud", "latitude": 43.352894, "owner_url": "http://www.panoramio.com/user/570908", "photo_url": "http://www.panoramio.com/photo/2792012", "photo_file_url": "http://mw2.google.com/mw-panoramio/photos/square/2792012.jpg", "owner_id": 570908}, {"upload_date": "17 January 2008", "owner_name": "gmg61", "photo_id": 7191564, "longitude": 4.658203, "height": 60, "width": 60, "photo_title": "Camargue 2", "latitude": 43.392575, "owner_url": "http://www.panoramio.com/user/214211", "photo_url": "http://www.panoramio.com/photo/7191564", "photo_file_url": "http://mw2.google.com/mw-panoramio/photos/square/7191564.jpg", "owner_id": 214211}, {"upload_date": "04 May 2011", "owner_name": "ancan5", "photo_id": 52152873, "longitude": 4.594345000000004, "height": 60, "width": 60, "photo_title": "By the Mediterranean Sea", "latitude": 43.407542, "owner_url": "http://www.panoramio.com/user/2669235", "photo_url": "http://www.panoramio.com/photo/52152873", "photo_file_url": "http://mw2.google.com/mw-panoramio/photos/square/52152873.jpg", "owner_id": 2669235}, {"upload_date": "28 December 2011", "owner_name": "JM Alves", "photo_id": 64063048, "longitude": 4.751922, "height": 60, "width": 60, "photo_title": "Salines", "latitude": 43.401285, "owner_url": "http://www.panoramio.com/user/162675", "photo_url": "http://www.panoramio.com/photo/64063048", "photo_file_url": "http://mw2.google.com/mw-panoramio/photos/square/64063048.jpg", "owner_id": 162675}, {"upload_date": "24 May 2008", "owner_name": "Ben MILLE", "photo_id": 10533991, "longitude": 4.820386, "height": 60, "width": 60, "photo_title": "Ancien moulin", "latitude": 43.387526, "owner_url": "http://www.panoramio.com/user/235527", "photo_url": "http://www.panoramio.com/photo/10533991", "photo_file_url": "http://mw2.google.com/mw-panoramio/photos/square/10533991.jpg", "owner_id": 235527}, {"upload_date": "01 July 2007", "owner_name": "Oscar Sacchi", "photo_id": 3043528, "longitude": 4.613151, "height": 60, "width": 60, "photo_title": "1966 El Rhone, cerca de Arles", "latitude": 43.689528, "owner_url": "http://www.panoramio.com/user/16277", "photo_url": "http://www.panoramio.com/photo/3043528", "photo_file_url": "http://mw2.google.com/mw-panoramio/photos/square/3043528.jpg", "owner_id": 16277}, {"upload_date": "31 March 2007", "owner_name": "J-F GHIRARDI 13/2A", "photo_id": 1565718, "longitude": 4.584925, "height": 60, "width": 60, "photo_title": "Phare de Beauduc @ J-F", "latitude": 43.363956, "owner_url": "http://www.panoramio.com/user/305736", "photo_url": "http://www.panoramio.com/photo/1565718", "photo_file_url": "http://mw2.google.com/mw-panoramio/photos/square/1565718.jpg", "owner_id": 305736}, {"upload_date": "16 November 2012", "owner_name": "loamvalley", "photo_id": 82183796, "longitude": 4.380972, "height": 60, "width": 60, "photo_title": "Camargue-Pferde an der Kleinen Rhone/Camargue Horses at the Little Rhone", "latitude": 43.484474, "owner_url": "http://www.panoramio.com/user/4375335", "photo_url": "http://www.panoramio.com/photo/82183796", "photo_file_url": "http://mw2.google.com/mw-panoramio/photos/square/82183796.jpg", "owner_id": 4375335}, {"upload_date": "08 May 2012", "owner_name": "\u00a9 P. Amet", "photo_id": 71727738, "longitude": 4.572998, "height": 60, "width": 60, "photo_title": "Etang de Vacar\u00e8s, Saintes Maries de la Mer, Provence Alpes C\u00f4te d'Azur, France, Europe, Concours de Mai 2012 ", "latitude": 43.535109, "owner_url": "http://www.panoramio.com/user/269255", "photo_url": "http://www.panoramio.com/photo/71727738", "photo_file_url": "http://mw2.google.com/mw-panoramio/photos/square/71727738.jpg", "owner_id": 269255}, {"upload_date": "17 December 2013", "owner_name": "Jantoni", "photo_id": 100653140, "longitude": 4.22493, "height": 60, "width": 60, "photo_title": "\u00daltima luz sobre las marismas", "latitude": 43.544318, "owner_url": "http://www.panoramio.com/user/4377025", "photo_url": "http://www.panoramio.com/photo/100653140", "photo_file_url": "http://mw2.google.com/mw-panoramio/photos/square/100653140.jpg", "owner_id": 4377025}, {"upload_date": "07 November 2007", "owner_name": "Nicola e Pina Europa 2004", "photo_id": 5772943, "place_id": "803e196925c2cbc0b23c14d0ace287e8d726c856", "longitude": 4.41011, "height": 60, "width": 60, "photo_title": "Ch\u00e2teau d'Avignon, Saintes-Maries-de-la-Mer, France.", "latitude": 43.558252, "owner_url": "http://www.panoramio.com/user/1029886", "photo_url": "http://www.panoramio.com/photo/5772943", "photo_file_url": "http://mw2.google.com/mw-panoramio/photos/square/5772943.jpg", "owner_id": 1029886}, {"upload_date": "06 August 2008", "owner_name": "Ben de Graaf Bierbrauwer", "photo_id": 12880537, "longitude": 4.259643000000011, "height": 60, "width": 60, "photo_title": "Canal du Rh\u00f4ne \u00e0 S\u00e8te", "latitude": 43.619266, "owner_url": "http://www.panoramio.com/user/1138231", "photo_url": "http://www.panoramio.com/photo/12880537", "photo_file_url": "http://mw2.google.com/mw-panoramio/photos/square/12880537.jpg", "owner_id": 1138231}, {"upload_date": "27 February 2008", "owner_name": "ren\u00e9 baldinger - baldinger reisen ag, waedenswil/switzerland", "photo_id": 8148031, "longitude": 4.45118, "height": 60, "width": 60, "photo_title": "Der Morgen in der Camargue .....", "latitude": 43.507102, "owner_url": "http://www.panoramio.com/user/7434", "photo_url": "http://www.panoramio.com/photo/8148031", "photo_file_url": "http://mw2.google.com/mw-panoramio/photos/square/8148031.jpg", "owner_id": 7434}, {"upload_date": "03 February 2014", "owner_name": "Genevieve M.", "photo_id": 102680994, "longitude": 4.583012, "height": 60, "width": 60, "photo_title": "Love parade of pink flamingos! February in Camargue Natural Preservation Area, near Les Saintes Maries de la Mer", "latitude": 43.457095, "owner_url": "http://www.panoramio.com/user/3846932", "photo_url": "http://www.panoramio.com/photo/102680994", "photo_file_url": "http://mw2.google.com/mw-panoramio/photos/square/102680994.jpg", "owner_id": 3846932}, {"upload_date": "03 November 2011", "owner_name": "Genevieve M.", "photo_id": 61594588, "longitude": 4.485854999999987, "height": 60, "width": 60, "photo_title": "Orange sunrise on the Vaccar\u00e8s, near Les Saintes Maries de la Mer, Bouches du Rhone, France (panorama 3 photos)", "latitude": 43.55141, "owner_url": "http://www.panoramio.com/user/3846932", "photo_url": "http://www.panoramio.com/photo/61594588", "photo_file_url": "http://mw2.google.com/mw-panoramio/photos/square/61594588.jpg", "owner_id": 3846932}, {"upload_date": "27 February 2012", "owner_name": "Genevieve M.", "photo_id": 67583099, "longitude": 4.463614000000007, "height": 60, "width": 60, "photo_title": "Pink flamingos group on frozen Camargue, Les Saintes Maries de la Mer, Bouches du Rhone, France", "latitude": 43.462473, "owner_url": "http://www.panoramio.com/user/3846932", "photo_url": "http://www.panoramio.com/photo/67583099", "photo_file_url": "http://mw2.google.com/mw-panoramio/photos/square/67583099.jpg", "owner_id": 3846932}, {"upload_date": "02 January 2012", "owner_name": "Genevieve M.", "photo_id": 64323803, "longitude": 4.533834000000013, "height": 60, "width": 60, "photo_title": "Wind effect on the deserted Camargue, Natural Preservation Area, near Les Saintes Maries de la Mer, Bouches du Rhone, France", "latitude": 43.454352, "owner_url": "http://www.panoramio.com/user/3846932", "photo_url": "http://www.panoramio.com/photo/64323803", "photo_file_url": "http://mw2.google.com/mw-panoramio/photos/square/64323803.jpg", "owner_id": 3846932}, {"upload_date": "09 December 2009", "owner_name": "Genevieve M.", "photo_id": 29718056, "longitude": 4.407063, "height": 60, "width": 60, "photo_title": "Winter sunset on the driftwoods... Saintes Maries de la Mer, Camargue, Bouches du Rh\u00f4ne, France", "latitude": 43.448931, "owner_url": "http://www.panoramio.com/user/3846932", "photo_url": "http://www.panoramio.com/photo/29718056", "photo_file_url": "http://mw2.google.com/mw-panoramio/photos/square/29718056.jpg", "owner_id": 3846932}, {"upload_date": "15 November 2009", "owner_name": "Genevieve M.", "photo_id": 28888501, "longitude": 4.484482, "height": 60, "width": 60, "photo_title": "Great sunrise on pink flamingos, Etang du Vaccar\u00e8s, Stes Maries de la Mer, Camargue, France", "latitude": 43.546557, "owner_url": "http://www.panoramio.com/user/3846932", "photo_url": "http://www.panoramio.com/photo/28888501", "photo_file_url": "http://mw2.google.com/mw-panoramio/photos/square/28888501.jpg", "owner_id": 3846932}, {"upload_date": "25 November 2012", "owner_name": "minusca", "photo_id": 82559329, "longitude": 4.427967, "height": 60, "width": 60, "photo_title": "From the terrace of the Church of Saintes-Maries-de-la-Mer", "latitude": 43.451581, "owner_url": "http://www.panoramio.com/user/4058821", "photo_url": "http://www.panoramio.com/photo/82559329", "photo_file_url": "http://mw2.google.com/mw-panoramio/photos/square/82559329.jpg", "owner_id": 4058821}, {"upload_date": "22 January 2012", "owner_name": "Olivier Faugeras", "photo_id": 65366849, "place_id": "256d1cc211f7a7db36a9f4fcd9b15fca1520b900", "longitude": 4.627822, "height": 60, "width": 60, "photo_title": "Portes ouvertes sur Arles", "latitude": 43.67663, "owner_url": "http://www.panoramio.com/user/629243", "photo_url": "http://www.panoramio.com/photo/65366849", "photo_file_url": "http://mw2.google.com/mw-panoramio/photos/square/65366849.jpg", "owner_id": 629243}, {"upload_date": "01 December 2009", "owner_name": "Genevieve M.", "photo_id": 29442428, "longitude": 4.424657999999994, "height": 60, "width": 60, "photo_title": "Stormy day on the harbour, Saintes Maries de la Mer, Camargue, Bouches du Rh\u00f4ne, France", "latitude": 43.449554, "owner_url": "http://www.panoramio.com/user/3846932", "photo_url": "http://www.panoramio.com/photo/29442428", "photo_file_url": "http://mw2.google.com/mw-panoramio/photos/square/29442428.jpg", "owner_id": 3846932}, {"upload_date": "30 November 2009", "owner_name": "Genevieve M.", "photo_id": 29406989, "longitude": 4.421482, "height": 60, "width": 60, "photo_title": "Stormy day, angry Sea! Big wave on the dam, Saintes Maries de la Mer, Camargue, Bouches du Rh\u00f4ne, France", "latitude": 43.447062, "owner_url": "http://www.panoramio.com/user/3846932", "photo_url": "http://www.panoramio.com/photo/29406989", "photo_file_url": "http://mw2.google.com/mw-panoramio/photos/square/29406989.jpg", "owner_id": 3846932}, {"upload_date": "21 November 2012", "owner_name": "vinc107", "photo_id": 82405870, "longitude": 4.748068, "height": 60, "width": 60, "photo_title": "Salin de Giraud - Marais rose", "latitude": 43.39931, "owner_url": "http://www.panoramio.com/user/3418712", "photo_url": "http://www.panoramio.com/photo/82405870", "photo_file_url": "http://mw2.google.com/mw-panoramio/photos/square/82405870.jpg", "owner_id": 3418712}, {"upload_date": "21 November 2012", "owner_name": "vinc107", "photo_id": 82405428, "longitude": 4.673181, "height": 60, "width": 60, "photo_title": "Craquellement ", "latitude": 43.405079, "owner_url": "http://www.panoramio.com/user/3418712", "photo_url": "http://www.panoramio.com/photo/82405428", "photo_file_url": "http://mw2.google.com/mw-panoramio/photos/square/82405428.jpg", "owner_id": 3418712}, {"upload_date": "11 October 2011", "owner_name": "Genevieve M.", "photo_id": 60422381, "longitude": 4.457616, "height": 60, "width": 60, "photo_title": "Sunrise on frozen swamp, cold morning winter in Camargue, Saintes Maries de la Mer, Bouches du Rh\u00f4ne, France", "latitude": 43.51507, "owner_url": "http://www.panoramio.com/user/3846932", "photo_url": "http://www.panoramio.com/photo/60422381", "photo_file_url": "http://mw2.google.com/mw-panoramio/photos/square/60422381.jpg", "owner_id": 3846932}, {"upload_date": "09 August 2013", "owner_name": "AlSanin", "photo_id": 94399103, "longitude": 4.6300975, "height": 60, "width": 60, "photo_title": "Arenes d'Arles. Arlles. Provence. France 2013.", "latitude": 43.678049, "owner_url": "http://www.panoramio.com/user/1610595", "photo_url": "http://www.panoramio.com/photo/94399103", "photo_file_url": "http://mw2.google.com/mw-panoramio/photos/square/94399103.jpg", "owner_id": 1610595}, {"upload_date": "23 December 2012", "owner_name": "Pat BARREAUX", "photo_id": 83738885, "longitude": 4.409294, "height": 60, "width": 60, "photo_title": "Chevaux dans le parc du Pont de Gau", "latitude": 43.492253, "owner_url": "http://www.panoramio.com/user/7327842", "photo_url": "http://www.panoramio.com/photo/83738885", "photo_file_url": "http://mw2.google.com/mw-panoramio/photos/square/83738885.jpg", "owner_id": 7327842}, {"upload_date": "10 October 2007", "owner_name": "Patrick Flament", "photo_id": 5211187, "longitude": 4.420023, "height": 60, "width": 60, "photo_title": "Saintes Marie de la Mer", "latitude": 43.451642, "owner_url": "http://www.panoramio.com/user/11971", "photo_url": "http://www.panoramio.com/photo/5211187", "photo_file_url": "http://mw2.google.com/mw-panoramio/photos/square/5211187.jpg", "owner_id": 11971}, {"upload_date": "26 September 2006", "owner_name": "ren\u00e9 baldinger - baldinger reisen ag, waedenswil/switzerland", "photo_id": 52649, "longitude": 4.390411, "height": 60, "width": 60, "photo_title": "Abendstimmung am Ufer der Petit Rh\u00f4ne ....", "latitude": 43.474598, "owner_url": "http://www.panoramio.com/user/7434", "photo_url": "http://www.panoramio.com/photo/52649", "photo_file_url": "http://mw2.google.com/mw-panoramio/photos/square/52649.jpg", "owner_id": 7434}, {"upload_date": "23 November 2012", "owner_name": "vinc107", "photo_id": 82479190, "longitude": 4.803514, "height": 60, "width": 60, "photo_title": "Montagnes sal\u00e9es", "latitude": 43.377542, "owner_url": "http://www.panoramio.com/user/3418712", "photo_url": "http://www.panoramio.com/photo/82479190", "photo_file_url": "http://mw2.google.com/mw-panoramio/photos/square/82479190.jpg", "owner_id": 3418712}, {"upload_date": "04 January 2008", "owner_name": "ren\u00e9 baldinger - baldinger reisen ag, waedenswil/switzerland", "photo_id": 6899677, "longitude": 4.398949, "height": 60, "width": 60, "photo_title": "Abendstimmung an der kleinen Rhone bei Les Stes Maries de la Mer .....", "latitude": 43.449406, "owner_url": "http://www.panoramio.com/user/7434", "photo_url": "http://www.panoramio.com/photo/6899677", "photo_file_url": "http://mw2.google.com/mw-panoramio/photos/square/6899677.jpg", "owner_id": 7434}, {"upload_date": "09 January 2011", "owner_name": "karim SAARI \u00a9", "photo_id": 46312594, "longitude": 4.779246, "height": 60, "width": 60, "photo_title": "\u2605 Arles, plage de pi\u00e9manson ~ Karim SAARI \u00a9", "latitude": 43.348081, "owner_url": "http://www.panoramio.com/user/4439171", "photo_url": "http://www.panoramio.com/photo/46312594", "photo_file_url": "http://mw2.google.com/mw-panoramio/photos/square/46312594.jpg", "owner_id": 4439171}, {"upload_date": "16 November 2009", "owner_name": "Jackie Gomez-Blasco", "photo_id": 28931865, "longitude": 4.416181999999992, "height": 60, "width": 60, "photo_title": "Plage des Saintes-maries de la Mer en automne", "latitude": 43.449632, "owner_url": "http://www.panoramio.com/user/836605", "photo_url": "http://www.panoramio.com/photo/28931865", "photo_file_url": "http://mw2.google.com/mw-panoramio/photos/square/28931865.jpg", "owner_id": 836605}, {"upload_date": "13 April 2009", "owner_name": "jhk", "photo_id": 21165334, "longitude": 4.616532, "height": 60, "width": 60, "photo_title": "The Pretorians", "latitude": 43.672512, "owner_url": "http://www.panoramio.com/user/374722", "photo_url": "http://www.panoramio.com/photo/21165334", "photo_file_url": "http://mw2.google.com/mw-panoramio/photos/square/21165334.jpg", "owner_id": 374722}, {"upload_date": "26 September 2007", "owner_name": "MHiller", "photo_id": 4918196, "longitude": 4.694595, "height": 60, "width": 60, "photo_title": "Camargue Impression", "latitude": 43.409038, "owner_url": "http://www.panoramio.com/user/721761", "photo_url": "http://www.panoramio.com/photo/4918196", "photo_file_url": "http://mw2.google.com/mw-panoramio/photos/square/4918196.jpg", "owner_id": 721761}, {"upload_date": "28 August 2010", "owner_name": "karim SAARI \u00a9", "photo_id": 39940028, "longitude": 4.760535, "height": 60, "width": 60, "photo_title": "\u2605 Arles, Plage de pi\u00e9manson ~ Karim SAARI \u00a9", "latitude": 43.350788, "owner_url": "http://www.panoramio.com/user/4439171", "photo_url": "http://www.panoramio.com/photo/39940028", "photo_file_url": "http://mw2.google.com/mw-panoramio/photos/square/39940028.jpg", "owner_id": 4439171}, {"upload_date": "20 April 2008", "owner_name": "christian caffin", "photo_id": 9531470, "longitude": 4.666378, "height": 60, "width": 60, "photo_title": "Abbaye de Montmajour ", "latitude": 43.706601, "owner_url": "http://www.panoramio.com/user/526416", "photo_url": "http://www.panoramio.com/photo/9531470", "photo_file_url": "http://mw2.google.com/mw-panoramio/photos/square/9531470.jpg", "owner_id": 526416}, {"upload_date": "03 December 2007", "owner_name": "jmp_salles", "photo_id": 6285690, "longitude": 4.807205, "height": 60, "width": 60, "photo_title": "Coucher de soleil \u00e0 Piemanson", "latitude": 43.373487, "owner_url": "http://www.panoramio.com/user/210524", "photo_url": "http://www.panoramio.com/photo/6285690", "photo_file_url": "http://mw2.google.com/mw-panoramio/photos/square/6285690.jpg", "owner_id": 210524}, {"upload_date": "07 November 2007", "owner_name": "Nicola e Pina Europa 2004", "photo_id": 5772977, "longitude": 4.424357, "height": 60, "width": 60, "photo_title": "Camargue", "latitude": 43.451984, "owner_url": "http://www.panoramio.com/user/1029886", "photo_url": "http://www.panoramio.com/photo/5772977", "photo_file_url": "http://mw2.google.com/mw-panoramio/photos/square/5772977.jpg", "owner_id": 1029886}, {"upload_date": "24 January 2007", "owner_name": "Vivi", "photo_id": 558389, "longitude": 4.631252, "height": 60, "width": 60, "photo_title": "Arles", "latitude": 43.680458, "owner_url": "http://www.panoramio.com/user/7712", "photo_url": "http://www.panoramio.com/photo/558389", "photo_file_url": "http://mw2.google.com/mw-panoramio/photos/square/558389.jpg", "owner_id": 7712}, {"upload_date": "02 December 2007", "owner_name": "jmp_salles", "photo_id": 6262085, "longitude": 4.640565, "height": 60, "width": 60, "photo_title": "coucher de soleil sur le Vaccares, filets de peche", "latitude": 43.529291, "owner_url": "http://www.panoramio.com/user/210524", "photo_url": "http://www.panoramio.com/photo/6262085", "photo_file_url": "http://mw2.google.com/mw-panoramio/photos/square/6262085.jpg", "owner_id": 210524}, {"upload_date": "20 April 2008", "owner_name": "christian caffin", "photo_id": 9536005, "longitude": 4.626038, "height": 60, "width": 60, "photo_title": "Statue de Fr\u00e9d\u00e9ric Mistral - Arles", "latitude": 43.676928, "owner_url": "http://www.panoramio.com/user/526416", "photo_url": "http://www.panoramio.com/photo/9536005", "photo_file_url": "http://mw2.google.com/mw-panoramio/photos/square/9536005.jpg", "owner_id": 526416}, {"upload_date": "02 December 2007", "owner_name": "jmp_salles", "photo_id": 6257827, "longitude": 4.633484, "height": 60, "width": 60, "photo_title": "coucher de soleil sur le Vaccares", "latitude": 43.541829, "owner_url": "http://www.panoramio.com/user/210524", "photo_url": "http://www.panoramio.com/photo/6257827", "photo_file_url": "http://mw2.google.com/mw-panoramio/photos/square/6257827.jpg", "owner_id": 210524}, {"upload_date": "23 May 2008", "owner_name": "zilvana", "photo_id": 10521810, "longitude": 4.715881, "height": 60, "width": 60, "photo_title": "Camargue, Saline de Giraud", "latitude": 43.399061, "owner_url": "http://www.panoramio.com/user/1773472", "photo_url": "http://www.panoramio.com/photo/10521810", "photo_file_url": "http://mw2.google.com/mw-panoramio/photos/square/10521810.jpg", "owner_id": 1773472}, {"upload_date": "23 July 2007", "owner_name": "Paul Nechkova-Raven", "photo_id": 3480502, "longitude": 4.625534, "height": 60, "width": 60, "photo_title": "Vincent was hier", "latitude": 43.675814, "owner_url": "http://www.panoramio.com/user/122189", "photo_url": "http://www.panoramio.com/photo/3480502", "photo_file_url": "http://mw2.google.com/mw-panoramio/photos/square/3480502.jpg", "owner_id": 122189}, {"upload_date": "20 April 2008", "owner_name": "ch' caf'", "photo_id": 9532915, "longitude": 4.40496, "height": 60, "width": 60, "photo_title": "Maison camarguaise", "latitude": 43.482477, "owner_url": "http://www.panoramio.com/user/1308510", "photo_url": "http://www.panoramio.com/photo/9532915", "photo_file_url": "http://mw2.google.com/mw-panoramio/photos/square/9532915.jpg", "owner_id": 1308510}, {"upload_date": "19 January 2007", "owner_name": "Vivi", "photo_id": 493338, "longitude": 4.753078, "height": 60, "width": 60, "photo_title": "Les Salins de Giraud", "latitude": 43.40253, "owner_url": "http://www.panoramio.com/user/7712", "photo_url": "http://www.panoramio.com/photo/493338", "photo_file_url": "http://mw2.google.com/mw-panoramio/photos/square/493338.jpg", "owner_id": 7712}, {"upload_date": "05 December 2007", "owner_name": "Vivi", "photo_id": 6311112, "longitude": 4.746609, "height": 60, "width": 60, "photo_title": "Salin de Giraud", "latitude": 43.351022, "owner_url": "http://www.panoramio.com/user/7712", "photo_url": "http://www.panoramio.com/photo/6311112", "photo_file_url": "http://mw2.google.com/mw-panoramio/photos/square/6311112.jpg", "owner_id": 7712}, {"upload_date": "07 November 2007", "owner_name": "Nicola e Pina Europa 2004", "photo_id": 5773029, "longitude": 4.429443, "height": 60, "width": 60, "photo_title": "Saintes-Maries-de-la-Mer, Camargue", "latitude": 43.450427, "owner_url": "http://www.panoramio.com/user/1029886", "photo_url": "http://www.panoramio.com/photo/5773029", "photo_file_url": "http://mw2.google.com/mw-panoramio/photos/square/5773029.jpg", "owner_id": 1029886}, {"upload_date": "08 May 2007", "owner_name": "David Thyberg", "photo_id": 2137560, "longitude": 4.7810916666667, "height": 60, "width": 60, "photo_title": "Salt marshes, Camargue", "latitude": 43.389272222222, "owner_url": "http://www.panoramio.com/user/70471", "photo_url": "http://www.panoramio.com/photo/2137560", "photo_file_url": "http://mw2.google.com/mw-panoramio/photos/square/2137560.jpg", "owner_id": 70471}, {"upload_date": "06 January 2007", "owner_name": "thomas k", "photo_id": 317292, "longitude": 4.439335, "height": 60, "width": 60, "photo_title": "Camarque", "latitude": 43.457592, "owner_url": "http://www.panoramio.com/user/65099", "photo_url": "http://www.panoramio.com/photo/317292", "photo_file_url": "http://mw2.google.com/mw-panoramio/photos/square/317292.jpg", "owner_id": 65099}, {"upload_date": "20 August 2011", "owner_name": "Marinella Rusmini", "photo_id": 57650764, "place_id": "5a2036a3ab19b7a23a39bcba55681f09d3f363a2", "longitude": 4.405772, "height": 60, "width": 60, "photo_title": "CAMARGUE - PONT DE GAU -  PARCO ORNITOLOGICO- Delta del fiume Rodano -Lagune di acqua salata", "latitude": 43.488728, "owner_url": "http://www.panoramio.com/user/5510668", "photo_url": "http://www.panoramio.com/photo/57650764", "photo_file_url": "http://mw2.google.com/mw-panoramio/photos/square/57650764.jpg", "owner_id": 5510668}, {"upload_date": "15 January 2013", "owner_name": "(( Nelly ))", "photo_id": 84768781, "longitude": 4.407921, "height": 60, "width": 60, "photo_title": "Love on a summer day", "latitude": 43.553151, "owner_url": "http://www.panoramio.com/user/4186738", "photo_url": "http://www.panoramio.com/photo/84768781", "photo_file_url": "http://mw2.google.com/mw-panoramio/photos/square/84768781.jpg", "owner_id": 4186738}, {"upload_date": "17 November 2007", "owner_name": "SvenP", "photo_id": 5971635, "longitude": 4.4276333333333, "height": 60, "width": 60, "photo_title": "Saintes Maries-de-la-Mer - Avenue d'Arles", "latitude": 43.454019444444, "owner_url": "http://www.panoramio.com/user/1019894", "photo_url": "http://www.panoramio.com/photo/5971635", "photo_file_url": "http://mw2.google.com/mw-panoramio/photos/square/5971635.jpg", "owner_id": 1019894}, {"upload_date": "26 July 2008", "owner_name": "J-F GHIRARDI 13/2A", "photo_id": 12484978, "longitude": 4.56797, "height": 60, "width": 60, "photo_title": "  AMER de 1865 vestige(appel\u00e9 la ch\u00eavre) @ J-F", "latitude": 43.373674, "owner_url": "http://www.panoramio.com/user/305736", "photo_url": "http://www.panoramio.com/photo/12484978", "photo_file_url": "http://mw2.google.com/mw-panoramio/photos/square/12484978.jpg", "owner_id": 305736}, {"upload_date": "30 April 2009", "owner_name": "Lucien ruth", "photo_id": 21807430, "longitude": 4.803987, "height": 60, "width": 60, "photo_title": "Port Saint Louis du Rhone (La tour St Louis - 1737)", "latitude": 43.385277, "owner_url": "http://www.panoramio.com/user/2300179", "photo_url": "http://www.panoramio.com/photo/21807430", "photo_file_url": "http://mw2.google.com/mw-panoramio/photos/square/21807430.jpg", "owner_id": 2300179}, {"upload_date": "08 March 2007", "owner_name": "Philippe Stoop", "photo_id": 1226822, "longitude": 4.5030212402344, "height": 60, "width": 60, "photo_title": "L'\u00e9tang de Vaccarr\u00e8s pr\u00e8s du Domaine de M\u00e9janes", "latitude": 43.562232602622, "owner_url": "http://www.panoramio.com/user/78506", "photo_url": "http://www.panoramio.com/photo/1226822", "photo_file_url": "http://mw2.google.com/mw-panoramio/photos/square/1226822.jpg", "owner_id": 78506}, {"upload_date": "01 June 2007", "owner_name": "leo1383", "photo_id": 2502815, "longitude": 4.427018, "height": 60, "width": 60, "photo_title": "Saintes Marie de la Mer  1994  Arenas...\u00a9 by leo1383", "latitude": 43.449679, "owner_url": "http://www.panoramio.com/user/215332", "photo_url": "http://www.panoramio.com/photo/2502815", "photo_file_url": "http://mw2.google.com/mw-panoramio/photos/square/2502815.jpg", "owner_id": 215332}, {"upload_date": "16 October 2012", "owner_name": "leonard huart", "photo_id": 80661343, "longitude": 4.406469, "height": 60, "width": 60, "photo_title": "camargue", "latitude": 43.498236, "owner_url": "http://www.panoramio.com/user/2167835", "photo_url": "http://www.panoramio.com/photo/80661343", "photo_file_url": "http://mw2.google.com/mw-panoramio/photos/square/80661343.jpg", "owner_id": 2167835}, {"upload_date": "20 June 2008", "owner_name": "J-F GHIRARDI 13/2A", "photo_id": 11384771, "longitude": 4.832783, "height": 60, "width": 60, "photo_title": "CHALUTIER retour de p\u00eache @J-F", "latitude": 43.386665, "owner_url": "http://www.panoramio.com/user/305736", "photo_url": "http://www.panoramio.com/photo/11384771", "photo_file_url": "http://mw2.google.com/mw-panoramio/photos/square/11384771.jpg", "owner_id": 305736}, {"upload_date": "09 May 2009", "owner_name": "Pit Aretz", "photo_id": 22162581, "longitude": 4.806175, "height": 60, "width": 60, "photo_title": "Etang de Grande Palun: Flamantes", "latitude": 43.343844, "owner_url": "http://www.panoramio.com/user/248335", "photo_url": "http://www.panoramio.com/photo/22162581", "photo_file_url": "http://mw2.google.com/mw-panoramio/photos/square/22162581.jpg", "owner_id": 248335}, {"upload_date": "25 August 2007", "owner_name": "michael habla", "photo_id": 4167085, "longitude": 4.432334, "height": 60, "width": 60, "photo_title": "le galoubet / les saintes-maries-de-la-mer", "latitude": 43.456525, "owner_url": "http://www.panoramio.com/user/90373", "photo_url": "http://www.panoramio.com/photo/4167085", "photo_file_url": "http://mw2.google.com/mw-panoramio/photos/square/4167085.jpg", "owner_id": 90373}, {"upload_date": "02 January 2008", "owner_name": "Pit Aretz", "photo_id": 6844140, "longitude": 4.790382, "height": 60, "width": 60, "photo_title": "Le Paradou - Rocher de la P\u00e8ne (Tours de Castillon)", "latitude": 43.705019, "owner_url": "http://www.panoramio.com/user/248335", "photo_url": "http://www.panoramio.com/photo/6844140", "photo_file_url": "http://mw2.google.com/mw-panoramio/photos/square/6844140.jpg", "owner_id": 248335}, {"upload_date": "22 April 2009", "owner_name": "MBagyinszky", "photo_id": 21497281, "longitude": 4.6139966699967, "height": 60, "width": 60, "photo_title": "Arles Centre", "latitude": 43.67788, "owner_url": "http://www.panoramio.com/user/17622", "photo_url": "http://www.panoramio.com/photo/21497281", "photo_file_url": "http://mw2.google.com/mw-panoramio/photos/square/21497281.jpg", "owner_id": 17622}, {"upload_date": "10 January 2007", "owner_name": "Giancarlo Ticozzi", "photo_id": 374836, "longitude": 4.424744, "height": 60, "width": 60, "photo_title": "La Camargue - Saintes Maries de la Mer", "latitude": 43.465628, "owner_url": "http://www.panoramio.com/user/35292", "photo_url": "http://www.panoramio.com/photo/374836", "photo_file_url": "http://mw2.google.com/mw-panoramio/photos/square/374836.jpg", "owner_id": 35292}, {"upload_date": "02 December 2007", "owner_name": "jmp_salles", "photo_id": 6257891, "longitude": 4.782829, "height": 60, "width": 60, "photo_title": "vol de flamands roses et zone portuaire de Fos", "latitude": 43.352645, "owner_url": "http://www.panoramio.com/user/210524", "photo_url": "http://www.panoramio.com/photo/6257891", "photo_file_url": "http://mw2.google.com/mw-panoramio/photos/square/6257891.jpg", "owner_id": 210524}, {"upload_date": "10 January 2007", "owner_name": "Giancarlo Ticozzi", "photo_id": 374868, "longitude": 4.426117, "height": 60, "width": 60, "photo_title": "La Camargue - Saintes Maries de la Mer", "latitude": 43.554022, "owner_url": "http://www.panoramio.com/user/35292", "photo_url": "http://www.panoramio.com/photo/374868", "photo_file_url": "http://mw2.google.com/mw-panoramio/photos/square/374868.jpg", "owner_id": 35292}, {"upload_date": "30 April 2009", "owner_name": "Lucien ruth", "photo_id": 21807573, "longitude": 4.832869, "height": 60, "width": 60, "photo_title": "Port Saint Louis du Rhone, le port Napol\u00e9on", "latitude": 43.375982, "owner_url": "http://www.panoramio.com/user/2300179", "photo_url": "http://www.panoramio.com/photo/21807573", "photo_file_url": "http://mw2.google.com/mw-panoramio/photos/square/21807573.jpg", "owner_id": 2300179}, {"upload_date": "04 January 2009", "owner_name": "Jackie Gomez-Blasco", "photo_id": 17494500, "longitude": 4.434099, "height": 60, "width": 60, "photo_title": "A l'\u00e9cluse de Saint-Gilles, le Petit Rh\u00f4ne. Partage de 2 r\u00e9gions.", "latitude": 43.64474, "owner_url": "http://www.panoramio.com/user/836605", "photo_url": "http://www.panoramio.com/photo/17494500", "photo_file_url": "http://mw2.google.com/mw-panoramio/photos/square/17494500.jpg", "owner_id": 836605}, {"upload_date": "04 January 2009", "owner_name": "Jackie Gomez-Blasco", "photo_id": 17494860, "longitude": 4.371228, "height": 60, "width": 60, "photo_title": "Rizi\u00e8res en hiver...riz de Camargue!", "latitude": 43.552693, "owner_url": "http://www.panoramio.com/user/836605", "photo_url": "http://www.panoramio.com/photo/17494860", "photo_file_url": "http://mw2.google.com/mw-panoramio/photos/square/17494860.jpg", "owner_id": 836605}, {"upload_date": "02 December 2007", "owner_name": "jmp_salles", "photo_id": 6257755, "longitude": 4.844799, "height": 60, "width": 60, "photo_title": "plaine de la Crau, tas de galets", "latitude": 43.56385, "owner_url": "http://www.panoramio.com/user/210524", "photo_url": "http://www.panoramio.com/photo/6257755", "photo_file_url": "http://mw2.google.com/mw-panoramio/photos/square/6257755.jpg", "owner_id": 210524}, {"upload_date": "17 February 2007", "owner_name": "Giovanni Mirgovi", "photo_id": 861496, "longitude": 4.490318, "height": 60, "width": 60, "photo_title": "1978, Camargue", "latitude": 43.459025, "owner_url": "http://www.panoramio.com/user/129979", "photo_url": "http://www.panoramio.com/photo/861496", "photo_file_url": "http://mw2.google.com/mw-panoramio/photos/square/861496.jpg", "owner_id": 129979}, {"upload_date": "02 November 2007", "owner_name": "J-F GHIRARDI 13/2A", "photo_id": 5702899, "longitude": 4.676877, "height": 60, "width": 60, "photo_title": " ruine du mas de  tourvieille @ J-F", "latitude": 43.410952, "owner_url": "http://www.panoramio.com/user/305736", "photo_url": "http://www.panoramio.com/photo/5702899", "photo_file_url": "http://mw2.google.com/mw-panoramio/photos/square/5702899.jpg", "owner_id": 305736}, {"upload_date": "04 February 2008", "owner_name": "Falk Preusche", "photo_id": 7575850, "longitude": 4.790039, "height": 60, "width": 60, "photo_title": "Seeangeln", "latitude": 43.346154, "owner_url": "http://www.panoramio.com/user/30223", "photo_url": "http://www.panoramio.com/photo/7575850", "photo_file_url": "http://mw2.google.com/mw-panoramio/photos/square/7575850.jpg", "owner_id": 30223}, {"upload_date": "07 November 2007", "owner_name": "Nicola e Pina Europa 2004", "photo_id": 5772943, "place_id": "803e196925c2cbc0b23c14d0ace287e8d726c856", "longitude": 4.41011, "height": 60, "width": 60, "photo_title": "Ch\u00e2teau d'Avignon, Saintes-Maries-de-la-Mer, France.", "latitude": 43.558252, "owner_url": "http://www.panoramio.com/user/1029886", "photo_url": "http://www.panoramio.com/photo/5772943", "photo_file_url": "http://mw2.google.com/mw-panoramio/photos/square/5772943.jpg", "owner_id": 1029886}, {"upload_date": "08 November 2009", "owner_name": "lorcas", "photo_id": 28657669, "longitude": 4.619579, "height": 60, "width": 60, "photo_title": "Camargue - Lever de soleil sur l'\u00e9tang du Fangassier (1)", "latitude": 43.454414, "owner_url": "http://www.panoramio.com/user/235690", "photo_url": "http://www.panoramio.com/photo/28657669", "photo_file_url": "http://mw2.google.com/mw-panoramio/photos/square/28657669.jpg", "owner_id": 235690}, {"upload_date": "18 December 2011", "owner_name": "eva lewitus", "photo_id": 63670131, "place_id": "3b7c94f5701712060d0d4376b67d8436f0bab7fd", "longitude": 4.550582999999989, "height": 60, "width": 60, "photo_title": "Flamingoes", "latitude": 43.505584, "owner_url": "http://www.panoramio.com/user/4600021", "photo_url": "http://www.panoramio.com/photo/63670131", "photo_file_url": "http://mw2.google.com/mw-panoramio/photos/square/63670131.jpg", "owner_id": 4600021}, {"upload_date": "17 May 2010", "owner_name": "J-F GHIRARDI 13/2A", "photo_id": 35622348, "longitude": 4.886169, "height": 60, "width": 60, "photo_title": "bouffade de Mistral   (2007) @ J-F", "latitude": 43.407542, "owner_url": "http://www.panoramio.com/user/305736", "photo_url": "http://www.panoramio.com/photo/35622348", "photo_file_url": "http://mw2.google.com/mw-panoramio/photos/square/35622348.jpg", "owner_id": 305736}, {"upload_date": "02 December 2007", "owner_name": "jmp_salles", "photo_id": 6257834, "longitude": 4.88308, "height": 60, "width": 60, "photo_title": "plaine de la Crau, floraison de paquerettes", "latitude": 43.52117, "owner_url": "http://www.panoramio.com/user/210524", "photo_url": "http://www.panoramio.com/photo/6257834", "photo_file_url": "http://mw2.google.com/mw-panoramio/photos/square/6257834.jpg", "owner_id": 210524}, {"upload_date": "20 March 2008", "owner_name": "JM Alves", "photo_id": 8675427, "longitude": 4.491391, "height": 60, "width": 60, "photo_title": "Camargue", "latitude": 43.701761, "owner_url": "http://www.panoramio.com/user/162675", "photo_url": "http://www.panoramio.com/photo/8675427", "photo_file_url": "http://mw2.google.com/mw-panoramio/photos/square/8675427.jpg", "owner_id": 162675}, {"upload_date": "02 December 2007", "owner_name": "jmp_salles", "photo_id": 6257759, "longitude": 4.865227, "height": 60, "width": 60, "photo_title": "plaine de la Crau, bergerie", "latitude": 43.563445, "owner_url": "http://www.panoramio.com/user/210524", "photo_url": "http://www.panoramio.com/photo/6257759", "photo_file_url": "http://mw2.google.com/mw-panoramio/photos/square/6257759.jpg", "owner_id": 210524}, {"upload_date": "06 May 2008", "owner_name": "stefano.incerpi", "photo_id": 9968866, "longitude": 4.401612, "height": 60, "width": 60, "photo_title": "Per qualche souvenir", "latitude": 43.502391, "owner_url": "http://www.panoramio.com/user/686032", "photo_url": "http://www.panoramio.com/photo/9968866", "photo_file_url": "http://mw2.google.com/mw-panoramio/photos/square/9968866.jpg", "owner_id": 686032}, {"upload_date": "27 November 2008", "owner_name": "Patrick Flament", "photo_id": 16349821, "longitude": 4.685669, "height": 60, "width": 60, "photo_title": "Nuages en Camargue", "latitude": 43.524655, "owner_url": "http://www.panoramio.com/user/11971", "photo_url": "http://www.panoramio.com/photo/16349821", "photo_file_url": "http://mw2.google.com/mw-panoramio/photos/square/16349821.jpg", "owner_id": 11971}, {"upload_date": "06 August 2008", "owner_name": "Ben de Graaf Bierbrauwer", "photo_id": 12880541, "longitude": 4.284689, "height": 60, "width": 60, "photo_title": "Bij Vauvert in de Camargue", "latitude": 43.66365, "owner_url": "http://www.panoramio.com/user/1138231", "photo_url": "http://www.panoramio.com/photo/12880541", "photo_file_url": "http://mw2.google.com/mw-panoramio/photos/square/12880541.jpg", "owner_id": 1138231}, {"upload_date": "02 June 2008", "owner_name": "seiaprile", "photo_id": 10849154, "longitude": 4.546537, "height": 60, "width": 60, "photo_title": "Camargue", "latitude": 43.572307, "owner_url": "http://www.panoramio.com/user/1235002", "photo_url": "http://www.panoramio.com/photo/10849154", "photo_file_url": "http://mw2.google.com/mw-panoramio/photos/square/10849154.jpg", "owner_id": 1235002}, {"upload_date": "25 February 2008", "owner_name": "J-F GHIRARDI 13/2A", "photo_id": 8104925, "longitude": 4.869497, "height": 60, "width": 60, "photo_title": "FEU DE LA JETEE ST LOUIS @ J-F", "latitude": 43.391764, "owner_url": "http://www.panoramio.com/user/305736", "photo_url": "http://www.panoramio.com/photo/8104925", "photo_file_url": "http://mw2.google.com/mw-panoramio/photos/square/8104925.jpg", "owner_id": 305736}, {"upload_date": "03 January 2009", "owner_name": "\u00a9 P. Amet", "photo_id": 17420476, "longitude": 4.617434, "height": 60, "width": 60, "photo_title": "Taureau de Camargue", "latitude": 43.572587, "owner_url": "http://www.panoramio.com/user/269255", "photo_url": "http://www.panoramio.com/photo/17420476", "photo_file_url": "http://mw2.google.com/mw-panoramio/photos/square/17420476.jpg", "owner_id": 269255}, {"upload_date": "21 August 2008", "owner_name": "Ben de Graaf Bierbrauwer", "photo_id": 13335794, "longitude": 4.288101, "height": 60, "width": 60, "photo_title": "In de Camargue", "latitude": 43.635951, "owner_url": "http://www.panoramio.com/user/1138231", "photo_url": "http://www.panoramio.com/photo/13335794", "photo_file_url": "http://mw2.google.com/mw-panoramio/photos/square/13335794.jpg", "owner_id": 1138231}, {"upload_date": "06 August 2008", "owner_name": "Ben de Graaf Bierbrauwer", "photo_id": 12880527, "longitude": 4.315201999999999, "height": 60, "width": 60, "photo_title": "Mas Sainte-C\u00e9cile", "latitude": 43.570799, "owner_url": "http://www.panoramio.com/user/1138231", "photo_url": "http://www.panoramio.com/photo/12880527", "photo_file_url": "http://mw2.google.com/mw-panoramio/photos/square/12880527.jpg", "owner_id": 1138231}, {"upload_date": "19 February 2009", "owner_name": "corwin13", "photo_id": 19167029, "longitude": 4.631338, "height": 60, "width": 60, "photo_title": ">Camarguais", "latitude": 43.505484, "owner_url": "http://www.panoramio.com/user/8603", "photo_url": "http://www.panoramio.com/photo/19167029", "photo_file_url": "http://mw2.google.com/mw-panoramio/photos/square/19167029.jpg", "owner_id": 8603}, {"upload_date": "15 May 2007", "owner_name": "Claude Roussel-Dupr\u00e9", "photo_id": 2228636, "longitude": 4.747404999999986, "height": 60, "width": 60, "photo_title": "France Camargue Bacs de Barcarin", "latitude": 43.420104, "owner_url": "http://www.panoramio.com/user/165671", "photo_url": "http://www.panoramio.com/photo/2228636", "photo_file_url": "http://mw2.google.com/mw-panoramio/photos/square/2228636.jpg", "owner_id": 165671}, {"upload_date": "15 July 2008", "owner_name": "Vincentn", "photo_id": 12129327, "longitude": 4.751866, "height": 60, "width": 60, "photo_title": "Les marais du Vigueirat - Conservatoire du Littoral", "latitude": 43.537031, "owner_url": "http://www.panoramio.com/user/325252", "photo_url": "http://www.panoramio.com/photo/12129327", "photo_file_url": "http://mw2.google.com/mw-panoramio/photos/square/12129327.jpg", "owner_id": 325252}, {"upload_date": "17 November 2007", "owner_name": "SvenP", "photo_id": 5963420, "longitude": 4.8730694444444, "height": 60, "width": 60, "photo_title": "The N568 - Straight and boring ..", "latitude": 43.497486111111, "owner_url": "http://www.panoramio.com/user/1019894", "photo_url": "http://www.panoramio.com/photo/5963420", "photo_file_url": "http://mw2.google.com/mw-panoramio/photos/square/5963420.jpg", "owner_id": 1019894}, {"upload_date": "22 June 2007", "owner_name": "Javier Saiz Barrio", "photo_id": 2882983, "longitude": 4.606984, "height": 60, "width": 60, "photo_title": "El R\u00f3dano en la Camargue", "latitude": 43.635174, "owner_url": "http://www.panoramio.com/user/580248", "photo_url": "http://www.panoramio.com/photo/2882983", "photo_file_url": "http://mw2.google.com/mw-panoramio/photos/square/2882983.jpg", "owner_id": 580248}, {"upload_date": "17 June 2009", "owner_name": "\u00a9marica ferrentino", "photo_id": 23551955, "longitude": 4.33342, "height": 60, "width": 60, "photo_title": "il cavallo della Camargue", "latitude": 43.550539, "owner_url": "http://www.panoramio.com/user/789846", "photo_url": "http://www.panoramio.com/photo/23551955", "photo_file_url": "http://mw2.google.com/mw-panoramio/photos/square/23551955.jpg", "owner_id": 789846}, {"upload_date": "17 August 2008", "owner_name": "emilmaga", "photo_id": 13205963, "longitude": 4.850636, "height": 60, "width": 60, "photo_title": "Flamingo", "latitude": 43.373549, "owner_url": "http://www.panoramio.com/user/460839", "photo_url": "http://www.panoramio.com/photo/13205963", "photo_file_url": "http://mw2.google.com/mw-panoramio/photos/square/13205963.jpg", "owner_id": 460839}, {"upload_date": "18 June 2009", "owner_name": "ohao", "photo_id": 23589705, "longitude": 4.706955, "height": 60, "width": 60, "photo_title": "riz en herbe !", "latitude": 43.499507, "owner_url": "http://www.panoramio.com/user/235130", "photo_url": "http://www.panoramio.com/photo/23589705", "photo_file_url": "http://mw2.google.com/mw-panoramio/photos/square/23589705.jpg", "owner_id": 235130}, {"upload_date": "05 May 2010", "owner_name": "J-F GHIRARDI 13/2A", "photo_id": 35125515, "longitude": 4.775318999999996, "height": 60, "width": 60, "photo_title": "EOLIEN @ JF", "latitude": 43.436872, "owner_url": "http://www.panoramio.com/user/305736", "photo_url": "http://www.panoramio.com/photo/35125515", "photo_file_url": "http://mw2.google.com/mw-panoramio/photos/square/35125515.jpg", "owner_id": 305736}, {"upload_date": "30 April 2009", "owner_name": "Lucien ruth", "photo_id": 21807464, "longitude": 4.829521, "height": 60, "width": 60, "photo_title": "Port Saint Louis du Rhone, les mar\u00e9cages ", "latitude": 43.373112, "owner_url": "http://www.panoramio.com/user/2300179", "photo_url": "http://www.panoramio.com/photo/21807464", "photo_file_url": "http://mw2.google.com/mw-panoramio/photos/square/21807464.jpg", "owner_id": 2300179}, {"upload_date": "18 November 2007", "owner_name": "SvenP", "photo_id": 5980828, "longitude": 4.2362777777778, "height": 60, "width": 60, "photo_title": "Maisons dans le D58", "latitude": 43.583383333333, "owner_url": "http://www.panoramio.com/user/1019894", "photo_url": "http://www.panoramio.com/photo/5980828", "photo_file_url": "http://mw2.google.com/mw-panoramio/photos/square/5980828.jpg", "owner_id": 1019894}, {"upload_date": "28 May 2008", "owner_name": "Blue Cap", "photo_id": 10700226, "longitude": 4.394188, "height": 60, "width": 60, "photo_title": "Carmaque", "latitude": 43.468618, "owner_url": "http://www.panoramio.com/user/14449", "photo_url": "http://www.panoramio.com/photo/10700226", "photo_file_url": "http://mw2.google.com/mw-panoramio/photos/square/10700226.jpg", "owner_id": 14449}, {"upload_date": "26 March 2008", "owner_name": "JLH974", "photo_id": 8865996, "longitude": 4.634219, "height": 60, "width": 60, "photo_title": "Arles - Les Alyscamps", "latitude": 43.672675, "owner_url": "http://www.panoramio.com/user/1100857", "photo_url": "http://www.panoramio.com/photo/8865996", "photo_file_url": "http://mw2.google.com/mw-panoramio/photos/square/8865996.jpg", "owner_id": 1100857}, {"upload_date": "10 March 2008", "owner_name": "JM Alves", "photo_id": 8436212, "longitude": 4.429979, "height": 60, "width": 60, "photo_title": "Saintes-Maries-de-la-Mer", "latitude": 43.451712, "owner_url": "http://www.panoramio.com/user/162675", "photo_url": "http://www.panoramio.com/photo/8436212", "photo_file_url": "http://mw2.google.com/mw-panoramio/photos/square/8436212.jpg", "owner_id": 162675}, {"upload_date": "02 December 2007", "owner_name": "jmp_salles", "photo_id": 6257824, "longitude": 4.783859, "height": 60, "width": 60, "photo_title": "plage de Piemanson", "latitude": 43.346903, "owner_url": "http://www.panoramio.com/user/210524", "photo_url": "http://www.panoramio.com/photo/6257824", "photo_file_url": "http://mw2.google.com/mw-panoramio/photos/square/6257824.jpg", "owner_id": 210524}, {"upload_date": "03 May 2007", "owner_name": "diorama96", "photo_id": 2050274, "longitude": 4.629021, "height": 60, "width": 60, "photo_title": "Petite rue d'Arles", "latitude": 43.679232, "owner_url": "http://www.panoramio.com/user/431880", "photo_url": "http://www.panoramio.com/photo/2050274", "photo_file_url": "http://mw2.google.com/mw-panoramio/photos/square/2050274.jpg", "owner_id": 431880}, {"upload_date": "01 June 2007", "owner_name": "leo1383", "photo_id": 2502787, "longitude": 4.464054107666, "height": 60, "width": 60, "photo_title": "Camargue 1994...\u00a9 by leo1383", "latitude": 43.474349016094, "owner_url": "http://www.panoramio.com/user/215332", "photo_url": "http://www.panoramio.com/photo/2502787", "photo_file_url": "http://mw2.google.com/mw-panoramio/photos/square/2502787.jpg", "owner_id": 215332}, {"upload_date": "13 June 2007", "owner_name": "giulio colla", "photo_id": 2735638, "longitude": 4.396591, "height": 60, "width": 60, "photo_title": "Tramonto alle foci del Rodano - Camargue", "latitude": 43.45242, "owner_url": "http://www.panoramio.com/user/158718", "photo_url": "http://www.panoramio.com/photo/2735638", "photo_file_url": "http://mw2.google.com/mw-panoramio/photos/square/2735638.jpg", "owner_id": 158718}, {"upload_date": "01 June 2007", "owner_name": "leo1383", "photo_id": 2502797, "longitude": 4.4219970703125, "height": 60, "width": 60, "photo_title": "Camargue 1994...\u00a9 by leo1383", "latitude": 43.477836921692, "owner_url": "http://www.panoramio.com/user/215332", "photo_url": "http://www.panoramio.com/photo/2502797", "photo_file_url": "http://mw2.google.com/mw-panoramio/photos/square/2502797.jpg", "owner_id": 215332}, {"upload_date": "25 August 2007", "owner_name": "michael habla", "photo_id": 4167085, "longitude": 4.432334, "height": 60, "width": 60, "photo_title": "le galoubet / les saintes-maries-de-la-mer", "latitude": 43.456525, "owner_url": "http://www.panoramio.com/user/90373", "photo_url": "http://www.panoramio.com/photo/4167085", "photo_file_url": "http://mw2.google.com/mw-panoramio/photos/square/4167085.jpg", "owner_id": 90373}, {"upload_date": "22 April 2009", "owner_name": "MBagyinszky", "photo_id": 21497281, "longitude": 4.6139966699967, "height": 60, "width": 60, "photo_title": "Arles Centre", "latitude": 43.67788, "owner_url": "http://www.panoramio.com/user/17622", "photo_url": "http://www.panoramio.com/photo/21497281", "photo_file_url": "http://mw2.google.com/mw-panoramio/photos/square/21497281.jpg", "owner_id": 17622}, {"upload_date": "30 November 2012", "owner_name": "loamvalley", "photo_id": 82810664, "longitude": 4.496491, "height": 60, "width": 60, "photo_title": "In den Weiten der Camargue/In the Vastness of the Camargue", "latitude": 43.460364, "owner_url": "http://www.panoramio.com/user/4375335", "photo_url": "http://www.panoramio.com/photo/82810664", "photo_file_url": "http://mw2.google.com/mw-panoramio/photos/square/82810664.jpg", "owner_id": 4375335}, {"upload_date": "14 May 2011", "owner_name": "Angelo Ferraris", "photo_id": 52670711, "longitude": 4.584045, "height": 60, "width": 60, "photo_title": "Flamants roses en Camargue", "latitude": 43.444943, "owner_url": "http://www.panoramio.com/user/715162", "photo_url": "http://www.panoramio.com/photo/52670711", "photo_file_url": "http://mw2.google.com/mw-panoramio/photos/square/52670711.jpg", "owner_id": 715162}, {"upload_date": "15 September 2009", "owner_name": "fil. \"no views \"", "photo_id": 26857084, "longitude": 4.416161, "height": 60, "width": 60, "photo_title": "C'est par l\u00e0...", "latitude": 43.468868, "owner_url": "http://www.panoramio.com/user/742092", "photo_url": "http://www.panoramio.com/photo/26857084", "photo_file_url": "http://mw2.google.com/mw-panoramio/photos/square/26857084.jpg", "owner_id": 742092}, {"upload_date": "23 July 2008", "owner_name": "Francesco Favalesi", "photo_id": 12420665, "place_id": "3b7c94f5701712060d0d4376b67d8436f0bab7fd", "longitude": 4.623613, "height": 60, "width": 60, "photo_title": "Camargue - My point of view", "latitude": 43.460084, "owner_url": "http://www.panoramio.com/user/22921", "photo_url": "http://www.panoramio.com/photo/12420665", "photo_file_url": "http://mw2.google.com/mw-panoramio/photos/square/12420665.jpg", "owner_id": 22921}, {"upload_date": "18 March 2008", "owner_name": "JM Alves", "photo_id": 8616314, "longitude": 4.494781, "height": 60, "width": 60, "photo_title": "Camargue", "latitude": 43.620916, "owner_url": "http://www.panoramio.com/user/162675", "photo_url": "http://www.panoramio.com/photo/8616314", "photo_file_url": "http://mw2.google.com/mw-panoramio/photos/square/8616314.jpg", "owner_id": 162675}, {"upload_date": "15 July 2008", "owner_name": "clover_eli", "photo_id": 12137334, "longitude": 4.407578, "height": 60, "width": 60, "photo_title": "Camargue", "latitude": 43.468868, "owner_url": "http://www.panoramio.com/user/2007079", "photo_url": "http://www.panoramio.com/photo/12137334", "photo_file_url": "http://mw2.google.com/mw-panoramio/photos/square/12137334.jpg", "owner_id": 2007079}, {"upload_date": "29 March 2011", "owner_name": "\u00a9 P. Amet", "photo_id": 50206442, "longitude": 4.592671, "height": 60, "width": 60, "photo_title": "Saintes-Maries-de-La-Mer, Camargue, Bouches du Rh\u00f4ne, Provence-Alpes-C\u00f4te d'Azur, France", "latitude": 43.565691, "owner_url": "http://www.panoramio.com/user/269255", "photo_url": "http://www.panoramio.com/photo/50206442", "photo_file_url": "http://mw2.google.com/mw-panoramio/photos/square/50206442.jpg", "owner_id": 269255}, {"upload_date": "15 February 2008", "owner_name": "Concepcion Becerril", "photo_id": 7841584, "longitude": 4.825058, "height": 60, "width": 60, "photo_title": "Puesta de sol en la Camarga", "latitude": 43.378103, "owner_url": "http://www.panoramio.com/user/1243392", "photo_url": "http://www.panoramio.com/photo/7841584", "photo_file_url": "http://mw2.google.com/mw-panoramio/photos/square/7841584.jpg", "owner_id": 1243392}, {"upload_date": "24 October 2007", "owner_name": "Mahy jean", "photo_id": 5510760, "longitude": 4.462852, "height": 60, "width": 60, "photo_title": "Couch\u00e9 de soleil sur les \u00e9tangs de Vaccar\u00e9s", "latitude": 43.510713, "owner_url": "http://www.panoramio.com/user/934762", "photo_url": "http://www.panoramio.com/photo/5510760", "photo_file_url": "http://mw2.google.com/mw-panoramio/photos/square/5510760.jpg", "owner_id": 934762}, {"upload_date": "03 February 2008", "owner_name": "Naru Kenji", "photo_id": 7554078, "longitude": 4.407642, "height": 60, "width": 60, "photo_title": "Ch\u00e2teau d'Avignon (Bouches-du-Rh\u00f4ne)", "latitude": 43.558866, "owner_url": "http://www.panoramio.com/user/1310638", "photo_url": "http://www.panoramio.com/photo/7554078", "photo_file_url": "http://mw2.google.com/mw-panoramio/photos/square/7554078.jpg", "owner_id": 1310638}, {"upload_date": "03 October 2007", "owner_name": "mue52", "photo_id": 5070078, "longitude": 4.753304, "height": 60, "width": 60, "photo_title": "Du Sel", "latitude": 43.393822, "owner_url": "http://www.panoramio.com/user/570908", "photo_url": "http://www.panoramio.com/photo/5070078", "photo_file_url": "http://mw2.google.com/mw-panoramio/photos/square/5070078.jpg", "owner_id": 570908}, {"upload_date": "06 February 2011", "owner_name": "DijanaGolubovic", "photo_id": 47699815, "longitude": 4.420279999999991, "height": 60, "width": 60, "photo_title": "Les Vaches De Camargue", "latitude": 43.55593, "owner_url": "http://www.panoramio.com/user/5511741", "photo_url": "http://www.panoramio.com/photo/47699815", "photo_file_url": "http://mw2.google.com/mw-panoramio/photos/square/47699815.jpg", "owner_id": 5511741}, {"upload_date": "03 September 2007", "owner_name": "ludovic.ruat", "photo_id": 4371855, "longitude": 4.472122, "height": 60, "width": 60, "photo_title": "Camping Car grand luxe", "latitude": 43.464406, "owner_url": "http://www.panoramio.com/user/68814", "photo_url": "http://www.panoramio.com/photo/4371855", "photo_file_url": "http://mw2.google.com/mw-panoramio/photos/square/4371855.jpg", "owner_id": 68814}, {"upload_date": "03 September 2007", "owner_name": "ludovic.ruat", "photo_id": 4372721, "longitude": 4.4351666666667, "height": 60, "width": 60, "photo_title": "Hotel Camargue Thalasso", "latitude": 43.453186111111, "owner_url": "http://www.panoramio.com/user/68814", "photo_url": "http://www.panoramio.com/photo/4372721", "photo_file_url": "http://mw2.google.com/mw-panoramio/photos/square/4372721.jpg", "owner_id": 68814}, {"upload_date": "07 February 2009", "owner_name": "Nicole Chayne-salini", "photo_id": 18671923, "longitude": 4.80639, "height": 60, "width": 60, "photo_title": "la gare SNCF", "latitude": 43.393448, "owner_url": "http://www.panoramio.com/user/489001", "photo_url": "http://www.panoramio.com/photo/18671923", "photo_file_url": "http://mw2.google.com/mw-panoramio/photos/square/18671923.jpg", "owner_id": 489001}, {"upload_date": "17 December 2007", "owner_name": "Pit Aretz", "photo_id": 6537640, "longitude": 4.721546, "height": 60, "width": 60, "photo_title": "Acqueduc de Barbegal", "latitude": 43.704274, "owner_url": "http://www.panoramio.com/user/248335", "photo_url": "http://www.panoramio.com/photo/6537640", "photo_file_url": "http://mw2.google.com/mw-panoramio/photos/square/6537640.jpg", "owner_id": 248335}, {"upload_date": "22 December 2010", "owner_name": "JM Alves", "photo_id": 45415517, "longitude": 4.449258, "height": 60, "width": 60, "photo_title": "D\u00e9cembre en M\u00e9diterran\u00e9e", "latitude": 43.45707, "owner_url": "http://www.panoramio.com/user/162675", "photo_url": "http://www.panoramio.com/photo/45415517", "photo_file_url": "http://mw2.google.com/mw-panoramio/photos/square/45415517.jpg", "owner_id": 162675}, {"upload_date": "02 January 2009", "owner_name": "www.suedstern.ch", "photo_id": 17397290, "longitude": 4.502077, "height": 60, "width": 60, "photo_title": "2008-08-25 - Dune - St. Maries de la mer 2, france", "latitude": 43.45809, "owner_url": "http://www.panoramio.com/user/508781", "photo_url": "http://www.panoramio.com/photo/17397290", "photo_file_url": "http://mw2.google.com/mw-panoramio/photos/square/17397290.jpg", "owner_id": 508781}, {"upload_date": "16 April 2009", "owner_name": "pic-ability", "photo_id": 21290038, "longitude": 4.522151, "height": 60, "width": 60, "photo_title": "body motion ", "latitude": 43.455832, "owner_url": "http://www.panoramio.com/user/2045042", "photo_url": "http://www.panoramio.com/photo/21290038", "photo_file_url": "http://mw2.google.com/mw-panoramio/photos/square/21290038.jpg", "owner_id": 2045042}, {"upload_date": "05 February 2009", "owner_name": "J-F GHIRARDI 13/2A", "photo_id": 18584656, "longitude": 4.885826, "height": 60, "width": 60, "photo_title": "EVITAGE @ JF", "latitude": 43.404549, "owner_url": "http://www.panoramio.com/user/305736", "photo_url": "http://www.panoramio.com/photo/18584656", "photo_file_url": "http://mw2.google.com/mw-panoramio/photos/square/18584656.jpg", "owner_id": 305736}, {"upload_date": "09 May 2008", "owner_name": "stefano.incerpi", "photo_id": 10074244, "longitude": 4.418263, "height": 60, "width": 60, "photo_title": "Cavalli andalusi allo stato brado per Mauro", "latitude": 43.462233, "owner_url": "http://www.panoramio.com/user/686032", "photo_url": "http://www.panoramio.com/photo/10074244", "photo_file_url": "http://mw2.google.com/mw-panoramio/photos/square/10074244.jpg", "owner_id": 686032}, {"upload_date": "15 April 2009", "owner_name": "Pit Aretz", "photo_id": 21230768, "longitude": 4.754333, "height": 60, "width": 60, "photo_title": "Plage de Piemansons pr\u00e8s de Salin de Giraud", "latitude": 43.35071, "owner_url": "http://www.panoramio.com/user/248335", "photo_url": "http://www.panoramio.com/photo/21230768", "photo_file_url": "http://mw2.google.com/mw-panoramio/photos/square/21230768.jpg", "owner_id": 248335}, {"upload_date": "05 May 2009", "owner_name": "J-F GHIRARDI 13/2A", "photo_id": 22019404, "longitude": 4.819136, "height": 60, "width": 60, "photo_title": "GRAFFITI @ JF", "latitude": 43.384061, "owner_url": "http://www.panoramio.com/user/305736", "photo_url": "http://www.panoramio.com/photo/22019404", "photo_file_url": "http://mw2.google.com/mw-panoramio/photos/square/22019404.jpg", "owner_id": 305736}, {"upload_date": "18 October 2009", "owner_name": "Jackie Gomez-Blasco", "photo_id": 27955740, "longitude": 4.630114999999989, "height": 60, "width": 60, "photo_title": "Arles sur Rh\u00f4ne : les lions du  pont de Lunel  - 1866 -1944  ", "latitude": 43.6831, "owner_url": "http://www.panoramio.com/user/836605", "photo_url": "http://www.panoramio.com/photo/27955740", "photo_file_url": "http://mw2.google.com/mw-panoramio/photos/square/27955740.jpg", "owner_id": 836605}, {"upload_date": "31 January 2008", "owner_name": "gmg61", "photo_id": 7494140, "longitude": 4.724636, "height": 60, "width": 60, "photo_title": "Salins du Midi", "latitude": 43.39931, "owner_url": "http://www.panoramio.com/user/214211", "photo_url": "http://www.panoramio.com/photo/7494140", "photo_file_url": "http://mw2.google.com/mw-panoramio/photos/square/7494140.jpg", "owner_id": 214211}, {"upload_date": "03 September 2007", "owner_name": "ludovic.ruat", "photo_id": 4372568, "longitude": 4.5835416666667, "height": 60, "width": 60, "photo_title": "Couleurs de Camargue", "latitude": 43.454122222222, "owner_url": "http://www.panoramio.com/user/68814", "photo_url": "http://www.panoramio.com/photo/4372568", "photo_file_url": "http://mw2.google.com/mw-panoramio/photos/square/4372568.jpg", "owner_id": 68814}, {"upload_date": "26 July 2007", "owner_name": "mettekoo", "photo_id": 3544147, "longitude": 4.721782, "height": 60, "width": 60, "photo_title": "08 Barb\u00e9gal", "latitude": 43.70553, "owner_url": "http://www.panoramio.com/user/413883", "photo_url": "http://www.panoramio.com/photo/3544147", "photo_file_url": "http://mw2.google.com/mw-panoramio/photos/square/3544147.jpg", "owner_id": 413883}, {"upload_date": "17 August 2009", "owner_name": "Rahela & Kreso", "photo_id": 25757476, "longitude": 4.654598, "height": 60, "width": 60, "photo_title": "sunflowers near Arles", "latitude": 43.703871, "owner_url": "http://www.panoramio.com/user/1226895", "photo_url": "http://www.panoramio.com/photo/25757476", "photo_file_url": "http://mw2.google.com/mw-panoramio/photos/square/25757476.jpg", "owner_id": 1226895}, {"upload_date": "22 June 2011", "owner_name": "Oliviero Masseroli", "photo_id": 54602046, "longitude": 4.394531, "height": 60, "width": 60, "photo_title": "Camargue - Francia", "latitude": 43.508721, "owner_url": "http://www.panoramio.com/user/1707816", "photo_url": "http://www.panoramio.com/photo/54602046", "photo_file_url": "http://mw2.google.com/mw-panoramio/photos/square/54602046.jpg", "owner_id": 1707816}, {"upload_date": "09 June 2010", "owner_name": "Bernard Bost", "photo_id": 36552209, "longitude": 4.629938, "height": 60, "width": 60, "photo_title": "La sortie du coll\u00e8ge Saint-Charles, en Arles", "latitude": 43.676922, "owner_url": "http://www.panoramio.com/user/1354090", "photo_url": "http://www.panoramio.com/photo/36552209", "photo_file_url": "http://mw2.google.com/mw-panoramio/photos/square/36552209.jpg", "owner_id": 1354090}, {"upload_date": "19 January 2011", "owner_name": "gianluigia", "photo_id": 46796823, "longitude": 4.417275999999987, "height": 60, "width": 60, "photo_title": "camargue ", "latitude": 43.466002, "owner_url": "http://www.panoramio.com/user/4771711", "photo_url": "http://www.panoramio.com/photo/46796823", "photo_file_url": "http://mw2.google.com/mw-panoramio/photos/square/46796823.jpg", "owner_id": 4771711}, {"upload_date": "17 November 2007", "owner_name": "SvenP", "photo_id": 5964861, "longitude": 4.6268277777778, "height": 60, "width": 60, "photo_title": "Arles - Quai Marx Dormoy et le Rh\u00f4ne", "latitude": 43.679247222222, "owner_url": "http://www.panoramio.com/user/1019894", "photo_url": "http://www.panoramio.com/photo/5964861", "photo_file_url": "http://mw2.google.com/mw-panoramio/photos/square/5964861.jpg", "owner_id": 1019894}, {"upload_date": "22 June 2008", "owner_name": "Wilder Biral", "photo_id": 11436924, "longitude": 4.503708, "height": 60, "width": 60, "photo_title": "flamingos", "latitude": 43.526646, "owner_url": "http://www.panoramio.com/user/696980", "photo_url": "http://www.panoramio.com/photo/11436924", "photo_file_url": "http://mw2.google.com/mw-panoramio/photos/square/11436924.jpg", "owner_id": 696980}, {"upload_date": "30 April 2009", "owner_name": "Lucien ruth", "photo_id": 21807486, "longitude": 4.867973, "height": 60, "width": 60, "photo_title": "Port Saint Louis du Rhone, Dans les mar\u00e9cages, faut s'adapter... ", "latitude": 43.357388, "owner_url": "http://www.panoramio.com/user/2300179", "photo_url": "http://www.panoramio.com/photo/21807486", "photo_file_url": "http://mw2.google.com/mw-panoramio/photos/square/21807486.jpg", "owner_id": 2300179}, {"upload_date": "01 August 2011", "owner_name": "\u00a9 P. Amet", "photo_id": 56658963, "longitude": 4.561306, "height": 60, "width": 60, "photo_title": "Saintes-Maries-de-la-Mer, Bouches du Rh\u00f4ne, Provence-Alpes-C\u00f4te d'Azur, France", "latitude": 43.455582, "owner_url": "http://www.panoramio.com/user/269255", "photo_url": "http://www.panoramio.com/photo/56658963", "photo_file_url": "http://mw2.google.com/mw-panoramio/photos/square/56658963.jpg", "owner_id": 269255}, {"upload_date": "29 June 2009", "owner_name": "Nicole Chayne-salini", "photo_id": 23951698, "longitude": 4.87956, "height": 60, "width": 60, "photo_title": "sur la plage", "latitude": 43.351163, "owner_url": "http://www.panoramio.com/user/489001", "photo_url": "http://www.panoramio.com/photo/23951698", "photo_file_url": "http://mw2.google.com/mw-panoramio/photos/square/23951698.jpg", "owner_id": 489001}, {"upload_date": "23 May 2008", "owner_name": "Fran\u00e7ois PITROU_CHARLIE", "photo_id": 10519383, "longitude": 4.538383, "height": 60, "width": 60, "photo_title": "sunset on CAMARGUE", "latitude": 43.56472, "owner_url": "http://www.panoramio.com/user/107566", "photo_url": "http://www.panoramio.com/photo/10519383", "photo_file_url": "http://mw2.google.com/mw-panoramio/photos/square/10519383.jpg", "owner_id": 107566}, {"upload_date": "03 March 2009", "owner_name": "Pit Aretz", "photo_id": 19633580, "longitude": 4.588594, "height": 60, "width": 60, "photo_title": "Camargue - Phare de la Gacholle", "latitude": 43.452545, "owner_url": "http://www.panoramio.com/user/248335", "photo_url": "http://www.panoramio.com/photo/19633580", "photo_file_url": "http://mw2.google.com/mw-panoramio/photos/square/19633580.jpg", "owner_id": 248335}, {"upload_date": "03 September 2007", "owner_name": "ludovic.ruat", "photo_id": 4371886, "longitude": 4.5763805555555, "height": 60, "width": 60, "photo_title": "Des \u00e9tangs et des flamants", "latitude": 43.454372222222, "owner_url": "http://www.panoramio.com/user/68814", "photo_url": "http://www.panoramio.com/photo/4371886", "photo_file_url": "http://mw2.google.com/mw-panoramio/photos/square/4371886.jpg", "owner_id": 68814}, {"upload_date": "09 February 2014", "owner_name": "Jantoni", "photo_id": 102966759, "longitude": 4.407792, "height": 60, "width": 60, "photo_title": "Pont de Gau (Camarga)", "latitude": 43.487288, "owner_url": "http://www.panoramio.com/user/4377025", "photo_url": "http://www.panoramio.com/photo/102966759", "photo_file_url": "http://mw2.google.com/mw-panoramio/photos/square/102966759.jpg", "owner_id": 4377025}, {"upload_date": "07 February 2009", "owner_name": "J-F GHIRARDI 13/2A", "photo_id": 18667559, "longitude": 4.883251, "height": 60, "width": 60, "photo_title": "chemin\u00e9es de ponteau @ J-F (147 m )", "latitude": 43.354704, "owner_url": "http://www.panoramio.com/user/305736", "photo_url": "http://www.panoramio.com/photo/18667559", "photo_file_url": "http://mw2.google.com/mw-panoramio/photos/square/18667559.jpg", "owner_id": 305736}, {"upload_date": "27 May 2010", "owner_name": "J-F GHIRARDI 13/2A", "photo_id": 36037558, "longitude": 4.864454, "height": 60, "width": 60, "photo_title": "PORTIQUES AUX REPOS @ JF", "latitude": 43.403426, "owner_url": "http://www.panoramio.com/user/305736", "photo_url": "http://www.panoramio.com/photo/36037558", "photo_file_url": "http://mw2.google.com/mw-panoramio/photos/square/36037558.jpg", "owner_id": 305736}, {"upload_date": "27 December 2010", "owner_name": "Jackie Gomez-Blasco", "photo_id": 45659203, "longitude": 4.653397000000012, "height": 60, "width": 60, "photo_title": "Br\u00fblage des pailles de riz", "latitude": 43.699713, "owner_url": "http://www.panoramio.com/user/836605", "photo_url": "http://www.panoramio.com/photo/45659203", "photo_file_url": "http://mw2.google.com/mw-panoramio/photos/square/45659203.jpg", "owner_id": 836605}, {"upload_date": "15 March 2009", "owner_name": "Pit Aretz", "photo_id": 20066670, "longitude": 4.786091, "height": 60, "width": 60, "photo_title": "Le Paradou: Cha\u00eene des Alpilles / Rocher de La P\u00e8ne", "latitude": 43.704863, "owner_url": "http://www.panoramio.com/user/248335", "photo_url": "http://www.panoramio.com/photo/20066670", "photo_file_url": "http://mw2.google.com/mw-panoramio/photos/square/20066670.jpg", "owner_id": 248335}, {"upload_date": "22 December 2010", "owner_name": "JM Alves", "photo_id": 45433786, "longitude": 4.403223, "height": 60, "width": 60, "photo_title": "Simb\u00e9u", "latitude": 43.449876, "owner_url": "http://www.panoramio.com/user/162675", "photo_url": "http://www.panoramio.com/photo/45433786", "photo_file_url": "http://mw2.google.com/mw-panoramio/photos/square/45433786.jpg", "owner_id": 162675}, {"upload_date": "13 January 2007", "owner_name": "lasvenes", "photo_id": 414728, "longitude": 4.639707, "height": 60, "width": 60, "photo_title": "Arles la gare", "latitude": 43.671573, "owner_url": "http://www.panoramio.com/user/77996", "photo_url": "http://www.panoramio.com/photo/414728", "photo_file_url": "http://mw2.google.com/mw-panoramio/photos/square/414728.jpg", "owner_id": 77996}, {"upload_date": "01 July 2008", "owner_name": "M Teixeira", "photo_id": 11700838, "longitude": 4.348869, "height": 60, "width": 60, "photo_title": "Les chevaux de Camargue", "latitude": 43.546309, "owner_url": "http://www.panoramio.com/user/1745789", "photo_url": "http://www.panoramio.com/photo/11700838", "photo_file_url": "http://mw2.google.com/mw-panoramio/photos/square/11700838.jpg", "owner_id": 1745789}, {"upload_date": "18 November 2007", "owner_name": "SvenP", "photo_id": 5980415, "longitude": 4.2702638888889, "height": 60, "width": 60, "photo_title": "Maison dans le D58", "latitude": 43.580294444444, "owner_url": "http://www.panoramio.com/user/1019894", "photo_url": "http://www.panoramio.com/photo/5980415", "photo_file_url": "http://mw2.google.com/mw-panoramio/photos/square/5980415.jpg", "owner_id": 1019894}, {"upload_date": "23 December 2012", "owner_name": "Pat BARREAUX", "photo_id": 83739666, "longitude": 4.411268, "height": 60, "width": 60, "photo_title": "plage des Saintes-Maries-de-la-mer", "latitude": 43.449679, "owner_url": "http://www.panoramio.com/user/7327842", "photo_url": "http://www.panoramio.com/photo/83739666", "photo_file_url": "http://mw2.google.com/mw-panoramio/photos/square/83739666.jpg", "owner_id": 7327842}, {"upload_date": "29 March 2011", "owner_name": "\u00a9 P. Amet", "photo_id": 50205821, "longitude": 4.605728, "height": 60, "width": 60, "photo_title": "Saintes-Maries-de-La-Mer, Camargue, Bouches du Rh\u00f4ne, Provence-Alpes-C\u00f4te d'Azur, France", "latitude": 43.561107, "owner_url": "http://www.panoramio.com/user/269255", "photo_url": "http://www.panoramio.com/photo/50205821", "photo_file_url": "http://mw2.google.com/mw-panoramio/photos/square/50205821.jpg", "owner_id": 269255}, {"upload_date": "12 March 2008", "owner_name": "JM Alves", "photo_id": 8477827, "longitude": 4.635201, "height": 60, "width": 60, "photo_title": "Camargue", "latitude": 43.57666, "owner_url": "http://www.panoramio.com/user/162675", "photo_url": "http://www.panoramio.com/photo/8477827", "photo_file_url": "http://mw2.google.com/mw-panoramio/photos/square/8477827.jpg", "owner_id": 162675}, {"upload_date": "28 November 2008", "owner_name": "Rudy Pick\u00e9", "photo_id": 16396625, "longitude": 4.457746, "height": 60, "width": 60, "photo_title": "Saintes-Maries-de-la-Mer", "latitude": 43.458075, "owner_url": "http://www.panoramio.com/user/1637170", "photo_url": "http://www.panoramio.com/photo/16396625", "photo_file_url": "http://mw2.google.com/mw-panoramio/photos/square/16396625.jpg", "owner_id": 1637170}, {"upload_date": "05 November 2008", "owner_name": "ohao", "photo_id": 15708974, "longitude": 4.742832, "height": 60, "width": 60, "photo_title": "le bac ", "latitude": 43.41839, "owner_url": "http://www.panoramio.com/user/235130", "photo_url": "http://www.panoramio.com/photo/15708974", "photo_file_url": "http://mw2.google.com/mw-panoramio/photos/square/15708974.jpg", "owner_id": 235130}, {"upload_date": "25 February 2008", "owner_name": "J-F GHIRARDI 13/2A", "photo_id": 8104987, "longitude": 4.885998, "height": 60, "width": 60, "photo_title": "LA CLEF A MOLETTE @ J-F", "latitude": 43.420853, "owner_url": "http://www.panoramio.com/user/305736", "photo_url": "http://www.panoramio.com/photo/8104987", "photo_file_url": "http://mw2.google.com/mw-panoramio/photos/square/8104987.jpg", "owner_id": 305736}, {"upload_date": "15 July 2008", "owner_name": "Vincentn", "photo_id": 12129591, "longitude": 4.74633, "height": 60, "width": 60, "photo_title": "Chevaux de Camargue", "latitude": 43.537256, "owner_url": "http://www.panoramio.com/user/325252", "photo_url": "http://www.panoramio.com/photo/12129591", "photo_file_url": "http://mw2.google.com/mw-panoramio/photos/square/12129591.jpg", "owner_id": 325252}, {"upload_date": "03 October 2010", "owner_name": "Angelo Ferraris", "photo_id": 41655790, "longitude": 4.62195, "height": 60, "width": 60, "photo_title": "Arles", "latitude": 43.678549, "owner_url": "http://www.panoramio.com/user/715162", "photo_url": "http://www.panoramio.com/photo/41655790", "photo_file_url": "http://mw2.google.com/mw-panoramio/photos/square/41655790.jpg", "owner_id": 715162}, {"upload_date": "30 April 2009", "owner_name": "Lucien ruth", "photo_id": 21807521, "longitude": 4.853382, "height": 60, "width": 60, "photo_title": "Port Saint Louis du Rhone ", "latitude": 43.36238, "owner_url": "http://www.panoramio.com/user/2300179", "photo_url": "http://www.panoramio.com/photo/21807521", "photo_file_url": "http://mw2.google.com/mw-panoramio/photos/square/21807521.jpg", "owner_id": 2300179}, {"upload_date": "18 June 2009", "owner_name": "ohao", "photo_id": 23589662, "longitude": 4.407921, "height": 60, "width": 60, "photo_title": "tout va bien l\u00e0-haut ?", "latitude": 43.476716, "owner_url": "http://www.panoramio.com/user/235130", "photo_url": "http://www.panoramio.com/photo/23589662", "photo_file_url": "http://mw2.google.com/mw-panoramio/photos/square/23589662.jpg", "owner_id": 235130}, {"upload_date": "30 April 2009", "owner_name": "Lucien ruth", "photo_id": 21807464, "longitude": 4.829521, "height": 60, "width": 60, "photo_title": "Port Saint Louis du Rhone, les mar\u00e9cages ", "latitude": 43.373112, "owner_url": "http://www.panoramio.com/user/2300179", "photo_url": "http://www.panoramio.com/photo/21807464", "photo_file_url": "http://mw2.google.com/mw-panoramio/photos/square/21807464.jpg", "owner_id": 2300179}, {"upload_date": "18 January 2009", "owner_name": "msvn", "photo_id": 17973155, "longitude": 4.845808, "height": 60, "width": 60, "photo_title": "Fos sur Mer, Janv. 2009 - ASCOMETAL sous la neige (2)", "latitude": 43.44217, "owner_url": "http://www.panoramio.com/user/1482217", "photo_url": "http://www.panoramio.com/photo/17973155", "photo_file_url": "http://mw2.google.com/mw-panoramio/photos/square/17973155.jpg", "owner_id": 1482217}, {"upload_date": "27 December 2006", "owner_name": "munuera francis", "photo_id": 245154, "longitude": 4.675369, "height": 60, "width": 60, "photo_title": "maison camarguaise", "latitude": 43.43198, "owner_url": "http://www.panoramio.com/user/30170", "photo_url": "http://www.panoramio.com/photo/245154", "photo_file_url": "http://mw2.google.com/mw-panoramio/photos/square/245154.jpg", "owner_id": 30170}, {"upload_date": "29 August 2009", "owner_name": "CKIKI 83", "photo_id": 26217498, "longitude": 4.287415, "height": 60, "width": 60, "photo_title": "La route    Aube ou Cr\u00e9puscule ?", "latitude": 43.578152, "owner_url": "http://www.panoramio.com/user/1039150", "photo_url": "http://www.panoramio.com/photo/26217498", "photo_file_url": "http://mw2.google.com/mw-panoramio/photos/square/26217498.jpg", "owner_id": 1039150}, {"upload_date": "24 October 2007", "owner_name": "Mahy jean", "photo_id": 5510723, "longitude": 4.453926, "height": 60, "width": 60, "photo_title": "Une ferrade", "latitude": 43.551161, "owner_url": "http://www.panoramio.com/user/934762", "photo_url": "http://www.panoramio.com/photo/5510723", "photo_file_url": "http://mw2.google.com/mw-panoramio/photos/square/5510723.jpg", "owner_id": 934762}, {"upload_date": "25 April 2008", "owner_name": "f.  madic", "photo_id": 9688953, "longitude": 4.504738, "height": 60, "width": 60, "photo_title": "Coucher de soleil en Camargue", "latitude": 43.58036, "owner_url": "http://www.panoramio.com/user/1559508", "photo_url": "http://www.panoramio.com/photo/9688953", "photo_file_url": "http://mw2.google.com/mw-panoramio/photos/square/9688953.jpg", "owner_id": 1559508}, {"upload_date": "27 December 2010", "owner_name": "Jackie Gomez-Blasco", "photo_id": 45659199, "longitude": 4.649277000000012, "height": 60, "width": 60, "photo_title": "Le feu et la glace", "latitude": 43.698302, "owner_url": "http://www.panoramio.com/user/836605", "photo_url": "http://www.panoramio.com/photo/45659199", "photo_file_url": "http://mw2.google.com/mw-panoramio/photos/square/45659199.jpg", "owner_id": 836605}, {"upload_date": "17 March 2009", "owner_name": "J-F GHIRARDI 13/2A", "photo_id": 20159586, "longitude": 4.847546, "height": 60, "width": 60, "photo_title": "darse 2 @ J-F", "latitude": 43.410285, "owner_url": "http://www.panoramio.com/user/305736", "photo_url": "http://www.panoramio.com/photo/20159586", "photo_file_url": "http://mw2.google.com/mw-panoramio/photos/square/20159586.jpg", "owner_id": 305736}, {"upload_date": "14 May 2010", "owner_name": "\u263aJean & Coco-Views ? Jamais...Never !!!\u263a", "photo_id": 35514473, "longitude": 4.354295, "height": 60, "width": 60, "photo_title": "\u00c2ne...de Camargue....", "latitude": 43.520742, "owner_url": "http://www.panoramio.com/user/383566", "photo_url": "http://www.panoramio.com/photo/35514473", "photo_file_url": "http://mw2.google.com/mw-panoramio/photos/square/35514473.jpg", "owner_id": 383566}, {"upload_date": "30 April 2009", "owner_name": "Lucien ruth", "photo_id": 21807620, "longitude": 4.851837, "height": 60, "width": 60, "photo_title": "Eoliennes", "latitude": 43.476716, "owner_url": "http://www.panoramio.com/user/2300179", "photo_url": "http://www.panoramio.com/photo/21807620", "photo_file_url": "http://mw2.google.com/mw-panoramio/photos/square/21807620.jpg", "owner_id": 2300179}, {"upload_date": "02 November 2010", "owner_name": "8aleks8", "photo_id": 43123649, "longitude": 4.828234, "height": 60, "width": 60, "photo_title": "* Flamingos und andere Wasserv\u00f6gel in der Carmarque, Okt '10 *", "latitude": 43.356577, "owner_url": "http://www.panoramio.com/user/2171662", "photo_url": "http://www.panoramio.com/photo/43123649", "photo_file_url": "http://mw2.google.com/mw-panoramio/photos/square/43123649.jpg", "owner_id": 2171662}, {"upload_date": "31 May 2011", "owner_name": "Croquezz", "photo_id": 53490402, "longitude": 4.6711640000000045, "height": 60, "width": 60, "photo_title": "Arbres BN i00036_fhdr", "latitude": 43.650617, "owner_url": "http://www.panoramio.com/user/571515", "photo_url": "http://www.panoramio.com/photo/53490402", "photo_file_url": "http://mw2.google.com/mw-panoramio/photos/square/53490402.jpg", "owner_id": 571515}, {"upload_date": "30 April 2009", "owner_name": "Lucien ruth", "photo_id": 21807603, "longitude": 4.711761, "height": 60, "width": 60, "photo_title": "Salin de Giraud, ramassage du sel", "latitude": 43.399809, "owner_url": "http://www.panoramio.com/user/2300179", "photo_url": "http://www.panoramio.com/photo/21807603", "photo_file_url": "http://mw2.google.com/mw-panoramio/photos/square/21807603.jpg", "owner_id": 2300179}, {"upload_date": "14 August 2010", "owner_name": "lorcas", "photo_id": 39262637, "longitude": 4.455943, "height": 60, "width": 60, "photo_title": "Saint-Gilles, Pont sur le Petit-Rh\u00f4ne  -  30", "latitude": 43.668135, "owner_url": "http://www.panoramio.com/user/235690", "photo_url": "http://www.panoramio.com/photo/39262637", "photo_file_url": "http://mw2.google.com/mw-panoramio/photos/square/39262637.jpg", "owner_id": 235690}, {"upload_date": "31 May 2010", "owner_name": "Angelo Ferraris", "photo_id": 36206084, "longitude": 4.315224000000001, "height": 60, "width": 60, "photo_title": "L'atmosph\u00e8re de la Camargue et ses chevaux - The atmosphere of the Camargue and his horses", "latitude": 43.624396, "owner_url": "http://www.panoramio.com/user/715162", "photo_url": "http://www.panoramio.com/photo/36206084", "photo_file_url": "http://mw2.google.com/mw-panoramio/photos/square/36206084.jpg", "owner_id": 715162}, {"upload_date": "08 March 2009", "owner_name": "say14all", "photo_id": 19788459, "longitude": 4.862137, "height": 60, "width": 60, "photo_title": "Le Printemps de Provence \u666e\u7f57\u65fa\u65af\u4e4b\u6625 The Springtime of Provence", "latitude": 43.512456, "owner_url": "http://www.panoramio.com/user/128228", "photo_url": "http://www.panoramio.com/photo/19788459", "photo_file_url": "http://mw2.google.com/mw-panoramio/photos/square/19788459.jpg", "owner_id": 128228}, {"upload_date": "22 April 2009", "owner_name": "MBagyinszky", "photo_id": 21497265, "longitude": 4.2460732498841, "height": 60, "width": 60, "photo_title": "Trees on Elephant legs", "latitude": 43.687876580008, "owner_url": "http://www.panoramio.com/user/17622", "photo_url": "http://www.panoramio.com/photo/21497265", "photo_file_url": "http://mw2.google.com/mw-panoramio/photos/square/21497265.jpg", "owner_id": 17622}, {"upload_date": "17 February 2010", "owner_name": "lorcas", "photo_id": 32277742, "longitude": 4.871063, "height": 60, "width": 60, "photo_title": "Port-saint-Louis-du-Rh\u00f4ne. Coucher de soleil", "latitude": 43.362879, "owner_url": "http://www.panoramio.com/user/235690", "photo_url": "http://www.panoramio.com/photo/32277742", "photo_file_url": "http://mw2.google.com/mw-panoramio/photos/square/32277742.jpg", "owner_id": 235690}, {"upload_date": "22 April 2009", "owner_name": "MBagyinszky", "photo_id": 21497287, "longitude": 4.7674015799977, "height": 60, "width": 60, "photo_title": "NO ENTRY", "latitude": 43.630719899964, "owner_url": "http://www.panoramio.com/user/17622", "photo_url": "http://www.panoramio.com/photo/21497287", "photo_file_url": "http://mw2.google.com/mw-panoramio/photos/square/21497287.jpg", "owner_id": 17622}, {"upload_date": "19 July 2008", "owner_name": "ohao", "photo_id": 12251159, "longitude": 4.70129, "height": 60, "width": 60, "photo_title": "riziere", "latitude": 43.425856, "owner_url": "http://www.panoramio.com/user/235130", "photo_url": "http://www.panoramio.com/photo/12251159", "photo_file_url": "http://mw2.google.com/mw-panoramio/photos/square/12251159.jpg", "owner_id": 235130}, {"upload_date": "12 December 2010", "owner_name": "8db8", "photo_id": 44939162, "longitude": 4.840851, "height": 60, "width": 60, "photo_title": "L'embouchure du Rh\u00f4ne, kap, photo a\u00e9rienne par cerf-volant .", "latitude": 43.337539, "owner_url": "http://www.panoramio.com/user/4961354", "photo_url": "http://www.panoramio.com/photo/44939162", "photo_file_url": "http://mw2.google.com/mw-panoramio/photos/square/44939162.jpg", "owner_id": 4961354}, {"upload_date": "16 September 2011", "owner_name": "Marc Guerrini \u262e", "photo_id": 59053975, "longitude": 4.823202000000009, "height": 60, "width": 60, "photo_title": "le passage en revu", "latitude": 43.466493, "owner_url": "http://www.panoramio.com/user/3006151", "photo_url": "http://www.panoramio.com/photo/59053975", "photo_file_url": "http://mw2.google.com/mw-panoramio/photos/square/59053975.jpg", "owner_id": 3006151}, {"upload_date": "30 April 2009", "owner_name": "Lucien ruth", "photo_id": 21807623, "longitude": 4.809265, "height": 60, "width": 60, "photo_title": "Mar\u00e9cages", "latitude": 43.528638, "owner_url": "http://www.panoramio.com/user/2300179", "photo_url": "http://www.panoramio.com/photo/21807623", "photo_file_url": "http://mw2.google.com/mw-panoramio/photos/square/21807623.jpg", "owner_id": 2300179}, {"upload_date": "11 October 2011", "owner_name": "\u00a9Morgana\u2730\u2730\u2665 \u2665 \u2665 \u2730\u2730", "photo_id": 60393231, "longitude": 4.278326, "height": 60, "width": 60, "photo_title": "Vauvert - \u2730\u2730\u2665 \u2665 \u2665 \u2730\u2730 ", "latitude": 43.692984, "owner_url": "http://www.panoramio.com/user/6378094", "photo_url": "http://www.panoramio.com/photo/60393231", "photo_file_url": "http://mw2.google.com/mw-panoramio/photos/square/60393231.jpg", "owner_id": 6378094}, {"upload_date": "29 July 2010", "owner_name": "gianluigia", "photo_id": 38554831, "longitude": 4.716667000000001, "height": 60, "width": 60, "photo_title": "Francia - Saline di Giraud", "latitude": 43.366667, "owner_url": "http://www.panoramio.com/user/4771711", "photo_url": "http://www.panoramio.com/photo/38554831", "photo_file_url": "http://mw2.google.com/mw-panoramio/photos/square/38554831.jpg", "owner_id": 4771711}, {"upload_date": "15 April 2012", "owner_name": "Atama", "photo_id": 70311823, "longitude": 4.334844, "height": 60, "width": 60, "photo_title": "En camargue, en clair-obscur, chevaux sous les nuages. (It's better seen enlarged)", "latitude": 43.644338, "owner_url": "http://www.panoramio.com/user/4297870", "photo_url": "http://www.panoramio.com/photo/70311823", "photo_file_url": "http://mw2.google.com/mw-panoramio/photos/square/70311823.jpg", "owner_id": 4297870}, {"upload_date": "23 August 2009", "owner_name": "Rahela & Kreso", "photo_id": 25979630, "longitude": 4.568253, "height": 60, "width": 60, "photo_title": "Camargue", "latitude": 43.626632, "owner_url": "http://www.panoramio.com/user/1226895", "photo_url": "http://www.panoramio.com/photo/25979630", "photo_file_url": "http://mw2.google.com/mw-panoramio/photos/square/25979630.jpg", "owner_id": 1226895}, {"upload_date": "03 May 2009", "owner_name": "Jackie Gomez-Blasco", "photo_id": 21944288, "longitude": 4.890375, "height": 60, "width": 60, "photo_title": "Rive gauche, les iris ...", "latitude": 43.593555, "owner_url": "http://www.panoramio.com/user/836605", "photo_url": "http://www.panoramio.com/photo/21944288", "photo_file_url": "http://mw2.google.com/mw-panoramio/photos/square/21944288.jpg", "owner_id": 836605},