{"count": 413, "has_more": false, "map_location": {"lat": -2.543934388888889, "panoramio_zoom": 10, "lon": 40.2468034179702}, "photos": [{"upload_date": "28 February 2010", "owner_name": "\u2665Isa\u2665", "photo_id": 32697658, "longitude": 40.231933999999995, "height": 60, "width": 60, "photo_title": "KENIA_COSTERA(norte)", "latitude": -2.687917, "owner_url": "http://www.panoramio.com/user/3599952", "photo_url": "http://www.panoramio.com/photo/32697658", "photo_file_url": "http://mw2.google.com/mw-panoramio/photos/square/32697658.jpg", "owner_id": 3599952}, {"upload_date": "29 August 2007", "owner_name": "Stefano e Maril\u00f9", "photo_id": 4278053, "longitude": 40.159321, "height": 60, "width": 60, "photo_title": "Spiaggia Che Shale (Malindi)", "latitude": -3.077781, "owner_url": "http://www.panoramio.com/user/838372", "photo_url": "http://www.panoramio.com/photo/4278053", "photo_file_url": "http://mw2.google.com/mw-panoramio/photos/square/4278053.jpg", "owner_id": 838372}, {"upload_date": "07 February 2011", "owner_name": "Maximovich Nikolay", "photo_id": 47729529, "longitude": 40.039411, "height": 60, "width": 60, "photo_title": "A small village. Malindi", "latitude": -3.090428, "owner_url": "http://www.panoramio.com/user/4147970", "photo_url": "http://www.panoramio.com/photo/47729529", "photo_file_url": "http://mw2.google.com/mw-panoramio/photos/square/47729529.jpg", "owner_id": 4147970}, {"upload_date": "17 May 2009", "owner_name": "ace Hendra", "photo_id": 22478446, "longitude": 40.14879, "height": 60, "width": 60, "photo_title": "Village scene, somewhere north of Malindi?", "latitude": -2.827193, "owner_url": "http://www.panoramio.com/user/2523936", "photo_url": "http://www.panoramio.com/photo/22478446", "photo_file_url": "http://mw2.google.com/mw-panoramio/photos/square/22478446.jpg", "owner_id": 2523936}, {"upload_date": "24 September 2008", "owner_name": "fabrizio farsetti", "photo_id": 14376803, "longitude": 40.031261, "height": 60, "width": 60, "photo_title": "karibuni vs marafa", "latitude": -3.016584, "owner_url": "http://www.panoramio.com/user/2022690", "photo_url": "http://www.panoramio.com/photo/14376803", "photo_file_url": "http://mw2.google.com/mw-panoramio/photos/square/14376803.jpg", "owner_id": 2022690}, {"upload_date": "26 June 2011", "owner_name": "Kenyan Traveller", "photo_id": 54804788, "longitude": 40.814563, "height": 60, "width": 60, "photo_title": "Sunset at Kipungani", "latitude": -2.321793, "owner_url": "http://www.panoramio.com/user/5359942", "photo_url": "http://www.panoramio.com/photo/54804788", "photo_file_url": "http://mw2.google.com/mw-panoramio/photos/square/54804788.jpg", "owner_id": 5359942}, {"upload_date": "16 November 2008", "owner_name": "Karisia_safaris", "photo_id": 16044512, "longitude": 40.374447, "height": 60, "width": 60, "photo_title": "Tana River, Kenya", "latitude": -2.573847, "owner_url": "http://www.panoramio.com/user/2452336", "photo_url": "http://www.panoramio.com/photo/16044512", "photo_file_url": "http://mw2.google.com/mw-panoramio/photos/square/16044512.jpg", "owner_id": 2452336}, {"upload_date": "30 March 2012", "owner_name": "Gio la Gamb", "photo_id": 69373612, "longitude": 40.059513, "height": 60, "width": 60, "photo_title": "Abitazione", "latitude": -2.944625, "owner_url": "http://www.panoramio.com/user/3265834", "photo_url": "http://www.panoramio.com/photo/69373612", "photo_file_url": "http://mw2.google.com/mw-panoramio/photos/square/69373612.jpg", "owner_id": 3265834}, {"upload_date": "08 May 2012", "owner_name": "Gio la Gamb", "photo_id": 71693889, "longitude": 40.548949, "height": 60, "width": 60, "photo_title": "Lodge", "latitude": -2.147604, "owner_url": "http://www.panoramio.com/user/3265834", "photo_url": "http://www.panoramio.com/photo/71693889", "photo_file_url": "http://mw2.google.com/mw-panoramio/photos/square/71693889.jpg", "owner_id": 3265834}, {"upload_date": "24 January 2007", "owner_name": "Peter Andrews", "photo_id": 550287, "longitude": 40.839958, "height": 60, "width": 60, "photo_title": "Matondoni village, Lamu Island", "latitude": -2.267741, "owner_url": "http://www.panoramio.com/user/115486", "photo_url": "http://www.panoramio.com/photo/550287", "photo_file_url": "http://mw2.google.com/mw-panoramio/photos/square/550287.jpg", "owner_id": 115486}, {"upload_date": "29 February 2008", "owner_name": "adriano53", "photo_id": 8190728, "longitude": 40.171906, "height": 60, "width": 60, "photo_title": "presso Gongoni > Isole Robinson", "latitude": -2.891031, "owner_url": "http://www.panoramio.com/user/1449607", "photo_url": "http://www.panoramio.com/photo/8190728", "photo_file_url": "http://mw2.google.com/mw-panoramio/photos/square/8190728.jpg", "owner_id": 1449607}, {"upload_date": "24 March 2010", "owner_name": "\u041c\u0430\u043a\u0430\u0440 \u041f\u0440\u043e\u0441\u0442\u0430\u0447\u043a\u043e\u0432", "photo_id": 33587474, "longitude": 40.248413, "height": 60, "width": 60, "photo_title": "\u0410\u0444\u0440\u0438\u043a\u0430-\u041a\u0435\u043d\u0438\u044f", "latitude": -2.740044, "owner_url": "http://www.panoramio.com/user/1364296", "photo_url": "http://www.panoramio.com/photo/33587474", "photo_file_url": "http://mw2.google.com/mw-panoramio/photos/square/33587474.jpg", "owner_id": 1364296}, {"upload_date": "12 May 2008", "owner_name": "Matteo von", "photo_id": 10169086, "longitude": 40.178719, "height": 60, "width": 60, "photo_title": "Che Shale, la spiaggia d'oro", "latitude": -3.03904, "owner_url": "http://www.panoramio.com/user/1718560", "photo_url": "http://www.panoramio.com/photo/10169086", "photo_file_url": "http://mw2.google.com/mw-panoramio/photos/square/10169086.jpg", "owner_id": 1718560}, {"upload_date": "25 December 2007", "owner_name": "luciano canestrari", "photo_id": 6669600, "longitude": 40.209961, "height": 60, "width": 60, "photo_title": "Indian Ocean - Kenya", "latitude": -2.789425, "owner_url": "http://www.panoramio.com/user/784157", "photo_url": "http://www.panoramio.com/photo/6669600", "photo_file_url": "http://mw2.google.com/mw-panoramio/photos/square/6669600.jpg", "owner_id": 784157}, {"upload_date": "07 September 2013", "owner_name": "Iv@n Zanotti", "photo_id": 95875897, "longitude": 40.341797, "height": 60, "width": 60, "photo_title": "Kenya ", "latitude": -2.163792, "owner_url": "http://www.panoramio.com/user/7846658", "photo_url": "http://www.panoramio.com/photo/95875897", "photo_file_url": "http://mw2.google.com/mw-panoramio/photos/square/95875897.jpg", "owner_id": 7846658}, {"upload_date": "01 March 2012", "owner_name": "cocoriti", "photo_id": 67748226, "longitude": 40.268551, "height": 60, "width": 60, "photo_title": "Spiaggia di Mayungu vicino a Malindi, Kenya", "latitude": -2.607483, "owner_url": "http://www.panoramio.com/user/4656750", "photo_url": "http://www.panoramio.com/photo/67748226", "photo_file_url": "http://mw2.google.com/mw-panoramio/photos/square/67748226.jpg", "owner_id": 4656750}, {"upload_date": "22 October 2013", "owner_name": "brianmarv", "photo_id": 98131626, "longitude": 40.198055555555555, "height": 60, "width": 60, "photo_title": "Ishaqbini Hirola Community Conservancy", "latitude": -1.9227777777777777, "owner_url": "http://www.panoramio.com/user/6234653", "photo_url": "http://www.panoramio.com/photo/98131626", "photo_file_url": "http://mw2.google.com/mw-panoramio/photos/square/98131626.jpg", "owner_id": 6234653}, {"upload_date": "22 September 2009", "owner_name": "neuemano", "photo_id": 27065946, "longitude": 40.438270999999986, "height": 60, "width": 60, "photo_title": "Witu - stopover", "latitude": -2.388062, "owner_url": "http://www.panoramio.com/user/3671944", "photo_url": "http://www.panoramio.com/photo/27065946", "photo_file_url": "http://mw2.google.com/mw-panoramio/photos/square/27065946.jpg", "owner_id": 3671944}, {"upload_date": "30 November 2008", "owner_name": "panicm2n", "photo_id": 16444731, "longitude": 40.133743, "height": 60, "width": 60, "photo_title": "malindi sunset our house", "latitude": -3.154057, "owner_url": "http://www.panoramio.com/user/2517187", "photo_url": "http://www.panoramio.com/photo/16444731", "photo_file_url": "http://mw2.google.com/mw-panoramio/photos/square/16444731.jpg", "owner_id": 2517187}, {"upload_date": "03 August 2008", "owner_name": "Esat Naci", "photo_id": 12761948, "longitude": 40.825196000000005, "height": 60, "width": 60, "photo_title": "Coral reefs near Shela", "latitude": -2.397752, "owner_url": "http://www.panoramio.com/user/2090728", "photo_url": "http://www.panoramio.com/photo/12761948", "photo_file_url": "http://mw2.google.com/mw-panoramio/photos/square/12761948.jpg", "owner_id": 2090728}, {"upload_date": "20 January 2008", "owner_name": "luciano canestrari", "photo_id": 7236005, "longitude": 40.089111, "height": 60, "width": 60, "photo_title": "Periferia di Malindi", "latitude": -3.156971, "owner_url": "http://www.panoramio.com/user/784157", "photo_url": "http://www.panoramio.com/photo/7236005", "photo_file_url": "http://mw2.google.com/mw-panoramio/photos/square/7236005.jpg", "owner_id": 784157}, {"upload_date": "24 February 2011", "owner_name": "giotr", "photo_id": 48607528, "longitude": 40.270386, "height": 60, "width": 60, "photo_title": "Kenia Piattaforma lanciamissili S.Rita 1964", "latitude": -2.866235, "owner_url": "http://www.panoramio.com/user/2390593", "photo_url": "http://www.panoramio.com/photo/48607528", "photo_file_url": "http://mw2.google.com/mw-panoramio/photos/square/48607528.jpg", "owner_id": 2390593}, {"upload_date": "18 January 2012", "owner_name": "Grazia Redaelli", "photo_id": 65119261, "longitude": 40.194941, "height": 60, "width": 60, "photo_title": "Robinson Island - Kenya", "latitude": -2.990163, "owner_url": "http://www.panoramio.com/user/982839", "photo_url": "http://www.panoramio.com/photo/65119261", "photo_file_url": "http://mw2.google.com/mw-panoramio/photos/square/65119261.jpg", "owner_id": 982839}, {"upload_date": "12 November 2011", "owner_name": "Mzeechuma", "photo_id": 62061032, "longitude": 40.531483, "height": 60, "width": 60, "photo_title": "Lamu Wilderness", "latitude": -2.381716, "owner_url": "http://www.panoramio.com/user/4314654", "photo_url": "http://www.panoramio.com/photo/62061032", "photo_file_url": "http://mw2.google.com/mw-panoramio/photos/square/62061032.jpg", "owner_id": 4314654}, {"upload_date": "20 April 2011", "owner_name": "Sal Paradise", "photo_id": 51367447, "longitude": 40.11155600000001, "height": 60, "width": 60, "photo_title": "Hells Kitchen", "latitude": -3.078809, "owner_url": "http://www.panoramio.com/user/5805172", "photo_url": "http://www.panoramio.com/photo/51367447", "photo_file_url": "http://mw2.google.com/mw-panoramio/photos/square/51367447.jpg", "owner_id": 5805172}, {"upload_date": "21 July 2013", "owner_name": "Mapinduzi", "photo_id": 93459359, "longitude": 40.818071, "height": 60, "width": 60, "photo_title": "Hindi Magogoni Lamu Port Guesthouse", "latitude": -2.185577, "owner_url": "http://www.panoramio.com/user/733472", "photo_url": "http://www.panoramio.com/photo/93459359", "photo_file_url": "http://mw2.google.com/mw-panoramio/photos/square/93459359.jpg", "owner_id": 733472}, {"upload_date": "08 June 2014", "owner_name": "halesia2004", "photo_id": 107923466, "longitude": 40.192795, "height": 60, "width": 60, "photo_title": "halesia2004 - Malindi 2013 - The green lagoon.", "latitude": -2.930149, "owner_url": "http://www.panoramio.com/user/617575", "photo_url": "http://www.panoramio.com/photo/107923466", "photo_file_url": "http://mw2.google.com/mw-panoramio/photos/square/107923466.jpg", "owner_id": 617575}, {"upload_date": "30 July 2008", "owner_name": "fabrizio farsetti", "photo_id": 12626713, "longitude": 40.158377, "height": 60, "width": 60, "photo_title": "karibuni villas 4", "latitude": -3.110606, "owner_url": "http://www.panoramio.com/user/2022690", "photo_url": "http://www.panoramio.com/photo/12626713", "photo_file_url": "http://mw2.google.com/mw-panoramio/photos/square/12626713.jpg", "owner_id": 2022690}, {"upload_date": "26 July 2008", "owner_name": "fabrizio farsetti", "photo_id": 12488068, "longitude": 40.161295, "height": 60, "width": 60, "photo_title": "tramonto a manbrui", "latitude": -3.118662, "owner_url": "http://www.panoramio.com/user/2022690", "photo_url": "http://www.panoramio.com/photo/12488068", "photo_file_url": "http://mw2.google.com/mw-panoramio/photos/square/12488068.jpg", "owner_id": 2022690}, {"upload_date": "26 July 2008", "owner_name": "fabrizio farsetti", "photo_id": 12488079, "longitude": 40.158119, "height": 60, "width": 60, "photo_title": "che shale beach", "latitude": -3.094408, "owner_url": "http://www.panoramio.com/user/2022690", "photo_url": "http://www.panoramio.com/photo/12488079", "photo_file_url": "http://mw2.google.com/mw-panoramio/photos/square/12488079.jpg", "owner_id": 2022690}, {"upload_date": "31 January 2011", "owner_name": "Maximovich Nikolay", "photo_id": 47383837, "longitude": 40.122832, "height": 60, "width": 60, "photo_title": "Old baobab.Malindi.  \u041c\u0430\u043b\u0438\u043d\u0434\u0438, \u041a\u0435\u043d\u0438\u044f ", "latitude": -3.149636, "owner_url": "http://www.panoramio.com/user/4147970", "photo_url": "http://www.panoramio.com/photo/47383837", "photo_file_url": "http://mw2.google.com/mw-panoramio/photos/square/47383837.jpg", "owner_id": 4147970}, {"upload_date": "29 August 2007", "owner_name": "Stefano e Maril\u00f9", "photo_id": 4278031, "longitude": 40.149364, "height": 60, "width": 60, "photo_title": "Malindi", "latitude": -3.089951, "owner_url": "http://www.panoramio.com/user/838372", "photo_url": "http://www.panoramio.com/photo/4278031", "photo_file_url": "http://mw2.google.com/mw-panoramio/photos/square/4278031.jpg", "owner_id": 838372}, {"upload_date": "31 January 2011", "owner_name": "Maximovich Nikolay", "photo_id": 47383633, "longitude": 40.011231, "height": 60, "width": 60, "photo_title": "Two trees, Malindi, \u041a\u0435\u043d\u0438\u044f ", "latitude": -3.093194, "owner_url": "http://www.panoramio.com/user/4147970", "photo_url": "http://www.panoramio.com/photo/47383633", "photo_file_url": "http://mw2.google.com/mw-panoramio/photos/square/47383633.jpg", "owner_id": 4147970}, {"upload_date": "04 December 2011", "owner_name": "Petrasek1", "photo_id": 63046502, "longitude": 40.147047, "height": 60, "width": 60, "photo_title": "Golden Coast at river Sobaka", "latitude": -3.141116, "owner_url": "http://www.panoramio.com/user/6401873", "photo_url": "http://www.panoramio.com/photo/63046502", "photo_file_url": "http://mw2.google.com/mw-panoramio/photos/square/63046502.jpg", "owner_id": 6401873}, {"upload_date": "27 August 2012", "owner_name": "Francesco Rossetto", "photo_id": 77832366, "longitude": 40.1632, "height": 60, "width": 60, "photo_title": "Mare keniano a Malindi **AUGUST CONTEST 2012**", "latitude": -3.13383, "owner_url": "http://www.panoramio.com/user/2961020", "photo_url": "http://www.panoramio.com/photo/77832366", "photo_file_url": "http://mw2.google.com/mw-panoramio/photos/square/77832366.jpg", "owner_id": 2961020}, {"upload_date": "31 July 2011", "owner_name": "mimmo pazienza", "photo_id": 56566756, "longitude": 40.170135, "height": 60, "width": 60, "photo_title": "la spiaggia di che shale a malindi", "latitude": -3.055154, "owner_url": "http://www.panoramio.com/user/82907", "photo_url": "http://www.panoramio.com/photo/56566756", "photo_file_url": "http://mw2.google.com/mw-panoramio/photos/square/56566756.jpg", "owner_id": 82907}, {"upload_date": "16 November 2008", "owner_name": "Karisia_safaris", "photo_id": 16044516, "longitude": 40.337933, "height": 60, "width": 60, "photo_title": "Kayaking Tana River, Kenya", "latitude": -2.601625, "owner_url": "http://www.panoramio.com/user/2452336", "photo_url": "http://www.panoramio.com/photo/16044516", "photo_file_url": "http://mw2.google.com/mw-panoramio/photos/square/16044516.jpg", "owner_id": 2452336}, {"upload_date": "29 March 2012", "owner_name": "Gio la Gamb", "photo_id": 69331098, "longitude": 40.065006, "height": 60, "width": 60, "photo_title": "Lonno Lodge", "latitude": -3.048853, "owner_url": "http://www.panoramio.com/user/3265834", "photo_url": "http://www.panoramio.com/photo/69331098", "photo_file_url": "http://mw2.google.com/mw-panoramio/photos/square/69331098.jpg", "owner_id": 3265834}, {"upload_date": "25 January 2007", "owner_name": "Lalla78fg", "photo_id": 567305, "longitude": 40.173569, "height": 60, "width": 60, "photo_title": "Che Shale Beach", "latitude": -3.07161, "owner_url": "http://www.panoramio.com/user/121724", "photo_url": "http://www.panoramio.com/photo/567305", "photo_file_url": "http://mw2.google.com/mw-panoramio/photos/square/567305.jpg", "owner_id": 121724}, {"upload_date": "24 March 2010", "owner_name": "\u041c\u0430\u043a\u0430\u0440 \u041f\u0440\u043e\u0441\u0442\u0430\u0447\u043a\u043e\u0432", "photo_id": 33587563, "longitude": 40.182495, "height": 60, "width": 60, "photo_title": "\u0410\u0444\u0440\u0438\u043a\u0430-\u041a\u0435\u043d\u0438\u044f", "latitude": -2.830574, "owner_url": "http://www.panoramio.com/user/1364296", "photo_url": "http://www.panoramio.com/photo/33587563", "photo_file_url": "http://mw2.google.com/mw-panoramio/photos/square/33587563.jpg", "owner_id": 1364296}, {"upload_date": "17 December 2006", "owner_name": "Valevr", "photo_id": 170345, "longitude": 40.109904, "height": 60, "width": 60, "photo_title": "houses  near Sabaki area", "latitude": -3.157314, "owner_url": "http://www.panoramio.com/user/22068", "photo_url": "http://www.panoramio.com/photo/170345", "photo_file_url": "http://mw2.google.com/mw-panoramio/photos/square/170345.jpg", "owner_id": 22068}, {"upload_date": "30 January 2007", "owner_name": "Luk\u00e1\u0161 Kment", "photo_id": 623537, "longitude": 40.170994, "height": 60, "width": 60, "photo_title": "Fishers 2", "latitude": -3.151486, "owner_url": "http://www.panoramio.com/user/134269", "photo_url": "http://www.panoramio.com/photo/623537", "photo_file_url": "http://mw2.google.com/mw-panoramio/photos/square/623537.jpg", "owner_id": 134269}, {"upload_date": "12 February 2011", "owner_name": "wdlangchicago", "photo_id": 47996955, "longitude": 40.81682699999999, "height": 60, "width": 60, "photo_title": "Kizingo", "latitude": -2.335731, "owner_url": "http://www.panoramio.com/user/4908572", "photo_url": "http://www.panoramio.com/photo/47996955", "photo_file_url": "http://mw2.google.com/mw-panoramio/photos/square/47996955.jpg", "owner_id": 4908572}, {"upload_date": "21 April 2012", "owner_name": "cocoriti", "photo_id": 70693492, "longitude": 40.189827, "height": 60, "width": 60, "photo_title": "MARAFA,LA CUCINA DEL DIAVOLO", "latitude": -3.052069, "owner_url": "http://www.panoramio.com/user/4656750", "photo_url": "http://www.panoramio.com/photo/70693492", "photo_file_url": "http://mw2.google.com/mw-panoramio/photos/square/70693492.jpg", "owner_id": 4656750}, {"upload_date": "14 March 2008", "owner_name": "massimo60", "photo_id": 8521368, "longitude": 40.109206, "height": 60, "width": 60, "photo_title": "Malindi michikenda", "latitude": -3.165091, "owner_url": "http://www.panoramio.com/user/1497911", "photo_url": "http://www.panoramio.com/photo/8521368", "photo_file_url": "http://mw2.google.com/mw-panoramio/photos/square/8521368.jpg", "owner_id": 1497911}, {"upload_date": "21 April 2012", "owner_name": "cocoriti", "photo_id": 70693568, "longitude": 40.070351, "height": 60, "width": 60, "photo_title": "KENYA", "latitude": -3.112407, "owner_url": "http://www.panoramio.com/user/4656750", "photo_url": "http://www.panoramio.com/photo/70693568", "photo_file_url": "http://mw2.google.com/mw-panoramio/photos/square/70693568.jpg", "owner_id": 4656750}, {"upload_date": "21 April 2012", "owner_name": "cocoriti", "photo_id": 70693516, "longitude": 40.141762, "height": 60, "width": 60, "photo_title": "ZONA DI MARAFA - KENYA", "latitude": -3.074011, "owner_url": "http://www.panoramio.com/user/4656750", "photo_url": "http://www.panoramio.com/photo/70693516", "photo_file_url": "http://mw2.google.com/mw-panoramio/photos/square/70693516.jpg", "owner_id": 4656750}, {"upload_date": "16 November 2008", "owner_name": "Stefano Negri", "photo_id": 16041477, "longitude": 40.135117, "height": 60, "width": 60, "photo_title": "Sabaki River ", "latitude": -3.164084, "owner_url": "http://www.panoramio.com/user/2455591", "photo_url": "http://www.panoramio.com/photo/16041477", "photo_file_url": "http://mw2.google.com/mw-panoramio/photos/square/16041477.jpg", "owner_id": 2455591}, {"upload_date": "20 January 2008", "owner_name": "luciano canestrari", "photo_id": 7235978, "longitude": 40.135803, "height": 60, "width": 60, "photo_title": "Periferia di Malindi", "latitude": -3.121319, "owner_url": "http://www.panoramio.com/user/784157", "photo_url": "http://www.panoramio.com/photo/7235978", "photo_file_url": "http://mw2.google.com/mw-panoramio/photos/square/7235978.jpg", "owner_id": 784157}, {"upload_date": "21 June 2009", "owner_name": "Giampaolo Calogero", "photo_id": 23691025, "longitude": 40.165694, "height": 60, "width": 60, "photo_title": "Robinson's Island", "latitude": -2.906653, "owner_url": "http://www.panoramio.com/user/3355853", "photo_url": "http://www.panoramio.com/photo/23691025", "photo_file_url": "http://mw2.google.com/mw-panoramio/photos/square/23691025.jpg", "owner_id": 3355853}, {"upload_date": "01 November 2011", "owner_name": "rinorey", "photo_id": 61509211, "longitude": 40.152283, "height": 60, "width": 60, "photo_title": "periodo delle alghe  ,", "latitude": -3.149772, "owner_url": "http://www.panoramio.com/user/777873", "photo_url": "http://www.panoramio.com/photo/61509211", "photo_file_url": "http://mw2.google.com/mw-panoramio/photos/square/61509211.jpg", "owner_id": 777873}, {"upload_date": "25 April 2010", "owner_name": "frame", "photo_id": 34731722, "longitude": 40.436726, "height": 60, "width": 60, "photo_title": "north witu ranch", "latitude": -2.372746, "owner_url": "http://www.panoramio.com/user/4418036", "photo_url": "http://www.panoramio.com/photo/34731722", "photo_file_url": "http://mw2.google.com/mw-panoramio/photos/square/34731722.jpg", "owner_id": 4418036}, {"upload_date": "12 November 2011", "owner_name": "Mzeechuma", "photo_id": 62061027, "longitude": 40.545387, "height": 60, "width": 60, "photo_title": "Lamu Wilderness", "latitude": -2.372154, "owner_url": "http://www.panoramio.com/user/4314654", "photo_url": "http://www.panoramio.com/photo/62061027", "photo_file_url": "http://mw2.google.com/mw-panoramio/photos/square/62061027.jpg", "owner_id": 4314654}, {"upload_date": "18 January 2012", "owner_name": "Grazia Redaelli", "photo_id": 65119098, "longitude": 40.195506, "height": 60, "width": 60, "photo_title": "Saline di Ngomeni  - Kenya", "latitude": -3.026229, "owner_url": "http://www.panoramio.com/user/982839", "photo_url": "http://www.panoramio.com/photo/65119098", "photo_file_url": "http://mw2.google.com/mw-panoramio/photos/square/65119098.jpg", "owner_id": 982839}, {"upload_date": "21 December 2012", "owner_name": "marghes", "photo_id": 83669971, "longitude": 40.122071, "height": 60, "width": 60, "photo_title": "Foresta di Baobab", "latitude": -3.074695, "owner_url": "http://www.panoramio.com/user/7326536", "photo_url": "http://www.panoramio.com/photo/83669971", "photo_file_url": "http://mw2.google.com/mw-panoramio/photos/square/83669971.jpg", "owner_id": 7326536}, {"upload_date": "20 February 2014", "owner_name": "donny51", "photo_id": 103435154, "longitude": 40.157304, "height": 60, "width": 60, "photo_title": "Plantation bs in Garite", "latitude": -3.074352, "owner_url": "http://www.panoramio.com/user/7336111", "photo_url": "http://www.panoramio.com/photo/103435154", "photo_file_url": "http://mw2.google.com/mw-panoramio/photos/square/103435154.jpg", "owner_id": 7336111}, {"upload_date": "08 June 2014", "owner_name": "halesia2004", "photo_id": 107923361, "longitude": 40.202751, "height": 60, "width": 60, "photo_title": "halesia2004 - Tsavo East National Park 2013  - La famosissima Isola dell'Amore!", "latitude": -2.968824, "owner_url": "http://www.panoramio.com/user/617575", "photo_url": "http://www.panoramio.com/photo/107923361", "photo_file_url": "http://mw2.google.com/mw-panoramio/photos/square/107923361.jpg", "owner_id": 617575}, {"upload_date": "20 February 2014", "owner_name": "donny51", "photo_id": 103434922, "longitude": 39.985428, "height": 60, "width": 60, "photo_title": "Lion rock in Marafa Hell Kitchen", "latitude": -3.030812, "owner_url": "http://www.panoramio.com/user/7336111", "photo_url": "http://www.panoramio.com/photo/103434922", "photo_file_url": "http://mw2.google.com/mw-panoramio/photos/square/103434922.jpg", "owner_id": 7336111}]}